Session Time,GPS Fix Quality,Number of Satellites,GPS Date & Time,Latitude (deg),Longitude (deg),GPS Altitude (feet),Ground Speed (knots),Ground Track (deg),Mag Var (deg),Cross Track Error (NM),Destination Waypoint ID,Range to Destination (NM),Bearing to Destination (deg),System Time,Pitch (deg),Roll (deg),Magnetic Heading (deg),Indicated Airspeed (knots),Pressure Altitude (ft),Turn Rate (deg/s),Lateral Accel (g),Vertical Accel(g),Angle of Attack (%),Vertical Speed (ft/min),OAT (deg C),True Airspeed (knots),Barometer Setting (inHg),Density Altitude (ft),Wind Direction (deg),Wind Speed (knots),Heading Bug (deg),Altitude Bug (ft),Airspeed Bug (knots),Vertical Speed Bug (ft/min),Course (deg),CDI Source Type,CDI Source Port,CDI Scale (NM),CDI Deflection (%),Glideslope (%),AP Engaged,AP Roll Mode,AP Roll Force,AP Roll Position (steps),AP Roll Slip (bool),AP Pitch Force,AP Pitch Position (steps),AP Pitch Slip (bool),AP Yaw Force,AP Yaw Position,AP Yaw Slip (bool),Transponder Status,Transponder Reply (bool),Transponder Identing (bool),Transponder Code (octal),Oil Pressure (PSI),Oil Temp (deg C),RPM L,RPM R,Manifold Pressure (inHg),Fuel Flow 1 (gal/hr),Fuel Flow 2 (gal/hr),Total Fuel Flow (gal/hr),Fuel Pressure (PSI),Fuel Level L (gal),Fuel Level R (gal),Fuel Remaining (gal),Volts 1,Volts 2,Amps,Hobbs Time,Tach Time,Thermocouple 1 (deg C),Thermocouple 2 (deg C),Thermocouple 3 (deg C),Thermocouple 4 (deg C),CHT 4 (deg C),EGT 4 (deg C),CHT 3 (deg C),EGT 3 (deg C),CHT 2 (deg C),EGT 2 (deg C),CHT 1 (deg C),EGT 1 (deg C),Thermocouple 13 (deg C),Thermocouple 14 (deg C),ELEV POSITION (%),CO PPM PRESSURE (PSI),GP Input 3,FUEL PRESSURE (PSI),AILERN POSITION (%),CANOPY CONTACT (V),GP Input 7,GP Input 8,LEFT LEVEL (Sensor V),RIGHT LEVEL (Sensor V),OIL PRESSURE (PSI),OIL TEMPERATURE (deg C),GP Input 13,Contacts,Percent Power,EGT Leaning State,Unnamed: 103,RPM,AVG_CHT (deg C),CHT_Delta_T (deg C),OIL_Delta_T (deg C),OAT (deg F),Oil Temp (deg F),Thermocouple 1 (deg F),Thermocouple 2 (deg F),Thermocouple 3 (deg F),Thermocouple 4 (deg F),CHT 4 (deg F),EGT 4 (deg F),CHT 3 (deg F),EGT 3 (deg F),CHT 2 (deg F),EGT 2 (deg F),CHT 1 (deg F),EGT 1 (deg F),Thermocouple 13 (deg F),Thermocouple 14 (deg F),OIL TEMPERATURE (deg F),AVG_CHT (deg F),CHT_Delta_T (deg F),OIL_Delta_T (deg F),Fuel Flow Integral,Distance Traveled,MPG,Max CHT,Flight ID
5.06,1.0,4.0,2025-11-29 20:30:35,37.08153,-121.59957,350.0,0.0,243.6,-12.6,0.0,,0.0,0.0,0.0,10.9,-0.7,43.6,0.0,153.0,0.0,-0.01,1.0,0.0,-65.0,12.0,0.0,30.05,-203.0,0.0,0.0,325.0,0.0,0.0,0.0,0.0,0.0,0.0,0.0,0.0,0.0,0.0,0.0,0.0,0.0,0.0,0.0,0.0,0.0,0.0,0.0,0.0,0.0,0.0,0.0,0.0,0.0,11.0,0.0,0.0,30.2,0.0,0.0,0.0,0.0,0.0,0.0,39.2,0.0,0.0,-0.2,0.2,0.1,0.0,0.0,0.0,0.0,11.0,12.0,11.0,12.0,11.0,12.0,11.0,12.0,0.0,0.0,-25.0,254.5,0.0,0.0,1.0,0.0,0.0,0.0,0.653,0.696,0.0,10.5,0.0,0.0,0.0,,0.0,0.0,11.0,-1.0,-1.5,53.6,51.8,0.0,0.0,0.0,0.0,51.8,53.6,51.8,53.6,51.8,53.6,51.8,53.6,0.0,0.0,50.9,51.8,30.2,29.3,0.0,0.0,0.0,347.0,2025-11-29 12:30:35-08:00
6.06,1.0,10.0,2025-11-29 20:30:36,37.0816,-121.59962,389.0,0.0,243.6,-12.6,0.0,,0.0,0.0,0.0,10.9,-0.7,43.6,0.0,153.0,0.0,-0.01,1.0,0.0,-30.0,12.0,0.0,30.05,-203.0,0.0,0.0,325.0,0.0,0.0,0.0,0.0,0.0,0.0,0.0,0.0,0.0,0.0,0.0,0.0,0.0,0.0,0.0,0.0,0.0,0.0,0.0,0.0,0.0,0.0,0.0,0.0,0.0,11.0,0.0,0.0,30.2,0.0,0.0,0.0,0.0,0.0,0.0,39.2,0.0,0.0,-0.2,0.2,0.1,0.0,0.0,0.0,0.0,11.0,12.0,11.0,12.0,11.0,12.0,11.0,12.0,0.0,0.0,-25.0,254.5,0.0,0.0,1.0,0.0,0.0,0.0,0.653,0.696,0.0,10.5,0.0,0.0,0.0,,0.0,0.0,11.0,-1.0,-1.5,53.6,51.8,0.0,0.0,0.0,0.0,51.8,53.6,51.8,53.6,51.8,53.6,51.8,53.6,0.0,0.0,50.9,51.8,30.2,29.3,0.0,0.0,0.0,347.0,2025-11-29 12:30:35-08:00
7.06,1.0,10.0,2025-11-29 20:30:37,37.08158,-121.59966,371.0,0.0,243.6,-12.6,0.0,,0.0,0.0,0.0,10.9,-0.7,43.6,0.0,152.0,0.0,-0.01,1.0,0.0,-46.0,12.0,0.0,30.05,-203.0,0.0,0.0,325.0,0.0,0.0,0.0,0.0,0.0,0.0,0.0,0.0,0.0,0.0,0.0,0.0,0.0,0.0,0.0,0.0,0.0,0.0,0.0,0.0,0.0,0.0,0.0,0.0,0.0,11.0,0.0,0.0,30.2,0.0,0.0,0.0,0.0,0.0,0.0,39.2,0.0,0.0,-0.2,0.2,0.1,0.0,0.0,0.0,0.0,11.0,12.0,11.0,12.0,11.0,12.0,11.0,12.0,0.0,0.0,-26.0,254.5,0.0,0.0,1.0,0.0,0.0,0.0,0.653,0.696,0.0,10.5,0.0,0.0,0.0,,0.0,0.0,11.0,-1.0,-1.5,53.6,51.8,0.0,0.0,0.0,0.0,51.8,53.6,51.8,53.6,51.8,53.6,51.8,53.6,0.0,0.0,50.9,51.8,30.2,29.3,0.0,0.0,0.0,347.0,2025-11-29 12:30:35-08:00
8.06,1.0,10.0,2025-11-29 20:30:38,37.08158,-121.59966,376.0,0.0,243.6,-12.6,0.0,,0.0,0.0,0.0,10.9,-0.8,43.6,0.0,152.0,0.0,-0.01,1.0,0.0,-12.0,12.0,0.0,30.05,-205.0,0.0,0.0,325.0,0.0,0.0,0.0,0.0,0.0,0.0,0.0,0.0,0.0,0.0,0.0,0.0,0.0,0.0,0.0,0.0,0.0,0.0,0.0,0.0,0.0,0.0,0.0,0.0,0.0,11.0,0.0,0.0,30.2,0.0,0.0,0.0,0.0,0.0,0.0,39.2,0.0,0.0,-0.2,0.2,0.1,0.0,0.0,0.0,0.0,11.0,12.0,11.0,12.0,11.0,12.0,11.0,12.0,0.0,0.0,-25.0,254.5,0.0,0.0,1.0,0.0,0.0,0.0,0.653,0.696,0.0,10.5,0.0,0.0,0.0,,0.0,0.0,11.0,-1.0,-1.5,53.6,51.8,0.0,0.0,0.0,0.0,51.8,53.6,51.8,53.6,51.8,53.6,51.8,53.6,0.0,0.0,50.9,51.8,30.2,29.3,0.0,0.0,0.0,347.0,2025-11-29 12:30:35-08:00
9.06,1.0,10.0,2025-11-29 20:30:39,37.08158,-121.59966,380.0,0.0,243.6,-12.6,0.0,,0.0,0.0,0.0,10.9,-0.8,43.5,0.0,151.0,0.0,-0.01,1.0,0.0,-27.0,12.0,0.0,30.05,-205.0,0.0,0.0,325.0,0.0,0.0,0.0,0.0,0.0,0.0,0.0,0.0,0.0,0.0,0.0,0.0,0.0,0.0,0.0,0.0,0.0,0.0,0.0,0.0,0.0,0.0,0.0,0.0,0.0,11.0,0.0,0.0,30.2,0.0,0.0,0.0,0.0,0.0,0.0,39.2,0.0,0.0,-0.2,0.2,0.1,0.0,0.0,0.0,0.0,11.0,12.0,11.0,12.0,11.0,12.0,11.0,12.0,0.0,0.0,-25.0,254.5,0.0,0.0,1.0,0.0,0.0,0.0,0.653,0.696,0.0,10.5,0.0,0.0,0.0,,0.0,0.0,11.0,-1.0,-1.5,53.6,51.8,0.0,0.0,0.0,0.0,51.8,53.6,51.8,53.6,51.8,53.6,51.8,53.6,0.0,0.0,50.9,51.8,30.2,29.3,0.0,0.0,0.0,347.0,2025-11-29 12:30:35-08:00
10.06,1.0,10.0,2025-11-29 20:30:40,37.08158,-121.59965,383.0,0.0,243.6,-12.6,0.0,,0.0,0.0,0.0,10.9,-0.7,43.5,0.0,151.0,0.0,-0.01,1.0,0.0,-30.0,12.0,0.0,30.05,-205.0,0.0,0.0,325.0,0.0,0.0,0.0,0.0,0.0,0.0,0.0,0.0,0.0,0.0,0.0,0.0,0.0,0.0,0.0,0.0,0.0,0.0,0.0,0.0,0.0,0.0,0.0,0.0,0.0,11.0,0.0,0.0,30.2,0.0,0.0,0.0,0.0,0.0,0.0,39.2,0.0,0.0,-0.2,0.2,0.1,0.0,0.0,0.0,0.0,11.0,12.0,11.0,12.0,11.0,12.0,11.0,12.0,0.0,0.0,-26.0,254.5,0.0,0.0,1.0,0.0,0.0,0.0,0.653,0.696,0.0,10.5,0.0,0.0,0.0,,0.0,0.0,11.0,-1.0,-1.5,53.6,51.8,0.0,0.0,0.0,0.0,51.8,53.6,51.8,53.6,51.8,53.6,51.8,53.6,0.0,0.0,50.9,51.8,30.2,29.3,0.0,0.0,0.0,347.0,2025-11-29 12:30:35-08:00
11.06,1.0,10.0,2025-11-29 20:30:41,37.08158,-121.59965,385.0,0.0,243.6,-12.6,0.0,,0.0,0.0,0.0,10.9,-0.7,43.6,0.0,148.0,0.0,-0.01,1.0,0.0,-81.0,12.0,0.0,30.05,-201.0,0.0,0.0,325.0,0.0,0.0,0.0,0.0,0.0,0.0,0.0,0.0,0.0,0.0,0.0,0.0,0.0,0.0,0.0,0.0,0.0,0.0,0.0,0.0,0.0,0.0,0.0,0.0,0.0,11.0,0.0,0.0,30.2,0.0,0.0,0.0,0.0,0.0,0.0,39.2,0.0,0.0,-0.2,0.2,0.1,0.0,0.0,0.0,0.0,11.0,12.0,11.0,12.0,11.0,12.0,11.0,12.0,0.0,0.0,-26.0,254.5,0.0,0.0,1.0,0.0,0.0,0.0,0.653,0.696,0.0,10.5,0.0,0.0,0.0,,0.0,0.0,11.0,-1.0,-1.5,53.6,51.8,0.0,0.0,0.0,0.0,51.8,53.6,51.8,53.6,51.8,53.6,51.8,53.6,0.0,0.0,50.9,51.8,30.2,29.3,0.0,0.0,0.0,347.0,2025-11-29 12:30:35-08:00
12.06,1.0,10.0,2025-11-29 20:30:42,37.08158,-121.59965,385.0,0.0,243.6,-12.6,0.0,,0.0,0.0,0.0,10.9,-0.7,43.6,0.0,147.0,0.0,-0.01,1.0,0.0,-89.0,12.0,0.0,30.05,-203.0,0.0,0.0,325.0,0.0,0.0,0.0,0.0,0.0,0.0,0.0,0.0,0.0,0.0,0.0,0.0,0.0,0.0,0.0,0.0,0.0,0.0,0.0,0.0,0.0,0.0,0.0,0.0,0.0,11.0,0.0,0.0,30.2,0.0,0.0,0.0,0.0,0.0,0.0,39.2,0.0,0.0,-0.2,0.2,0.1,0.0,0.0,0.0,0.0,11.0,12.0,11.0,12.0,11.0,12.0,11.0,12.0,0.0,0.0,-28.0,254.5,0.0,0.0,1.0,0.0,0.0,0.0,0.653,0.696,0.0,10.5,0.0,0.0,0.0,,0.0,0.0,11.0,-1.0,-1.5,53.6,51.8,0.0,0.0,0.0,0.0,51.8,53.6,51.8,53.6,51.8,53.6,51.8,53.6,0.0,0.0,50.9,51.8,30.2,29.3,0.0,0.0,0.0,347.0,2025-11-29 12:30:35-08:00
13.06,1.0,10.0,2025-11-29 20:30:43,37.08158,-121.59965,386.0,0.0,243.6,-12.6,0.0,,0.0,0.0,0.0,10.9,-0.7,43.5,0.0,146.0,0.0,-0.01,1.0,0.0,-50.0,12.0,0.0,30.05,-203.0,0.0,0.0,325.0,0.0,0.0,0.0,0.0,0.0,0.0,0.0,0.0,0.0,0.0,0.0,0.0,0.0,0.0,0.0,0.0,0.0,0.0,0.0,0.0,0.0,0.0,0.0,0.0,0.0,11.0,0.0,0.0,30.2,0.0,0.0,0.0,0.0,0.0,0.0,39.2,0.0,0.0,-0.2,0.2,0.1,0.0,0.0,0.0,0.0,11.0,12.0,11.0,12.0,11.0,12.0,11.0,12.0,0.0,0.0,-26.0,254.5,0.0,0.0,1.0,0.0,0.0,0.0,0.653,0.696,0.0,10.5,0.0,0.0,0.0,,0.0,0.0,11.0,-1.0,-1.5,53.6,51.8,0.0,0.0,0.0,0.0,51.8,53.6,51.8,53.6,51.8,53.6,51.8,53.6,0.0,0.0,50.9,51.8,30.2,29.3,0.0,0.0,0.0,347.0,2025-11-29 12:30:35-08:00
14.06,1.0,10.0,2025-11-29 20:30:44,37.08158,-121.59965,385.0,0.0,243.6,-12.6,0.0,,0.0,0.0,0.0,10.9,-0.7,43.6,0.0,146.0,0.0,-0.01,1.0,0.0,-52.0,12.0,0.0,30.05,-203.0,0.0,0.0,325.0,0.0,0.0,0.0,0.0,0.0,0.0,0.0,0.0,0.0,0.0,0.0,0.0,0.0,0.0,0.0,0.0,0.0,0.0,0.0,0.0,0.0,0.0,0.0,0.0,0.0,11.0,0.0,0.0,30.2,0.0,0.0,0.0,0.0,0.0,0.0,39.2,0.0,0.0,-0.2,0.2,0.1,0.0,0.0,0.0,0.0,11.0,12.0,11.0,12.0,11.0,12.0,11.0,12.0,0.0,0.0,-25.0,254.5,0.0,0.0,1.0,0.0,0.0,0.0,0.653,0.696,0.0,10.5,0.0,0.0,0.0,,0.0,0.0,11.0,-1.0,-1.5,53.6,51.8,0.0,0.0,0.0,0.0,51.8,53.6,51.8,53.6,51.8,53.6,51.8,53.6,0.0,0.0,50.9,51.8,30.2,29.3,0.0,0.0,0.0,347.0,2025-11-29 12:30:35-08:00
15.06,1.0,10.0,2025-11-29 20:30:45,37.08158,-121.59965,385.0,0.0,243.6,-12.6,0.0,,0.0,0.0,0.0,10.9,-0.7,43.6,0.0,146.0,0.0,-0.01,1.0,0.0,-34.0,12.0,0.0,30.05,-202.0,0.0,0.0,325.0,0.0,0.0,0.0,0.0,0.0,0.0,0.0,0.0,0.0,0.0,0.0,0.0,0.0,0.0,0.0,0.0,0.0,0.0,0.0,0.0,0.0,0.0,0.0,0.0,0.0,11.0,0.0,0.0,30.2,0.0,0.0,0.0,0.0,0.0,0.0,39.2,0.0,0.0,-0.2,0.2,0.1,0.0,0.0,0.0,0.0,11.0,12.0,11.0,12.0,11.0,12.0,11.0,12.0,0.0,0.0,-25.0,254.5,0.0,0.0,1.0,0.0,0.0,0.0,0.653,0.696,0.0,10.5,0.0,0.0,0.0,,0.0,0.0,11.0,-1.0,-1.5,53.6,51.8,0.0,0.0,0.0,0.0,51.8,53.6,51.8,53.6,51.8,53.6,51.8,53.6,0.0,0.0,50.9,51.8,30.2,29.3,0.0,0.0,0.0,347.0,2025-11-29 12:30:35-08:00
16.06,1.0,10.0,2025-11-29 20:30:46,37.08158,-121.59965,384.0,0.0,243.6,-12.6,0.0,,0.0,0.0,0.0,10.9,-0.7,43.6,0.0,146.0,0.0,-0.01,1.0,0.0,-2.0,12.0,0.0,30.05,-202.0,0.0,0.0,325.0,0.0,0.0,0.0,0.0,0.0,0.0,0.0,0.0,0.0,0.0,0.0,0.0,0.0,0.0,0.0,0.0,0.0,0.0,0.0,0.0,0.0,0.0,0.0,0.0,0.0,11.0,0.0,0.0,30.2,0.0,0.0,0.0,0.0,0.0,0.0,39.2,0.0,0.0,-0.2,0.2,0.1,0.0,0.0,0.0,0.0,11.0,12.0,11.0,12.0,11.0,12.0,11.0,12.0,0.0,0.0,-25.0,254.5,0.0,0.0,1.0,0.0,0.0,0.0,0.653,0.696,0.0,10.5,0.0,0.0,0.0,,0.0,0.0,11.0,-1.0,-1.5,53.6,51.8,0.0,0.0,0.0,0.0,51.8,53.6,51.8,53.6,51.8,53.6,51.8,53.6,0.0,0.0,50.9,51.8,30.2,29.3,0.0,0.0,0.0,347.0,2025-11-29 12:30:35-08:00
17.06,1.0,10.0,2025-11-29 20:30:47,37.08158,-121.59965,382.0,0.0,243.6,-12.6,0.0,,0.0,0.0,0.0,10.9,-0.7,43.6,0.0,146.0,0.0,-0.01,1.0,0.0,13.0,12.0,0.0,30.05,-202.0,0.0,0.0,325.0,0.0,0.0,0.0,0.0,0.0,0.0,0.0,0.0,0.0,0.0,0.0,0.0,0.0,0.0,0.0,0.0,0.0,0.0,0.0,0.0,0.0,0.0,0.0,0.0,0.0,11.0,0.0,0.0,30.2,0.0,0.0,0.0,0.0,0.0,0.0,39.2,0.0,0.0,-0.2,0.2,0.1,0.0,0.0,0.0,0.0,11.0,12.0,11.0,12.0,11.0,12.0,11.0,12.0,0.0,0.0,-26.0,254.5,0.0,0.0,1.0,0.0,0.0,0.0,0.653,0.696,0.0,10.5,0.0,0.0,0.0,,0.0,0.0,11.0,-1.0,-1.5,53.6,51.8,0.0,0.0,0.0,0.0,51.8,53.6,51.8,53.6,51.8,53.6,51.8,53.6,0.0,0.0,50.9,51.8,30.2,29.3,0.0,0.0,0.0,347.0,2025-11-29 12:30:35-08:00
18.06,1.0,10.0,2025-11-29 20:30:48,37.08158,-121.59964,380.0,0.0,243.6,-12.6,0.0,,0.0,0.0,0.0,10.9,-0.7,43.6,0.0,146.0,0.0,-0.01,1.0,0.0,15.0,12.0,0.0,30.05,-202.0,0.0,0.0,325.0,0.0,0.0,0.0,0.0,0.0,0.0,0.0,0.0,0.0,0.0,0.0,0.0,0.0,0.0,0.0,0.0,0.0,0.0,0.0,0.0,0.0,0.0,0.0,0.0,0.0,11.0,0.0,0.0,30.2,0.0,0.0,0.0,0.0,0.0,0.0,39.2,0.0,0.0,-0.2,0.2,0.1,0.0,0.0,0.0,0.0,11.0,12.0,11.0,12.0,11.0,12.0,11.0,12.0,0.0,0.0,-26.0,254.5,0.0,0.0,1.0,0.0,0.0,0.0,0.653,0.696,0.0,10.5,0.0,0.0,0.0,,0.0,0.0,11.0,-1.0,-1.5,53.6,51.8,0.0,0.0,0.0,0.0,51.8,53.6,51.8,53.6,51.8,53.6,51.8,53.6,0.0,0.0,50.9,51.8,30.2,29.3,0.0,0.0,0.0,347.0,2025-11-29 12:30:35-08:00
19.06,1.0,10.0,2025-11-29 20:30:49,37.08158,-121.59964,378.0,0.0,243.6,-12.6,0.0,,0.0,0.0,0.0,10.9,-0.7,43.6,0.0,146.0,0.0,-0.01,1.0,0.0,10.0,12.0,0.0,30.05,-202.0,0.0,0.0,325.0,0.0,0.0,0.0,0.0,0.0,0.0,0.0,0.0,0.0,0.0,0.0,0.0,0.0,0.0,0.0,0.0,0.0,0.0,0.0,0.0,0.0,0.0,0.0,0.0,0.0,11.0,0.0,0.0,30.2,0.0,0.0,0.0,0.0,0.0,0.0,39.2,0.0,0.0,-0.2,0.2,0.1,0.0,0.0,0.0,0.0,11.0,12.0,11.0,12.0,11.0,12.0,11.0,12.0,0.0,0.0,-25.0,254.5,0.0,0.0,1.0,0.0,0.0,0.0,0.653,0.696,0.0,10.5,0.0,0.0,0.0,,0.0,0.0,11.0,-1.0,-1.5,53.6,51.8,0.0,0.0,0.0,0.0,51.8,53.6,51.8,53.6,51.8,53.6,51.8,53.6,0.0,0.0,50.9,51.8,30.2,29.3,0.0,0.0,0.0,347.0,2025-11-29 12:30:35-08:00
20.06,1.0,10.0,2025-11-29 20:30:50,37.08158,-121.59964,376.0,0.0,243.6,-12.6,0.0,,0.0,0.0,0.0,10.9,-0.8,43.6,0.0,146.0,0.0,-0.01,1.0,0.0,10.0,12.0,0.0,30.05,-202.0,0.0,0.0,325.0,0.0,0.0,0.0,0.0,0.0,0.0,0.0,0.0,0.0,0.0,0.0,0.0,0.0,0.0,0.0,0.0,0.0,0.0,0.0,0.0,0.0,0.0,0.0,0.0,0.0,11.0,0.0,0.0,30.2,0.0,0.0,0.0,0.0,0.0,0.0,39.2,0.0,0.0,-0.2,0.2,0.1,0.0,0.0,0.0,0.0,11.0,12.0,11.0,12.0,11.0,12.0,11.0,12.0,0.0,0.0,-26.0,254.5,0.0,0.0,1.0,0.0,0.0,0.0,0.653,0.696,0.0,10.5,0.0,0.0,0.0,,0.0,0.0,11.0,-1.0,-1.5,53.6,51.8,0.0,0.0,0.0,0.0,51.8,53.6,51.8,53.6,51.8,53.6,51.8,53.6,0.0,0.0,50.9,51.8,30.2,29.3,0.0,0.0,0.0,347.0,2025-11-29 12:30:35-08:00
21.06,1.0,10.0,2025-11-29 20:30:51,37.08158,-121.59964,373.0,0.0,243.6,-12.6,0.0,,0.0,0.0,0.0,10.9,-0.8,43.5,0.0,146.0,0.0,-0.01,1.0,0.0,-8.0,12.0,0.0,30.05,-202.0,0.0,0.0,325.0,0.0,0.0,0.0,0.0,0.0,0.0,0.0,0.0,0.0,0.0,0.0,0.0,0.0,0.0,0.0,0.0,0.0,0.0,0.0,0.0,0.0,0.0,0.0,0.0,0.0,11.0,0.0,0.0,30.2,0.0,0.0,0.0,0.0,0.0,0.0,39.2,0.0,0.0,-0.2,0.2,0.1,0.0,0.0,0.0,0.0,11.0,12.0,11.0,12.0,11.0,12.0,11.0,12.0,0.0,0.0,-26.0,254.5,0.0,0.0,1.0,0.0,0.0,0.0,0.653,0.696,0.0,10.5,0.0,0.0,0.0,,0.0,0.0,11.0,-1.0,-1.5,53.6,51.8,0.0,0.0,0.0,0.0,51.8,53.6,51.8,53.6,51.8,53.6,51.8,53.6,0.0,0.0,50.9,51.8,30.2,29.3,0.0,0.0,0.0,347.0,2025-11-29 12:30:35-08:00
22.06,1.0,10.0,2025-11-29 20:30:52,37.08157,-121.59964,371.0,0.0,243.6,-12.6,0.0,,0.0,0.0,0.0,10.9,-0.8,43.6,0.0,145.0,0.0,-0.01,1.0,0.0,-35.0,12.0,0.0,30.05,-202.0,0.0,0.0,325.0,0.0,0.0,0.0,0.0,0.0,0.0,0.0,0.0,0.0,0.0,0.0,0.0,0.0,0.0,0.0,0.0,0.0,0.0,0.0,0.0,0.0,0.0,0.0,0.0,0.0,11.0,0.0,0.0,30.2,0.0,0.0,0.0,0.0,0.0,0.0,39.2,0.0,0.0,-0.2,0.2,0.1,0.0,0.0,0.0,0.0,11.0,13.0,11.0,12.0,11.0,12.0,12.0,12.0,0.0,0.0,-26.0,254.5,0.0,0.0,1.0,0.0,0.0,0.0,0.653,0.696,0.0,10.5,0.0,0.0,0.0,,0.0,0.0,11.25,-0.75,-1.5,53.6,51.8,0.0,0.0,0.0,0.0,51.8,55.4,51.8,53.6,51.8,53.6,53.6,53.6,0.0,0.0,50.9,52.25,30.65,29.3,0.0,0.0,0.0,347.0,2025-11-29 12:30:35-08:00
23.06,1.0,10.0,2025-11-29 20:30:53,37.08157,-121.59964,368.0,0.0,243.6,-12.6,0.0,,0.0,0.0,0.0,10.9,-0.8,43.5,0.0,144.0,0.0,-0.01,1.0,0.0,-25.0,12.0,0.0,30.05,-202.0,0.0,0.0,325.0,0.0,0.0,0.0,0.0,0.0,0.0,0.0,0.0,0.0,0.0,0.0,0.0,0.0,0.0,0.0,0.0,0.0,0.0,0.0,0.0,0.0,0.0,0.0,0.0,0.0,11.0,0.0,0.0,30.2,0.0,0.0,0.0,0.0,0.0,0.0,39.2,0.0,0.0,-0.2,0.2,0.1,0.0,0.0,0.0,0.0,11.0,12.0,11.0,12.0,11.0,12.0,11.0,12.0,0.0,0.0,-26.0,254.5,0.0,0.0,1.0,0.0,0.0,0.0,0.653,0.696,0.0,10.5,0.0,0.0,0.0,,0.0,0.0,11.0,-1.0,-1.5,53.6,51.8,0.0,0.0,0.0,0.0,51.8,53.6,51.8,53.6,51.8,53.6,51.8,53.6,0.0,0.0,50.9,51.8,30.2,29.3,0.0,0.0,0.0,347.0,2025-11-29 12:30:35-08:00
24.06,1.0,10.0,2025-11-29 20:30:54,37.08157,-121.59964,366.0,0.0,243.6,-12.6,0.0,,0.0,0.0,0.0,10.9,-0.8,43.5,0.0,144.0,0.0,-0.01,1.0,0.0,-42.0,12.0,0.0,30.05,-204.0,0.0,0.0,325.0,0.0,0.0,0.0,0.0,0.0,0.0,0.0,0.0,0.0,0.0,0.0,0.0,0.0,0.0,0.0,0.0,0.0,0.0,0.0,0.0,0.0,0.0,0.0,0.0,0.0,11.0,0.0,0.0,30.2,0.0,0.0,0.0,0.0,0.0,0.0,39.2,0.0,0.0,-0.2,0.2,0.1,0.0,0.0,0.0,0.0,11.0,12.0,11.0,12.0,11.0,12.0,11.0,12.0,0.0,0.0,-26.0,254.5,0.0,0.0,1.0,0.0,0.0,0.0,0.653,0.696,0.0,10.5,0.0,0.0,0.0,,0.0,0.0,11.0,-1.0,-1.5,53.6,51.8,0.0,0.0,0.0,0.0,51.8,53.6,51.8,53.6,51.8,53.6,51.8,53.6,0.0,0.0,50.9,51.8,30.2,29.3,0.0,0.0,0.0,347.0,2025-11-29 12:30:35-08:00
25.06,1.0,10.0,2025-11-29 20:30:55,37.08157,-121.59964,363.0,0.0,243.6,-12.6,0.0,,0.0,0.0,0.0,10.9,-0.8,43.5,0.0,143.0,0.0,-0.01,1.0,0.0,-55.0,12.0,0.0,30.05,-204.0,0.0,0.0,325.0,0.0,0.0,0.0,0.0,0.0,0.0,0.0,0.0,0.0,0.0,0.0,0.0,0.0,0.0,0.0,0.0,0.0,0.0,0.0,0.0,0.0,0.0,0.0,0.0,0.0,11.0,0.0,0.0,30.2,0.0,0.0,0.0,0.0,0.0,0.0,39.2,0.0,0.0,-0.2,0.2,0.1,0.0,0.0,0.0,0.0,11.0,12.0,11.0,12.0,11.0,12.0,11.0,12.0,0.0,0.0,-25.0,254.5,0.0,0.0,1.0,0.0,0.0,0.0,0.653,0.696,0.0,10.5,0.0,0.0,0.0,,0.0,0.0,11.0,-1.0,-1.5,53.6,51.8,0.0,0.0,0.0,0.0,51.8,53.6,51.8,53.6,51.8,53.6,51.8,53.6,0.0,0.0,50.9,51.8,30.2,29.3,0.0,0.0,0.0,347.0,2025-11-29 12:30:35-08:00
26.06,1.0,10.0,2025-11-29 20:30:56,37.08157,-121.59963,361.0,0.0,243.6,-12.6,0.0,,0.0,0.0,0.0,10.9,-0.8,43.5,0.0,142.0,0.0,-0.01,1.0,0.0,-55.0,12.0,0.0,30.05,-204.0,0.0,0.0,325.0,0.0,0.0,0.0,0.0,0.0,0.0,0.0,0.0,0.0,0.0,0.0,0.0,0.0,0.0,0.0,0.0,0.0,0.0,0.0,0.0,0.0,0.0,0.0,0.0,0.0,11.0,0.0,0.0,30.2,0.0,0.0,0.0,0.0,0.0,0.0,39.2,0.0,0.0,-0.2,0.2,0.1,0.0,0.0,0.0,0.0,11.0,13.0,11.0,12.0,11.0,12.0,11.0,12.0,0.0,0.0,-26.0,254.5,0.0,0.0,1.0,0.0,0.0,0.0,0.653,0.696,0.0,10.5,0.0,0.0,0.0,,0.0,0.0,11.0,-1.0,-1.5,53.6,51.8,0.0,0.0,0.0,0.0,51.8,55.4,51.8,53.6,51.8,53.6,51.8,53.6,0.0,0.0,50.9,51.8,30.2,29.3,0.0,0.0,0.0,347.0,2025-11-29 12:30:35-08:00
27.06,1.0,10.0,2025-11-29 20:30:57,37.08156,-121.59963,358.0,0.0,243.6,-12.6,0.0,,0.0,0.0,0.0,10.9,-0.8,43.5,0.0,141.0,0.0,-0.01,1.0,0.0,-45.0,12.0,0.0,30.05,-208.0,0.0,0.0,325.0,0.0,0.0,0.0,0.0,0.0,0.0,0.0,0.0,0.0,0.0,0.0,0.0,0.0,0.0,0.0,0.0,0.0,0.0,0.0,0.0,0.0,0.0,0.0,0.0,0.0,11.0,0.0,0.0,30.2,0.0,0.0,0.0,0.0,0.0,0.0,39.2,0.0,0.0,-0.2,0.2,0.1,0.0,0.0,0.0,0.0,11.0,12.0,11.0,12.0,11.0,12.0,11.0,12.0,0.0,0.0,-26.0,254.5,0.0,0.0,1.0,0.0,0.0,0.0,0.653,0.696,0.0,10.5,0.0,0.0,0.0,,0.0,0.0,11.0,-1.0,-1.5,53.6,51.8,0.0,0.0,0.0,0.0,51.8,53.6,51.8,53.6,51.8,53.6,51.8,53.6,0.0,0.0,50.9,51.8,30.2,29.3,0.0,0.0,0.0,347.0,2025-11-29 12:30:35-08:00
28.06,1.0,10.0,2025-11-29 20:30:58,37.08156,-121.59963,356.0,0.0,243.6,-12.6,0.0,,0.0,0.0,0.0,11.0,-0.8,43.5,0.0,139.0,0.0,-0.01,1.0,0.0,-85.0,12.0,0.0,30.05,-207.0,0.0,0.0,325.0,0.0,0.0,0.0,0.0,0.0,0.0,0.0,0.0,0.0,0.0,0.0,0.0,0.0,0.0,0.0,0.0,0.0,0.0,0.0,0.0,0.0,0.0,0.0,0.0,0.0,11.0,0.0,0.0,30.2,0.0,0.0,0.0,0.0,0.0,0.0,39.2,0.0,0.0,-0.2,0.2,0.1,0.0,0.0,0.0,0.0,11.0,13.0,11.0,12.0,11.0,12.0,11.0,12.0,0.0,0.0,-26.0,254.5,0.0,0.0,1.0,0.0,0.0,0.0,0.653,0.696,0.0,10.5,0.0,0.0,0.0,,0.0,0.0,11.0,-1.0,-1.5,53.6,51.8,0.0,0.0,0.0,0.0,51.8,55.4,51.8,53.6,51.8,53.6,51.8,53.6,0.0,0.0,50.9,51.8,30.2,29.3,0.0,0.0,0.0,347.0,2025-11-29 12:30:35-08:00
29.06,1.0,10.0,2025-11-29 20:30:59,37.08156,-121.59963,354.0,0.0,243.6,-12.6,0.0,,0.0,0.0,0.0,10.9,-0.8,43.4,0.0,137.0,0.0,-0.01,1.0,0.0,-79.0,12.0,0.0,30.05,-207.0,0.0,0.0,325.0,0.0,0.0,0.0,0.0,0.0,0.0,0.0,0.0,0.0,0.0,0.0,0.0,0.0,0.0,0.0,0.0,0.0,0.0,0.0,0.0,0.0,0.0,0.0,0.0,0.0,11.0,0.0,0.0,30.2,0.0,0.0,0.0,0.0,0.0,0.0,39.2,0.0,0.0,-0.2,0.2,0.1,0.0,0.0,0.0,0.0,11.0,12.0,11.0,12.0,11.0,12.0,11.0,12.0,0.0,0.0,-26.0,254.5,0.0,0.0,1.0,0.0,0.0,0.0,0.653,0.696,0.0,10.5,0.0,0.0,0.0,,0.0,0.0,11.0,-1.0,-1.5,53.6,51.8,0.0,0.0,0.0,0.0,51.8,53.6,51.8,53.6,51.8,53.6,51.8,53.6,0.0,0.0,50.9,51.8,30.2,29.3,0.0,0.0,0.0,347.0,2025-11-29 12:30:35-08:00
30.06,1.0,10.0,2025-11-29 20:31:00,37.08155,-121.59963,352.0,0.0,243.6,-12.6,0.0,,0.0,0.0,0.0,10.9,-0.9,43.4,0.0,137.0,0.0,-0.01,1.0,0.0,-60.0,12.0,0.0,30.05,-207.0,0.0,0.0,325.0,0.0,0.0,0.0,0.0,0.0,0.0,0.0,0.0,0.0,0.0,0.0,0.0,0.0,0.0,0.0,0.0,0.0,0.0,0.0,0.0,0.0,0.0,0.0,0.0,0.0,11.0,0.0,0.0,30.2,0.0,0.0,0.0,0.0,0.0,0.0,39.2,0.0,0.0,-0.2,0.2,0.1,0.0,0.0,0.0,0.0,11.0,12.0,11.0,12.0,11.0,12.0,11.0,12.0,0.0,0.0,-29.0,254.5,0.0,0.0,1.0,0.0,0.0,0.0,0.653,0.696,0.0,10.5,0.0,0.0,0.0,,0.0,0.0,11.0,-1.0,-1.5,53.6,51.8,0.0,0.0,0.0,0.0,51.8,53.6,51.8,53.6,51.8,53.6,51.8,53.6,0.0,0.0,50.9,51.8,30.2,29.3,0.0,0.0,0.0,347.0,2025-11-29 12:30:35-08:00
31.06,1.0,10.0,2025-11-29 20:31:01,37.08155,-121.59963,351.0,0.0,243.6,-12.6,0.0,,0.0,0.0,0.0,11.0,-0.9,43.4,0.0,135.0,0.0,-0.01,1.0,0.0,-89.0,12.0,0.0,30.05,-206.0,0.0,0.0,325.0,0.0,0.0,0.0,0.0,0.0,0.0,0.0,0.0,0.0,0.0,0.0,0.0,0.0,0.0,0.0,0.0,0.0,0.0,0.0,0.0,0.0,0.0,0.0,0.0,0.0,11.0,0.0,0.0,30.2,0.0,0.0,0.0,0.0,0.0,0.0,39.2,0.0,0.0,-0.2,0.2,0.1,0.0,0.0,0.0,0.0,11.0,12.0,11.0,12.0,11.0,12.0,11.0,12.0,0.0,0.0,-28.0,254.5,0.0,0.0,1.0,0.0,0.0,0.0,0.653,0.696,0.0,10.5,0.0,0.0,0.0,,0.0,0.0,11.0,-1.0,-1.5,53.6,51.8,0.0,0.0,0.0,0.0,51.8,53.6,51.8,53.6,51.8,53.6,51.8,53.6,0.0,0.0,50.9,51.8,30.2,29.3,0.0,0.0,0.0,347.0,2025-11-29 12:30:35-08:00
32.06,1.0,10.0,2025-11-29 20:31:02,37.08155,-121.59963,350.0,0.0,243.6,-12.6,0.0,,0.0,0.0,0.0,10.9,-0.9,43.4,0.0,134.0,0.0,-0.01,1.0,0.0,-84.0,12.0,0.0,30.05,-208.0,0.0,0.0,325.0,0.0,0.0,0.0,0.0,0.0,0.0,0.0,0.0,0.0,0.0,0.0,0.0,0.0,0.0,0.0,0.0,0.0,0.0,0.0,0.0,0.0,0.0,0.0,0.0,0.0,11.0,0.0,0.0,30.2,0.0,0.0,0.0,0.0,0.0,0.0,39.2,0.0,0.0,-0.2,0.2,0.1,0.0,0.0,0.0,0.0,11.0,12.0,11.0,12.0,11.0,12.0,11.0,12.0,0.0,0.0,-27.0,254.5,0.0,0.0,1.0,0.0,0.0,0.0,0.653,0.696,0.0,10.5,0.0,0.0,0.0,,0.0,0.0,11.0,-1.0,-1.5,53.6,51.8,0.0,0.0,0.0,0.0,51.8,53.6,51.8,53.6,51.8,53.6,51.8,53.6,0.0,0.0,50.9,51.8,30.2,29.3,0.0,0.0,0.0,347.0,2025-11-29 12:30:35-08:00
33.06,1.0,10.0,2025-11-29 20:31:03,37.08155,-121.59963,349.0,0.0,243.6,-12.6,0.0,,0.0,0.0,0.0,10.9,-0.9,43.3,0.0,132.0,0.0,-0.01,1.0,0.0,-71.0,12.0,0.0,30.05,-208.0,0.0,0.0,325.0,0.0,0.0,0.0,0.0,0.0,0.0,0.0,0.0,0.0,0.0,0.0,0.0,0.0,0.0,0.0,0.0,0.0,0.0,0.0,0.0,0.0,0.0,0.0,0.0,0.0,11.0,0.0,0.0,30.2,0.0,0.0,0.0,0.0,0.0,0.0,39.2,0.0,0.0,-0.2,0.2,0.1,0.0,0.0,0.0,0.0,11.0,12.0,11.0,12.0,11.0,12.0,11.0,12.0,0.0,0.0,-25.0,254.5,0.0,0.0,1.0,0.0,0.0,0.0,0.653,0.696,0.0,10.5,0.0,0.0,0.0,,0.0,0.0,11.0,-1.0,-1.5,53.6,51.8,0.0,0.0,0.0,0.0,51.8,53.6,51.8,53.6,51.8,53.6,51.8,53.6,0.0,0.0,50.9,51.8,30.2,29.3,0.0,0.0,0.0,347.0,2025-11-29 12:30:35-08:00
34.06,1.0,10.0,2025-11-29 20:31:04,37.08155,-121.59963,348.0,0.0,243.6,-12.6,0.0,,0.0,0.0,0.0,10.9,-0.8,43.4,0.0,131.0,0.0,-0.01,1.0,0.0,-68.0,12.0,0.0,30.05,-211.0,0.0,0.0,325.0,0.0,0.0,0.0,0.0,0.0,0.0,0.0,0.0,0.0,0.0,0.0,0.0,0.0,0.0,0.0,0.0,0.0,0.0,0.0,0.0,0.0,0.0,0.0,0.0,0.0,11.0,0.0,0.0,30.2,0.0,0.0,0.0,0.0,0.0,0.0,39.2,0.0,0.0,-0.2,0.2,0.1,0.0,0.0,0.0,0.0,11.0,12.0,11.0,12.0,11.0,12.0,11.0,12.0,0.0,0.0,-24.0,254.5,0.0,0.0,1.0,0.0,0.0,0.0,0.653,0.696,0.0,10.5,0.0,0.0,0.0,,0.0,0.0,11.0,-1.0,-1.5,53.6,51.8,0.0,0.0,0.0,0.0,51.8,53.6,51.8,53.6,51.8,53.6,51.8,53.6,0.0,0.0,50.9,51.8,30.2,29.3,0.0,0.0,0.0,347.0,2025-11-29 12:30:35-08:00
35.06,1.0,10.0,2025-11-29 20:31:05,37.08155,-121.59963,349.0,0.0,243.6,-12.6,0.0,,0.0,0.0,0.0,10.9,-0.8,43.4,0.0,130.0,0.0,-0.01,1.0,0.0,-65.0,12.0,0.0,30.05,-212.0,0.0,0.0,325.0,0.0,0.0,0.0,0.0,0.0,0.0,0.0,0.0,0.0,0.0,0.0,0.0,0.0,0.0,0.0,0.0,0.0,0.0,0.0,0.0,0.0,0.0,0.0,0.0,0.0,11.0,0.0,0.0,30.2,0.0,0.0,0.0,0.0,0.0,0.0,39.2,0.0,0.0,-0.2,0.2,0.1,0.0,0.0,0.0,0.0,11.0,12.0,11.0,12.0,11.0,12.0,11.0,12.0,0.0,0.0,-24.0,254.5,0.0,0.0,1.0,0.0,0.0,0.0,0.653,0.696,0.0,10.5,0.0,0.0,0.0,,0.0,0.0,11.0,-1.0,-1.5,53.6,51.8,0.0,0.0,0.0,0.0,51.8,53.6,51.8,53.6,51.8,53.6,51.8,53.6,0.0,0.0,50.9,51.8,30.2,29.3,0.0,0.0,0.0,347.0,2025-11-29 12:30:35-08:00
36.06,1.0,10.0,2025-11-29 20:31:06,37.08155,-121.59963,349.0,0.0,243.6,-12.6,0.0,,0.0,0.0,0.0,10.9,-0.8,43.5,0.0,128.0,0.0,-0.01,1.0,0.0,-77.0,12.0,0.0,30.05,-213.0,0.0,0.0,325.0,0.0,0.0,0.0,0.0,0.0,0.0,0.0,0.0,0.0,0.0,0.0,0.0,0.0,0.0,0.0,0.0,0.0,0.0,0.0,0.0,0.0,0.0,0.0,0.0,0.0,11.0,0.0,0.0,30.2,0.0,0.0,0.0,0.0,0.0,0.0,39.2,0.0,0.0,-0.2,0.2,0.1,0.0,0.0,0.0,0.0,11.0,12.0,11.0,12.0,11.0,12.0,11.0,12.0,0.0,0.0,-25.0,254.5,0.0,0.0,1.0,0.0,0.0,0.0,0.653,0.696,0.0,10.5,0.0,0.0,0.0,,0.0,0.0,11.0,-1.0,-1.5,53.6,51.8,0.0,0.0,0.0,0.0,51.8,53.6,51.8,53.6,51.8,53.6,51.8,53.6,0.0,0.0,50.9,51.8,30.2,29.3,0.0,0.0,0.0,347.0,2025-11-29 12:30:35-08:00
37.06,1.0,10.0,2025-11-29 20:31:07,37.08155,-121.59963,349.0,0.0,243.6,-12.6,0.0,,0.0,0.0,0.0,10.9,-0.8,43.5,0.0,127.0,0.0,-0.01,1.0,0.0,-73.0,12.0,0.0,30.05,-213.0,0.0,0.0,325.0,0.0,0.0,0.0,0.0,0.0,0.0,0.0,0.0,0.0,0.0,0.0,0.0,0.0,0.0,0.0,0.0,0.0,0.0,0.0,0.0,0.0,0.0,0.0,0.0,0.0,11.0,0.0,0.0,30.2,0.0,0.0,0.0,0.0,0.0,0.0,39.2,0.0,0.0,-0.2,0.2,0.1,0.0,0.0,0.0,0.0,11.0,12.0,11.0,12.0,11.0,12.0,11.0,12.0,0.0,0.0,-25.0,254.5,0.0,0.0,1.0,0.0,0.0,0.0,0.653,0.696,0.0,10.5,0.0,0.0,0.0,,0.0,0.0,11.0,-1.0,-1.5,53.6,51.8,0.0,0.0,0.0,0.0,51.8,53.6,51.8,53.6,51.8,53.6,51.8,53.6,0.0,0.0,50.9,51.8,30.2,29.3,0.0,0.0,0.0,347.0,2025-11-29 12:30:35-08:00
38.06,1.0,10.0,2025-11-29 20:31:08,37.08155,-121.59963,350.0,0.0,243.6,-12.6,0.0,,0.0,0.0,0.0,10.9,-0.8,43.5,0.0,127.0,0.0,-0.01,1.0,0.0,-57.0,12.0,0.0,30.05,-213.0,0.0,0.0,325.0,0.0,0.0,0.0,0.0,0.0,0.0,0.0,0.0,0.0,0.0,0.0,0.0,0.0,0.0,0.0,0.0,0.0,0.0,0.0,0.0,0.0,0.0,0.0,0.0,0.0,11.0,0.0,0.0,30.2,0.0,0.0,0.0,0.0,0.0,0.0,39.2,0.0,0.0,-0.2,0.2,0.1,0.0,0.0,0.0,0.0,11.0,12.0,11.0,12.0,11.0,12.0,11.0,12.0,0.0,0.0,-24.0,254.5,0.0,0.0,1.0,0.0,0.0,0.0,0.653,0.696,0.0,10.5,0.0,0.0,0.0,,0.0,0.0,11.0,-1.0,-1.5,53.6,51.8,0.0,0.0,0.0,0.0,51.8,53.6,51.8,53.6,51.8,53.6,51.8,53.6,0.0,0.0,50.9,51.8,30.2,29.3,0.0,0.0,0.0,347.0,2025-11-29 12:30:35-08:00
39.06,1.0,10.0,2025-11-29 20:31:09,37.08155,-121.59963,351.0,0.0,243.6,-12.6,0.0,,0.0,0.0,0.0,11.0,-0.8,43.5,0.0,126.0,0.0,-0.01,1.0,0.0,-41.0,12.0,0.0,30.05,-215.0,0.0,0.0,325.0,0.0,0.0,0.0,0.0,0.0,0.0,0.0,0.0,0.0,0.0,0.0,0.0,0.0,0.0,0.0,0.0,0.0,0.0,0.0,0.0,0.0,0.0,0.0,0.0,0.0,11.0,0.0,0.0,30.2,0.0,0.0,0.0,0.0,0.0,0.0,39.2,0.0,0.0,-0.2,0.2,0.1,0.0,0.0,0.0,0.0,11.0,12.0,11.0,12.0,11.0,12.0,11.0,12.0,0.0,0.0,-24.0,254.5,0.0,0.0,1.0,0.0,0.0,0.0,0.653,0.696,0.0,10.5,0.0,0.0,0.0,,0.0,0.0,11.0,-1.0,-1.5,53.6,51.8,0.0,0.0,0.0,0.0,51.8,53.6,51.8,53.6,51.8,53.6,51.8,53.6,0.0,0.0,50.9,51.8,30.2,29.3,0.0,0.0,0.0,347.0,2025-11-29 12:30:35-08:00
40.06,1.0,10.0,2025-11-29 20:31:10,37.08155,-121.59963,351.0,0.0,243.6,-12.6,0.0,,0.0,0.0,0.0,10.9,-0.8,43.4,0.0,125.0,0.0,-0.01,1.0,0.0,-51.0,12.0,0.0,30.05,-215.0,0.0,0.0,325.0,0.0,0.0,0.0,0.0,0.0,0.0,0.0,0.0,0.0,0.0,0.0,0.0,0.0,0.0,0.0,0.0,0.0,0.0,0.0,0.0,0.0,0.0,0.0,0.0,0.0,11.0,0.0,0.0,30.2,0.0,0.0,0.0,0.0,0.0,0.0,39.2,0.0,0.0,-0.2,0.2,0.1,0.0,0.0,0.0,0.0,11.0,12.0,11.0,12.0,11.0,12.0,11.0,12.0,0.0,0.0,-24.0,254.5,0.0,0.0,1.0,0.0,0.0,0.0,0.653,0.696,0.0,10.5,0.0,0.0,0.0,,0.0,0.0,11.0,-1.0,-1.5,53.6,51.8,0.0,0.0,0.0,0.0,51.8,53.6,51.8,53.6,51.8,53.6,51.8,53.6,0.0,0.0,50.9,51.8,30.2,29.3,0.0,0.0,0.0,347.0,2025-11-29 12:30:35-08:00
41.06,1.0,10.0,2025-11-29 20:31:11,37.08155,-121.59963,352.0,0.0,243.6,-12.6,0.0,,0.0,0.0,0.0,11.0,-0.8,43.4,0.0,125.0,0.0,-0.01,1.0,0.0,-15.0,12.0,0.0,30.05,-215.0,0.0,0.0,325.0,0.0,0.0,0.0,0.0,0.0,0.0,0.0,0.0,0.0,0.0,0.0,0.0,0.0,0.0,0.0,0.0,0.0,0.0,0.0,0.0,0.0,0.0,0.0,0.0,0.0,11.0,0.0,0.0,30.2,0.0,0.0,0.0,0.0,0.0,0.0,39.2,0.0,0.0,-0.2,0.2,0.1,0.0,0.0,0.0,0.0,11.0,13.0,11.0,12.0,11.0,12.0,11.0,12.0,0.0,0.0,-25.0,254.5,0.0,0.0,1.0,0.0,0.0,0.0,0.653,0.696,0.0,10.5,0.0,0.0,0.0,,0.0,0.0,11.0,-1.0,-1.5,53.6,51.8,0.0,0.0,0.0,0.0,51.8,55.4,51.8,53.6,51.8,53.6,51.8,53.6,0.0,0.0,50.9,51.8,30.2,29.3,0.0,0.0,0.0,347.0,2025-11-29 12:30:35-08:00
42.06,1.0,10.0,2025-11-29 20:31:12,37.08155,-121.59963,352.0,0.0,243.6,-12.6,0.0,,0.0,0.0,0.0,11.0,-0.8,43.4,0.0,125.0,0.0,-0.01,1.0,0.0,-34.0,12.0,0.0,30.05,-217.0,0.0,0.0,325.0,0.0,0.0,0.0,0.0,0.0,0.0,0.0,0.0,0.0,0.0,0.0,0.0,0.0,0.0,0.0,0.0,0.0,0.0,0.0,0.0,0.0,0.0,0.0,0.0,0.0,11.0,0.0,0.0,30.2,0.0,0.0,0.0,0.0,0.0,0.0,39.2,0.0,0.0,-0.2,0.2,0.1,0.0,0.0,0.0,0.0,11.0,13.0,11.0,13.0,11.0,13.0,11.0,13.0,0.0,0.0,-26.0,251.2,0.0,0.0,1.0,0.0,0.0,0.0,0.653,0.696,0.0,10.6,0.0,0.0,0.0,,0.0,0.0,11.0,-1.0,-1.4000000000000004,53.6,51.8,0.0,0.0,0.0,0.0,51.8,55.4,51.8,55.4,51.8,55.4,51.8,55.4,0.0,0.0,51.08,51.8,30.2,29.48,0.0,0.0,0.0,347.0,2025-11-29 12:30:35-08:00
43.06,1.0,10.0,2025-11-29 20:31:13,37.08155,-121.59964,353.0,0.1,243.6,-12.6,0.0,,0.0,0.0,0.0,11.0,-0.8,43.4,0.0,123.0,0.0,-0.01,1.0,0.0,-54.0,12.0,0.0,30.05,-217.0,0.0,0.0,325.0,0.0,0.0,0.0,0.0,0.0,0.0,0.0,0.0,0.0,0.0,0.0,0.0,0.0,0.0,0.0,0.0,0.0,0.0,0.0,0.0,0.0,0.0,0.0,0.0,0.0,11.0,0.0,0.0,30.2,0.0,0.0,0.0,0.0,0.0,0.0,39.2,0.0,0.0,-0.2,0.2,0.1,0.0,0.0,0.0,0.0,11.0,13.0,11.0,13.0,11.0,13.0,11.0,13.0,0.0,0.0,-26.0,196.1,0.0,0.0,1.0,0.0,0.0,0.0,0.653,0.696,0.0,10.6,0.0,0.0,0.0,,0.0,0.0,11.0,-1.0,-1.4000000000000004,53.6,51.8,0.0,0.0,0.0,0.0,51.8,55.4,51.8,55.4,51.8,55.4,51.8,55.4,0.0,0.0,51.08,51.8,30.2,29.48,0.0,0.08433333333333333,0.0,347.0,2025-11-29 12:30:35-08:00
44.06,1.0,10.0,2025-11-29 20:31:14,37.08155,-121.59964,354.0,0.0,243.6,-12.6,0.0,,0.0,0.0,0.0,11.0,-0.9,43.3,0.0,122.0,0.0,-0.01,1.0,0.0,-61.0,12.0,0.0,30.05,-217.0,0.0,0.0,325.0,0.0,0.0,0.0,0.0,0.0,0.0,0.0,0.0,0.0,0.0,0.0,0.0,0.0,0.0,0.0,0.0,0.0,0.0,0.0,0.0,0.0,0.0,0.0,0.0,0.0,11.0,0.0,0.0,30.2,0.0,0.0,0.0,0.0,0.0,0.0,39.2,0.0,0.0,-0.2,0.2,0.1,0.0,0.0,0.0,0.0,11.0,12.0,11.0,12.0,11.0,12.0,11.0,12.0,0.0,0.0,-25.0,152.7,0.0,0.0,1.0,0.0,0.0,0.0,0.653,0.696,0.0,10.6,0.0,0.0,0.0,,0.0,0.0,11.0,-1.0,-1.4000000000000004,53.6,51.8,0.0,0.0,0.0,0.0,51.8,53.6,51.8,53.6,51.8,53.6,51.8,53.6,0.0,0.0,51.08,51.8,30.2,29.48,0.0,0.16866666666666666,0.0,347.0,2025-11-29 12:30:35-08:00
45.06,1.0,10.0,2025-11-29 20:31:15,37.08155,-121.59964,354.0,0.0,243.6,-12.6,0.0,,0.0,0.0,0.0,11.0,-0.8,43.3,0.0,121.0,0.0,-0.01,1.0,0.0,-51.0,12.0,0.0,30.05,-220.0,0.0,0.0,325.0,0.0,0.0,0.0,0.0,0.0,0.0,0.0,0.0,0.0,0.0,0.0,0.0,0.0,0.0,0.0,0.0,0.0,0.0,0.0,0.0,0.0,0.0,0.0,0.0,0.0,11.0,0.0,0.0,30.2,0.0,0.0,0.0,0.0,0.0,0.0,39.2,0.0,0.0,-0.2,0.2,0.1,0.0,0.0,0.0,0.0,11.0,12.0,11.0,12.0,11.0,12.0,11.0,12.0,0.0,0.0,-25.0,118.9,0.0,0.0,1.0,0.0,0.0,0.0,0.653,0.696,0.0,10.6,0.0,0.0,0.0,,0.0,0.0,11.0,-1.0,-1.4000000000000004,53.6,51.8,0.0,0.0,0.0,0.0,51.8,53.6,51.8,53.6,51.8,53.6,51.8,53.6,0.0,0.0,51.08,51.8,30.2,29.48,0.0,0.16866666666666666,0.0,347.0,2025-11-29 12:30:35-08:00
46.06,1.0,10.0,2025-11-29 20:31:16,37.08155,-121.59964,355.0,0.0,243.6,-12.6,0.0,,0.0,0.0,0.0,11.0,-0.8,43.4,0.0,121.0,0.0,-0.01,1.0,0.0,-22.0,12.0,0.0,30.05,-220.0,0.0,0.0,325.0,0.0,0.0,0.0,0.0,0.0,0.0,0.0,0.0,0.0,0.0,0.0,0.0,0.0,0.0,0.0,0.0,0.0,0.0,0.0,0.0,0.0,0.0,0.0,0.0,0.0,11.0,0.0,0.0,30.2,0.0,0.0,0.0,0.0,0.0,0.0,39.2,0.0,0.0,-0.2,0.2,0.1,0.0,0.0,0.0,0.0,11.0,12.0,11.0,12.0,11.0,12.0,11.0,12.0,0.0,0.0,-26.0,92.6,0.0,0.0,1.0,0.0,0.0,0.0,0.653,0.696,0.0,10.6,0.0,0.0,0.0,,0.0,0.0,11.0,-1.0,-1.4000000000000004,53.6,51.8,0.0,0.0,0.0,0.0,51.8,53.6,51.8,53.6,51.8,53.6,51.8,53.6,0.0,0.0,51.08,51.8,30.2,29.48,0.0,0.16866666666666666,0.0,347.0,2025-11-29 12:30:35-08:00
47.06,1.0,10.0,2025-11-29 20:31:17,37.08156,-121.59964,356.0,0.0,243.6,-12.6,0.0,,0.0,0.0,0.0,11.0,-0.8,43.4,0.0,121.0,0.0,-0.01,1.0,0.0,4.0,12.0,0.0,30.05,-220.0,0.0,0.0,325.0,0.0,0.0,0.0,0.0,0.0,0.0,0.0,0.0,0.0,0.0,0.0,0.0,0.0,0.0,0.0,0.0,0.0,0.0,0.0,0.0,0.0,0.0,0.0,0.0,0.0,11.0,0.0,0.0,30.2,0.0,0.0,0.0,0.0,0.0,0.0,39.2,0.0,0.0,-0.2,0.2,0.1,0.0,0.0,0.0,0.0,11.0,12.0,11.0,12.0,11.0,12.0,11.0,12.0,0.0,0.0,-26.0,72.2,0.0,0.0,1.0,0.0,0.0,0.0,0.653,0.696,0.0,10.6,0.0,0.0,0.0,,0.0,0.0,11.0,-1.0,-1.4000000000000004,53.6,51.8,0.0,0.0,0.0,0.0,51.8,53.6,51.8,53.6,51.8,53.6,51.8,53.6,0.0,0.0,51.08,51.8,30.2,29.48,0.0,0.16866666666666666,0.0,347.0,2025-11-29 12:30:35-08:00
48.06,1.0,10.0,2025-11-29 20:31:18,37.08156,-121.59964,357.0,0.0,243.6,-12.6,0.0,,0.0,0.0,0.0,11.0,-0.8,43.4,0.0,121.0,0.0,-0.01,1.0,0.0,17.0,12.0,0.0,30.05,-221.0,0.0,0.0,325.0,0.0,0.0,0.0,0.0,0.0,0.0,0.0,0.0,0.0,0.0,0.0,0.0,0.0,0.0,0.0,0.0,0.0,0.0,0.0,0.0,0.0,0.0,0.0,0.0,0.0,11.0,0.0,0.0,30.2,0.0,0.0,0.0,0.0,0.0,0.0,39.2,0.0,0.0,-0.2,0.2,0.1,0.0,0.0,0.0,0.0,11.0,13.0,11.0,13.0,11.0,13.0,11.0,13.0,0.0,0.0,-26.0,56.3,0.0,0.0,1.0,0.0,0.0,0.0,0.653,0.696,0.0,10.6,0.0,0.0,0.0,,0.0,0.0,11.0,-1.0,-1.4000000000000004,53.6,51.8,0.0,0.0,0.0,0.0,51.8,55.4,51.8,55.4,51.8,55.4,51.8,55.4,0.0,0.0,51.08,51.8,30.2,29.48,0.0,0.16866666666666666,0.0,347.0,2025-11-29 12:30:35-08:00
49.06,1.0,10.0,2025-11-29 20:31:19,37.08156,-121.59964,357.0,0.0,243.6,-12.6,0.0,,0.0,0.0,0.0,11.0,-0.8,43.4,0.0,121.0,0.0,-0.01,1.0,0.0,45.0,12.0,0.0,30.05,-221.0,0.0,0.0,325.0,0.0,0.0,0.0,0.0,0.0,0.0,0.0,0.0,0.0,0.0,0.0,0.0,0.0,0.0,0.0,0.0,0.0,0.0,0.0,0.0,0.0,0.0,0.0,0.0,0.0,11.0,0.0,0.0,30.2,0.0,0.0,0.0,0.0,0.0,0.0,39.2,0.0,0.0,-0.2,0.2,0.1,0.0,0.0,0.0,0.0,11.0,12.0,11.0,12.0,11.0,12.0,11.0,12.0,0.0,0.0,-26.0,44.0,0.0,0.0,1.0,0.0,0.0,0.0,0.653,0.696,0.0,10.6,0.0,0.0,0.0,,0.0,0.0,11.0,-1.0,-1.4000000000000004,53.6,51.8,0.0,0.0,0.0,0.0,51.8,53.6,51.8,53.6,51.8,53.6,51.8,53.6,0.0,0.0,51.08,51.8,30.2,29.48,0.0,0.16866666666666666,0.0,347.0,2025-11-29 12:30:35-08:00
50.06,1.0,10.0,2025-11-29 20:31:20,37.08156,-121.59964,358.0,0.0,243.6,-12.6,0.0,,0.0,0.0,0.0,11.0,-0.8,43.3,0.0,121.0,0.0,-0.01,1.0,0.0,16.0,12.0,0.0,30.05,-221.0,0.0,0.0,325.0,0.0,0.0,0.0,0.0,0.0,0.0,0.0,0.0,0.0,0.0,0.0,0.0,0.0,0.0,0.0,0.0,0.0,0.0,0.0,0.0,0.0,0.0,0.0,0.0,0.0,11.0,0.0,0.0,30.2,0.0,0.0,0.0,0.0,0.0,0.0,39.2,0.0,0.0,-0.2,0.2,0.1,0.0,0.0,0.0,0.0,11.0,12.0,11.0,12.0,11.0,12.0,11.0,12.0,0.0,0.0,-25.0,34.4,0.0,0.0,1.0,0.0,0.0,0.0,0.653,0.696,0.0,10.6,0.0,0.0,0.0,,0.0,0.0,11.0,-1.0,-1.4000000000000004,53.6,51.8,0.0,0.0,0.0,0.0,51.8,53.6,51.8,53.6,51.8,53.6,51.8,53.6,0.0,0.0,51.08,51.8,30.2,29.48,0.0,0.16866666666666666,0.0,347.0,2025-11-29 12:30:35-08:00
51.06,1.0,10.0,2025-11-29 20:31:21,37.08156,-121.59964,358.0,0.0,243.6,-12.6,0.0,,0.0,0.0,0.0,11.0,-0.8,43.3,0.0,121.0,0.0,-0.01,1.0,0.0,32.0,12.0,0.0,30.05,-221.0,0.0,0.0,325.0,0.0,0.0,0.0,0.0,0.0,0.0,0.0,0.0,0.0,0.0,0.0,0.0,0.0,0.0,0.0,0.0,0.0,0.0,0.0,0.0,0.0,0.0,0.0,0.0,0.0,11.0,0.0,0.0,30.2,0.0,0.0,0.0,0.0,0.0,0.0,39.2,0.0,0.0,-0.2,0.2,0.1,0.0,0.0,0.0,0.0,11.0,12.0,11.0,12.0,11.0,12.0,11.0,12.0,0.0,0.0,-25.0,27.0,0.0,0.0,1.0,0.0,0.0,0.0,0.653,0.696,0.0,10.6,0.0,0.0,0.0,,0.0,0.0,11.0,-1.0,-1.4000000000000004,53.6,51.8,0.0,0.0,0.0,0.0,51.8,53.6,51.8,53.6,51.8,53.6,51.8,53.6,0.0,0.0,51.08,51.8,30.2,29.48,0.0,0.16866666666666666,0.0,347.0,2025-11-29 12:30:35-08:00
52.06,1.0,10.0,2025-11-29 20:31:22,37.08156,-121.59964,358.0,0.0,243.6,-12.6,0.0,,0.0,0.0,0.0,11.0,-0.8,43.3,0.0,121.0,0.0,-0.01,1.0,0.0,12.0,12.0,0.0,30.05,-221.0,0.0,0.0,325.0,0.0,0.0,0.0,0.0,0.0,0.0,0.0,0.0,0.0,0.0,0.0,0.0,0.0,0.0,0.0,0.0,0.0,0.0,0.0,0.0,0.0,0.0,0.0,0.0,0.0,11.0,0.0,0.0,30.2,0.0,0.0,0.0,0.0,0.0,0.0,39.2,0.0,0.0,-0.2,0.2,0.1,0.0,0.0,0.0,0.0,11.0,13.0,11.0,13.0,12.0,12.0,12.0,13.0,0.0,0.0,-25.0,21.2,0.0,0.0,1.0,0.0,0.0,0.0,0.653,0.696,0.0,10.6,0.0,0.0,0.0,,0.0,0.0,11.5,-0.5,-1.4000000000000004,53.6,51.8,0.0,0.0,0.0,0.0,51.8,55.4,51.8,55.4,53.6,53.6,53.6,55.4,0.0,0.0,51.08,52.7,31.1,29.48,0.0,0.16866666666666666,0.0,347.0,2025-11-29 12:30:35-08:00
53.06,1.0,10.0,2025-11-29 20:31:23,37.08156,-121.59964,358.0,0.0,243.6,-12.6,0.0,,0.0,0.0,0.0,11.0,-0.8,43.3,0.0,121.0,0.0,-0.01,1.0,0.0,10.0,12.0,0.0,30.05,-220.0,0.0,0.0,325.0,0.0,0.0,0.0,0.0,0.0,0.0,0.0,0.0,0.0,0.0,0.0,0.0,0.0,0.0,0.0,0.0,0.0,0.0,0.0,0.0,0.0,0.0,0.0,0.0,0.0,11.0,0.0,0.0,30.2,0.0,0.0,0.0,0.0,0.0,0.0,39.2,0.0,0.0,-0.2,0.2,0.1,0.0,0.0,0.0,0.0,11.0,12.0,11.0,12.0,11.0,12.0,11.0,12.0,0.0,0.0,-25.0,16.7,0.0,0.0,1.0,0.0,0.0,0.0,0.653,0.696,0.0,10.6,0.0,0.0,0.0,,0.0,0.0,11.0,-1.0,-1.4000000000000004,53.6,51.8,0.0,0.0,0.0,0.0,51.8,53.6,51.8,53.6,51.8,53.6,51.8,53.6,0.0,0.0,51.08,51.8,30.2,29.48,0.0,0.16866666666666666,0.0,347.0,2025-11-29 12:30:35-08:00
54.06,1.0,10.0,2025-11-29 20:31:24,37.08156,-121.59964,357.0,0.0,243.6,-12.6,0.0,,0.0,0.0,0.0,11.0,-0.8,43.4,0.0,121.0,0.0,-0.01,1.0,0.0,6.0,12.0,0.0,30.05,-220.0,0.0,0.0,325.0,0.0,0.0,0.0,0.0,0.0,0.0,0.0,0.0,0.0,0.0,0.0,0.0,0.0,0.0,0.0,0.0,0.0,0.0,0.0,0.0,0.0,0.0,0.0,0.0,0.0,11.0,0.0,0.0,30.2,0.0,0.0,0.0,0.0,0.0,0.0,39.2,0.0,0.0,-0.2,0.2,0.1,0.0,0.0,0.0,0.0,11.0,12.0,11.0,12.0,11.0,12.0,11.0,12.0,0.0,0.0,-25.0,13.2,0.0,0.0,1.0,0.0,0.0,0.0,0.653,0.696,0.0,10.6,0.0,0.0,0.0,,0.0,0.0,11.0,-1.0,-1.4000000000000004,53.6,51.8,0.0,0.0,0.0,0.0,51.8,53.6,51.8,53.6,51.8,53.6,51.8,53.6,0.0,0.0,51.08,51.8,30.2,29.48,0.0,0.16866666666666666,0.0,347.0,2025-11-29 12:30:35-08:00
55.06,1.0,10.0,2025-11-29 20:31:25,37.08156,-121.59964,357.0,0.0,243.6,-12.6,0.0,,0.0,0.0,0.0,11.0,-0.8,43.3,0.0,121.0,0.0,-0.01,1.0,0.0,18.0,12.0,0.0,30.05,-220.0,0.0,0.0,325.0,0.0,0.0,0.0,0.0,0.0,0.0,0.0,0.0,0.0,0.0,0.0,0.0,0.0,0.0,0.0,0.0,0.0,0.0,0.0,0.0,0.0,0.0,0.0,0.0,0.0,11.0,0.0,0.0,30.2,0.0,0.0,0.0,0.0,0.0,0.0,39.2,0.0,0.0,-0.2,0.2,0.1,0.0,0.0,0.0,0.0,11.0,13.0,11.0,13.0,11.0,12.0,12.0,13.0,0.0,0.0,-25.0,10.4,0.0,0.0,1.0,0.0,0.0,0.0,0.653,0.696,0.0,10.6,0.0,0.0,0.0,,0.0,0.0,11.25,-0.75,-1.4000000000000004,53.6,51.8,0.0,0.0,0.0,0.0,51.8,55.4,51.8,55.4,51.8,53.6,53.6,55.4,0.0,0.0,51.08,52.25,30.65,29.48,0.0,0.16866666666666666,0.0,347.0,2025-11-29 12:30:35-08:00
56.06,1.0,10.0,2025-11-29 20:31:26,37.08156,-121.59964,357.0,0.0,243.6,-12.6,0.0,,0.0,0.0,0.0,11.0,-0.8,43.4,0.0,121.0,0.0,-0.01,1.0,0.0,-5.0,12.0,0.0,30.05,-220.0,0.0,0.0,325.0,0.0,0.0,0.0,0.0,0.0,0.0,0.0,0.0,0.0,0.0,0.0,0.0,0.0,0.0,0.0,0.0,0.0,0.0,0.0,0.0,0.0,0.0,0.0,0.0,0.0,11.0,0.0,0.0,30.2,0.0,0.0,0.0,0.0,0.0,0.0,39.2,0.0,0.0,-0.2,0.2,0.1,0.0,0.0,0.0,0.0,11.0,12.0,11.0,12.0,11.0,12.0,11.0,12.0,0.0,0.0,-25.0,8.3,0.0,0.0,1.0,0.0,0.0,0.0,0.653,0.696,0.0,10.6,0.0,0.0,0.0,,0.0,0.0,11.0,-1.0,-1.4000000000000004,53.6,51.8,0.0,0.0,0.0,0.0,51.8,53.6,51.8,53.6,51.8,53.6,51.8,53.6,0.0,0.0,51.08,51.8,30.2,29.48,0.0,0.16866666666666666,0.0,347.0,2025-11-29 12:30:35-08:00
57.06,1.0,10.0,2025-11-29 20:31:27,37.08156,-121.59964,356.0,0.0,243.6,-12.6,0.0,,0.0,0.0,0.0,11.0,-0.8,43.4,0.0,121.0,0.0,-0.01,1.0,0.0,0.0,12.0,0.0,30.05,-220.0,0.0,0.0,325.0,0.0,0.0,0.0,0.0,0.0,0.0,0.0,0.0,0.0,0.0,0.0,0.0,0.0,0.0,0.0,0.0,0.0,0.0,0.0,0.0,0.0,0.0,0.0,0.0,0.0,11.0,0.0,0.0,30.2,0.0,0.0,0.0,0.0,0.0,0.0,39.2,0.0,0.0,-0.2,0.2,0.1,0.0,0.0,0.0,0.0,11.0,12.0,11.0,12.0,11.0,12.0,11.0,12.0,0.0,0.0,-25.0,6.7,0.0,0.0,1.0,0.0,0.0,0.0,0.653,0.696,0.0,10.6,0.0,0.0,0.0,,0.0,0.0,11.0,-1.0,-1.4000000000000004,53.6,51.8,0.0,0.0,0.0,0.0,51.8,53.6,51.8,53.6,51.8,53.6,51.8,53.6,0.0,0.0,51.08,51.8,30.2,29.48,0.0,0.16866666666666666,0.0,347.0,2025-11-29 12:30:35-08:00
58.06,1.0,10.0,2025-11-29 20:31:28,37.08156,-121.59964,355.0,0.0,243.6,-12.6,0.0,,0.0,0.0,0.0,11.0,-0.8,43.5,0.0,121.0,0.0,-0.01,1.0,0.0,-4.0,12.0,0.0,30.05,-220.0,0.0,0.0,325.0,0.0,0.0,0.0,0.0,0.0,0.0,0.0,0.0,0.0,0.0,0.0,0.0,0.0,0.0,0.0,0.0,0.0,0.0,0.0,0.0,0.0,0.0,0.0,0.0,0.0,11.0,0.0,0.0,30.2,0.0,0.0,0.0,0.0,0.0,0.0,39.2,0.0,0.0,-0.2,0.2,0.1,0.0,0.0,0.0,0.0,11.0,13.0,11.0,13.0,11.0,12.0,12.0,13.0,0.0,0.0,-25.0,5.4,0.0,0.0,1.0,0.0,0.0,0.0,0.653,0.696,0.0,10.6,0.0,0.0,0.0,,0.0,0.0,11.25,-0.75,-1.4000000000000004,53.6,51.8,0.0,0.0,0.0,0.0,51.8,55.4,51.8,55.4,51.8,53.6,53.6,55.4,0.0,0.0,51.08,52.25,30.65,29.48,0.0,0.16866666666666666,0.0,347.0,2025-11-29 12:30:35-08:00
59.06,1.0,10.0,2025-11-29 20:31:29,37.08156,-121.59964,355.0,0.0,243.6,-12.6,0.0,,0.0,0.0,0.0,11.0,-0.8,43.5,0.0,121.0,0.0,-0.01,1.0,0.0,-8.0,12.0,0.0,30.05,-210.0,0.0,0.0,325.0,0.0,0.0,0.0,0.0,0.0,0.0,0.0,0.0,0.0,0.0,0.0,0.0,0.0,0.0,0.0,0.0,0.0,0.0,0.0,0.0,0.0,0.0,0.0,0.0,0.0,11.0,0.0,0.0,30.2,0.0,0.0,0.0,0.0,0.0,0.0,39.2,0.0,0.0,-0.2,0.2,0.1,0.0,0.0,0.0,0.0,11.0,12.0,11.0,12.0,11.0,12.0,11.0,12.0,0.0,0.0,-25.0,4.4,0.0,0.0,1.0,0.0,0.0,0.0,0.653,0.696,0.0,10.6,0.0,0.0,0.0,,0.0,0.0,11.0,-1.0,-1.4000000000000004,53.6,51.8,0.0,0.0,0.0,0.0,51.8,53.6,51.8,53.6,51.8,53.6,51.8,53.6,0.0,0.0,51.08,51.8,30.2,29.48,0.0,0.16866666666666666,0.0,347.0,2025-11-29 12:30:35-08:00
60.06,1.0,10.0,2025-11-29 20:31:30,37.08156,-121.59963,354.0,0.0,243.6,-12.6,0.0,,0.0,0.0,0.0,11.0,-0.8,43.4,0.0,121.0,0.0,-0.01,1.0,0.0,9.0,12.0,0.0,30.05,-212.0,0.0,0.0,325.0,0.0,0.0,0.0,0.0,0.0,0.0,0.0,0.0,0.0,0.0,0.0,0.0,0.0,0.0,0.0,0.0,0.0,0.0,0.0,0.0,0.0,0.0,0.0,0.0,0.0,11.0,0.0,0.0,30.2,0.0,0.0,0.0,0.0,0.0,0.0,39.2,0.0,0.0,-0.2,0.2,0.1,0.0,0.0,0.0,0.0,11.0,12.0,11.0,12.0,11.0,12.0,11.0,12.0,0.0,0.0,-26.0,3.7,0.0,0.0,1.0,0.0,0.0,0.0,0.653,0.696,0.0,10.6,0.0,0.0,0.0,,0.0,0.0,11.0,-1.0,-1.4000000000000004,53.6,51.8,0.0,0.0,0.0,0.0,51.8,53.6,51.8,53.6,51.8,53.6,51.8,53.6,0.0,0.0,51.08,51.8,30.2,29.48,0.0,0.16866666666666666,0.0,347.0,2025-11-29 12:30:35-08:00
61.06,1.0,10.0,2025-11-29 20:31:31,37.08156,-121.59963,353.0,0.0,243.6,-12.6,0.0,,0.0,0.0,0.0,11.0,-0.7,43.4,0.0,121.0,0.0,-0.01,1.0,0.0,-7.0,12.0,0.0,30.05,-212.0,0.0,0.0,325.0,0.0,0.0,0.0,0.0,0.0,0.0,0.0,0.0,0.0,0.0,0.0,0.0,0.0,0.0,0.0,0.0,0.0,0.0,0.0,0.0,0.0,0.0,0.0,0.0,0.0,11.0,0.0,0.0,30.2,0.0,0.0,0.0,0.0,0.0,0.0,39.2,0.0,0.0,-0.2,0.2,0.1,0.0,0.0,0.0,0.0,11.0,12.0,11.0,12.0,11.0,12.0,11.0,12.0,0.0,0.0,-27.0,3.1,0.0,0.0,1.0,0.0,0.0,0.0,0.653,0.696,0.0,10.6,0.0,0.0,0.0,,0.0,0.0,11.0,-1.0,-1.4000000000000004,53.6,51.8,0.0,0.0,0.0,0.0,51.8,53.6,51.8,53.6,51.8,53.6,51.8,53.6,0.0,0.0,51.08,51.8,30.2,29.48,0.0,0.16866666666666666,0.0,347.0,2025-11-29 12:30:35-08:00
62.06,1.0,10.0,2025-11-29 20:31:32,37.08156,-121.59963,353.0,0.0,243.6,-12.6,0.0,,0.0,0.0,0.0,11.0,-0.8,43.4,0.0,121.0,0.0,-0.01,1.0,0.0,-25.0,12.0,0.0,30.05,-212.0,0.0,0.0,325.0,0.0,0.0,0.0,0.0,0.0,0.0,0.0,0.0,0.0,0.0,0.0,0.0,0.0,0.0,0.0,0.0,0.0,0.0,0.0,0.0,0.0,0.0,0.0,0.0,0.0,11.0,0.0,0.0,30.2,0.0,0.0,0.0,0.0,0.0,0.0,39.2,0.0,0.0,-0.2,0.2,0.1,0.0,0.0,0.0,0.0,11.0,12.0,11.0,12.0,11.0,12.0,11.0,12.0,0.0,0.0,-26.0,2.6,0.0,0.0,1.0,0.0,0.0,0.0,0.653,0.696,0.0,10.6,0.0,0.0,0.0,,0.0,0.0,11.0,-1.0,-1.4000000000000004,53.6,51.8,0.0,0.0,0.0,0.0,51.8,53.6,51.8,53.6,51.8,53.6,51.8,53.6,0.0,0.0,51.08,51.8,30.2,29.48,0.0,0.16866666666666666,0.0,347.0,2025-11-29 12:30:35-08:00
63.06,1.0,10.0,2025-11-29 20:31:33,37.08156,-121.59963,353.0,0.0,243.6,-12.6,0.0,,0.0,0.0,0.0,11.1,-0.8,43.4,0.0,121.0,0.0,-0.01,1.0,0.0,-48.0,12.0,0.0,30.05,-210.0,0.0,0.0,325.0,0.0,0.0,0.0,0.0,0.0,0.0,0.0,0.0,0.0,0.0,0.0,0.0,0.0,0.0,0.0,0.0,0.0,0.0,0.0,0.0,0.0,0.0,0.0,0.0,0.0,11.0,0.0,0.0,30.2,0.0,0.0,0.0,0.0,0.0,0.0,39.2,0.0,0.0,-0.3,0.2,0.1,0.0,0.0,0.0,0.0,11.0,12.0,11.0,12.0,11.0,12.0,11.0,12.0,0.0,0.0,-27.0,2.2,0.0,0.0,1.0,0.0,0.0,0.0,0.653,0.696,0.0,10.6,0.0,0.0,0.0,,0.0,0.0,11.0,-1.0,-1.4000000000000004,53.6,51.8,0.0,0.0,0.0,0.0,51.8,53.6,51.8,53.6,51.8,53.6,51.8,53.6,0.0,0.0,51.08,51.8,30.2,29.48,0.0,0.16866666666666666,0.0,347.0,2025-11-29 12:30:35-08:00
64.06,1.0,10.0,2025-11-29 20:31:34,37.08156,-121.59963,353.0,0.0,243.6,-12.6,0.0,,0.0,0.0,0.0,11.0,-0.8,43.4,0.0,121.0,0.0,-0.01,1.0,0.0,-15.0,12.0,0.0,30.05,-210.0,0.0,0.0,325.0,0.0,0.0,0.0,0.0,0.0,0.0,0.0,0.0,0.0,0.0,0.0,0.0,0.0,0.0,0.0,0.0,0.0,0.0,0.0,0.0,0.0,0.0,0.0,0.0,0.0,11.0,0.0,0.0,30.2,0.0,0.0,0.0,0.0,0.0,0.0,39.2,0.0,0.0,-0.3,0.2,0.1,0.0,0.0,0.0,0.0,11.0,12.0,11.0,12.0,11.0,12.0,11.0,12.0,0.0,0.0,-26.0,2.0,0.0,0.0,1.0,0.0,0.0,0.0,0.653,0.697,0.0,10.6,0.0,0.0,0.0,,0.0,0.0,11.0,-1.0,-1.4000000000000004,53.6,51.8,0.0,0.0,0.0,0.0,51.8,53.6,51.8,53.6,51.8,53.6,51.8,53.6,0.0,0.0,51.08,51.8,30.2,29.48,0.0,0.16866666666666666,0.0,347.0,2025-11-29 12:30:35-08:00
65.06,1.0,10.0,2025-11-29 20:31:35,37.08156,-121.59963,352.0,0.0,243.6,-12.6,0.0,,0.0,0.0,0.0,11.0,-0.8,43.4,0.0,121.0,0.0,-0.01,1.0,0.0,-68.0,12.0,0.0,30.05,-210.0,0.0,0.0,325.0,0.0,0.0,0.0,0.0,0.0,0.0,0.0,0.0,0.0,0.0,0.0,0.0,0.0,0.0,0.0,0.0,0.0,0.0,0.0,0.0,0.0,0.0,0.0,0.0,0.0,11.0,0.0,0.0,30.2,0.0,0.0,0.0,0.0,0.0,0.0,39.2,0.0,0.0,-0.3,0.2,0.1,0.0,0.0,0.0,0.0,11.0,12.0,11.0,12.0,11.0,12.0,11.0,12.0,0.0,0.0,-26.0,1.7,0.0,0.0,1.0,0.0,0.0,0.0,0.653,0.696,0.0,10.6,0.0,0.0,0.0,,0.0,0.0,11.0,-1.0,-1.4000000000000004,53.6,51.8,0.0,0.0,0.0,0.0,51.8,53.6,51.8,53.6,51.8,53.6,51.8,53.6,0.0,0.0,51.08,51.8,30.2,29.48,0.0,0.16866666666666666,0.0,347.0,2025-11-29 12:30:35-08:00
66.06,1.0,10.0,2025-11-29 20:31:36,37.08157,-121.59963,355.0,0.0,243.6,-12.6,0.0,,0.0,0.0,0.0,11.0,-0.7,43.4,0.0,119.0,0.0,-0.01,1.0,0.0,-92.0,12.0,0.0,30.05,-212.0,0.0,0.0,325.0,0.0,0.0,0.0,0.0,0.0,0.0,0.0,0.0,0.0,0.0,0.0,0.0,0.0,0.0,0.0,0.0,0.0,0.0,0.0,0.0,0.0,0.0,0.0,0.0,0.0,11.0,0.0,0.0,30.2,0.0,0.0,0.0,0.0,0.0,0.0,39.2,0.0,0.0,-0.3,0.2,0.1,0.0,0.0,0.0,0.0,11.0,13.0,11.0,13.0,11.0,12.0,12.0,13.0,0.0,0.0,-25.0,1.6,0.0,0.0,1.0,0.0,0.0,0.0,0.653,0.696,0.0,10.6,0.0,0.0,0.0,,0.0,0.0,11.25,-0.75,-1.4000000000000004,53.6,51.8,0.0,0.0,0.0,0.0,51.8,55.4,51.8,55.4,51.8,53.6,53.6,55.4,0.0,0.0,51.08,52.25,30.65,29.48,0.0,0.16866666666666666,0.0,347.0,2025-11-29 12:30:35-08:00
67.06,1.0,10.0,2025-11-29 20:31:37,37.08157,-121.59963,355.0,0.0,243.6,-12.6,0.0,,0.0,0.0,0.0,11.0,-0.7,43.4,0.0,116.0,0.0,-0.01,1.0,0.0,-108.0,12.0,0.0,30.05,-212.0,0.0,0.0,325.0,0.0,0.0,0.0,0.0,0.0,0.0,0.0,0.0,0.0,0.0,0.0,0.0,0.0,0.0,0.0,0.0,0.0,0.0,0.0,0.0,0.0,0.0,0.0,0.0,0.0,11.0,0.0,0.0,30.2,0.0,0.0,0.0,0.0,0.0,0.0,39.2,0.0,0.0,-0.3,0.2,0.1,0.0,0.0,0.0,0.0,11.0,12.0,11.0,12.0,11.0,12.0,11.0,12.0,0.0,0.0,-26.0,1.5,0.0,0.0,1.0,0.0,0.0,0.0,0.653,0.696,0.0,10.6,0.0,0.0,0.0,,0.0,0.0,11.0,-1.0,-1.4000000000000004,53.6,51.8,0.0,0.0,0.0,0.0,51.8,53.6,51.8,53.6,51.8,53.6,51.8,53.6,0.0,0.0,51.08,51.8,30.2,29.48,0.0,0.16866666666666666,0.0,347.0,2025-11-29 12:30:35-08:00
68.06,1.0,10.0,2025-11-29 20:31:38,37.08157,-121.59963,354.0,0.0,243.6,-12.6,0.0,,0.0,0.0,0.0,11.0,-0.8,43.4,0.0,116.0,0.0,-0.01,1.0,0.0,-92.0,12.0,0.0,30.05,-212.0,0.0,0.0,325.0,0.0,0.0,0.0,0.0,0.0,0.0,0.0,0.0,0.0,0.0,0.0,0.0,0.0,0.0,0.0,0.0,0.0,0.0,0.0,0.0,0.0,0.0,0.0,0.0,0.0,11.0,0.0,0.0,30.2,0.0,0.0,0.0,0.0,0.0,0.0,39.2,0.0,0.0,-0.3,0.2,0.1,0.0,0.0,0.0,0.0,11.0,12.0,11.0,12.0,11.0,12.0,11.0,12.0,0.0,0.0,-26.0,1.3,0.0,0.0,1.0,0.0,0.0,0.0,0.653,0.696,0.0,10.6,0.0,0.0,0.0,,0.0,0.0,11.0,-1.0,-1.4000000000000004,53.6,51.8,0.0,0.0,0.0,0.0,51.8,53.6,51.8,53.6,51.8,53.6,51.8,53.6,0.0,0.0,51.08,51.8,30.2,29.48,0.0,0.16866666666666666,0.0,347.0,2025-11-29 12:30:35-08:00
69.06,1.0,10.0,2025-11-29 20:31:39,37.08157,-121.59963,354.0,0.0,243.6,-12.6,0.0,,0.0,0.0,0.0,11.1,-0.8,43.3,0.0,114.0,0.0,-0.01,1.0,0.0,-78.0,12.0,0.0,30.05,-218.0,0.0,0.0,325.0,0.0,0.0,0.0,0.0,0.0,0.0,0.0,0.0,0.0,0.0,0.0,0.0,0.0,0.0,0.0,0.0,0.0,0.0,0.0,0.0,0.0,0.0,0.0,0.0,0.0,11.0,0.0,0.0,30.2,0.0,0.0,0.0,0.0,0.0,0.0,39.2,0.0,0.0,-0.3,0.2,0.1,0.0,0.0,0.0,0.0,11.0,12.0,11.0,12.0,11.0,12.0,11.0,12.0,0.0,0.0,-27.0,1.2,0.0,0.0,2.0,0.0,0.0,0.0,0.653,0.696,0.0,10.6,0.0,0.0,0.0,,0.0,0.0,11.0,-1.0,-1.4000000000000004,53.6,51.8,0.0,0.0,0.0,0.0,51.8,53.6,51.8,53.6,51.8,53.6,51.8,53.6,0.0,0.0,51.08,51.8,30.2,29.48,0.0,0.16866666666666666,0.0,347.0,2025-11-29 12:30:35-08:00
70.06,1.0,10.0,2025-11-29 20:31:40,37.08157,-121.59962,353.0,0.0,243.6,-12.6,0.0,,0.0,0.0,0.0,11.0,-0.8,43.3,0.0,113.0,0.0,-0.01,1.0,0.0,-85.0,12.0,0.0,30.05,-218.0,0.0,0.0,325.0,0.0,0.0,0.0,0.0,0.0,0.0,0.0,0.0,0.0,0.0,0.0,0.0,0.0,0.0,0.0,0.0,0.0,0.0,0.0,0.0,0.0,0.0,0.0,0.0,0.0,11.0,0.0,0.0,30.2,0.0,0.0,0.0,0.0,0.0,0.0,39.2,0.0,0.0,-0.3,0.2,0.1,0.0,0.0,0.0,0.0,11.0,12.0,11.0,12.0,11.0,12.0,11.0,12.0,0.0,0.0,-26.0,1.2,0.0,0.0,2.0,0.0,0.0,0.0,0.653,0.696,0.0,10.6,0.0,0.0,0.0,,0.0,0.0,11.0,-1.0,-1.4000000000000004,53.6,51.8,0.0,0.0,0.0,0.0,51.8,53.6,51.8,53.6,51.8,53.6,51.8,53.6,0.0,0.0,51.08,51.8,30.2,29.48,0.0,0.16866666666666666,0.0,347.0,2025-11-29 12:30:35-08:00
71.06,1.0,10.0,2025-11-29 20:31:41,37.08156,-121.59962,353.0,0.0,243.6,-12.6,0.0,,0.0,0.0,0.0,11.0,-0.8,43.4,0.0,112.0,0.0,-0.01,1.0,0.0,-77.0,12.0,0.0,30.05,-218.0,0.0,0.0,325.0,0.0,0.0,0.0,0.0,0.0,0.0,0.0,0.0,0.0,0.0,0.0,0.0,0.0,0.0,0.0,0.0,0.0,0.0,0.0,0.0,0.0,0.0,0.0,0.0,0.0,11.0,0.0,0.0,30.2,0.0,0.0,0.0,0.0,0.0,0.0,39.2,0.0,0.0,-0.3,0.2,0.1,0.0,0.0,0.0,0.0,12.0,13.0,12.0,13.0,12.0,13.0,12.0,13.0,0.0,0.0,-25.0,1.2,0.0,0.0,2.0,0.0,0.0,0.0,0.653,0.696,0.0,10.6,0.0,0.0,0.0,,0.0,0.0,12.0,0.0,-1.4000000000000004,53.6,51.8,0.0,0.0,0.0,0.0,53.6,55.4,53.6,55.4,53.6,55.4,53.6,55.4,0.0,0.0,51.08,53.6,32.0,29.48,0.0,0.16866666666666666,0.0,347.0,2025-11-29 12:30:35-08:00
72.06,1.0,10.0,2025-11-29 20:31:42,37.08156,-121.59962,352.0,0.0,243.6,-12.6,0.0,,0.0,0.0,0.0,11.0,-0.8,43.4,0.0,112.0,0.0,-0.01,1.0,0.0,-34.0,12.0,0.0,30.05,-221.0,0.0,0.0,325.0,0.0,0.0,0.0,0.0,0.0,0.0,0.0,0.0,0.0,0.0,0.0,0.0,0.0,0.0,0.0,0.0,0.0,0.0,0.0,0.0,0.0,0.0,0.0,0.0,0.0,11.0,0.0,0.0,30.2,0.0,0.0,0.0,0.0,0.0,0.0,39.2,0.0,0.0,-0.3,0.2,0.1,0.0,0.0,0.0,0.0,11.0,13.0,11.0,13.0,11.0,12.0,12.0,13.0,0.0,0.0,-25.0,1.1,0.0,0.0,2.0,0.0,0.0,0.0,0.653,0.696,0.0,10.6,0.0,0.0,0.0,,0.0,0.0,11.25,-0.75,-1.4000000000000004,53.6,51.8,0.0,0.0,0.0,0.0,51.8,55.4,51.8,55.4,51.8,53.6,53.6,55.4,0.0,0.0,51.08,52.25,30.65,29.48,0.0,0.16866666666666666,0.0,347.0,2025-11-29 12:30:35-08:00
73.06,1.0,10.0,2025-11-29 20:31:43,37.08156,-121.59962,351.0,0.0,243.6,-12.6,0.0,,0.0,0.0,0.0,11.0,-0.8,43.4,0.0,112.0,0.0,-0.01,1.0,0.0,-3.0,12.0,0.0,30.05,-221.0,0.0,0.0,325.0,0.0,0.0,0.0,0.0,0.0,0.0,0.0,0.0,0.0,0.0,0.0,0.0,0.0,0.0,0.0,0.0,0.0,0.0,0.0,0.0,0.0,0.0,0.0,0.0,0.0,11.0,0.0,0.0,30.2,0.0,0.0,0.0,0.0,0.0,0.0,39.2,0.0,0.0,-0.3,0.2,0.1,0.0,0.0,0.0,0.0,11.0,13.0,11.0,13.0,11.0,12.0,12.0,13.0,0.0,0.0,-26.0,1.1,0.0,0.0,2.0,0.0,0.0,0.0,0.653,0.696,0.0,10.6,0.0,0.0,0.0,,0.0,0.0,11.25,-0.75,-1.4000000000000004,53.6,51.8,0.0,0.0,0.0,0.0,51.8,55.4,51.8,55.4,51.8,53.6,53.6,55.4,0.0,0.0,51.08,52.25,30.65,29.48,0.0,0.16866666666666666,0.0,347.0,2025-11-29 12:30:35-08:00
74.06,1.0,10.0,2025-11-29 20:31:44,37.08156,-121.59962,350.0,0.0,243.6,-12.6,0.0,,0.0,0.0,0.0,11.0,-0.8,43.4,0.0,112.0,0.0,-0.01,1.0,0.0,17.0,12.0,0.0,30.05,-221.0,0.0,0.0,325.0,0.0,0.0,0.0,0.0,0.0,0.0,0.0,0.0,0.0,0.0,0.0,0.0,0.0,0.0,0.0,0.0,0.0,0.0,0.0,0.0,0.0,0.0,0.0,0.0,0.0,11.0,0.0,0.0,30.2,0.0,0.0,0.0,0.0,0.0,0.0,39.2,0.0,0.0,-0.3,0.2,0.1,0.0,0.0,0.0,0.0,12.0,13.0,12.0,13.0,12.0,13.0,12.0,13.0,0.0,0.0,-27.0,1.1,0.0,0.0,2.0,0.0,0.0,0.0,0.653,0.696,0.0,10.6,0.0,0.0,0.0,,0.0,0.0,12.0,0.0,-1.4000000000000004,53.6,51.8,0.0,0.0,0.0,0.0,53.6,55.4,53.6,55.4,53.6,55.4,53.6,55.4,0.0,0.0,51.08,53.6,32.0,29.48,0.0,0.16866666666666666,0.0,347.0,2025-11-29 12:30:35-08:00
75.06,1.0,10.0,2025-11-29 20:31:45,37.08156,-121.59962,349.0,0.0,243.6,-12.6,0.0,,0.0,0.0,0.0,11.0,-0.8,43.4,0.0,112.0,0.0,-0.01,1.0,0.0,25.0,12.0,0.0,30.05,-213.0,0.0,0.0,325.0,0.0,0.0,0.0,0.0,0.0,0.0,0.0,0.0,0.0,0.0,0.0,0.0,0.0,0.0,0.0,0.0,0.0,0.0,0.0,0.0,0.0,0.0,0.0,0.0,0.0,11.0,0.0,0.0,30.2,0.0,0.0,0.0,0.0,0.0,0.0,39.2,0.0,0.0,-0.3,0.2,0.1,0.0,0.0,0.0,0.0,11.0,13.0,11.0,13.0,11.0,12.0,12.0,13.0,0.0,0.0,-26.0,1.0,0.0,0.0,2.0,0.0,0.0,0.0,0.653,0.696,0.0,10.6,0.0,0.0,0.0,,0.0,0.0,11.25,-0.75,-1.4000000000000004,53.6,51.8,0.0,0.0,0.0,0.0,51.8,55.4,51.8,55.4,51.8,53.6,53.6,55.4,0.0,0.0,51.08,52.25,30.65,29.48,0.0,0.16866666666666666,0.0,347.0,2025-11-29 12:30:35-08:00
76.06,1.0,10.0,2025-11-29 20:31:46,37.08156,-121.59962,348.0,0.0,243.6,-12.6,0.0,,0.0,0.0,0.0,11.0,-0.8,43.4,0.0,112.0,0.0,-0.01,1.0,0.0,35.0,12.0,0.0,30.05,-213.0,0.0,0.0,325.0,0.0,0.0,0.0,0.0,0.0,0.0,0.0,0.0,0.0,0.0,0.0,0.0,0.0,0.0,0.0,0.0,0.0,0.0,0.0,0.0,0.0,0.0,0.0,0.0,0.0,11.0,0.0,0.0,30.2,0.0,0.0,0.0,0.0,0.0,0.0,39.2,0.0,0.0,-0.3,0.2,0.1,0.0,0.0,0.0,0.0,11.0,13.0,11.0,13.0,11.0,12.0,12.0,13.0,0.0,0.0,-26.0,1.0,0.0,0.0,2.0,0.0,0.0,0.0,0.653,0.696,0.0,10.6,0.0,0.0,0.0,,0.0,0.0,11.25,-0.75,-1.4000000000000004,53.6,51.8,0.0,0.0,0.0,0.0,51.8,55.4,51.8,55.4,51.8,53.6,53.6,55.4,0.0,0.0,51.08,52.25,30.65,29.48,0.0,0.16866666666666666,0.0,347.0,2025-11-29 12:30:35-08:00
77.06,1.0,10.0,2025-11-29 20:31:47,37.08156,-121.59962,347.0,0.0,243.6,-12.6,0.0,,0.0,0.0,0.0,11.0,-0.8,43.4,0.0,112.0,0.0,-0.01,1.0,0.0,34.0,12.0,0.0,30.05,-213.0,0.0,0.0,325.0,0.0,0.0,0.0,0.0,0.0,0.0,0.0,0.0,0.0,0.0,0.0,0.0,0.0,0.0,0.0,0.0,0.0,0.0,0.0,0.0,0.0,0.0,0.0,0.0,0.0,11.0,0.0,0.0,30.2,0.0,0.0,0.0,0.0,0.0,0.0,39.2,0.0,0.0,-0.3,0.2,0.1,0.0,0.0,0.0,0.0,11.0,13.0,11.0,13.0,11.0,12.0,12.0,13.0,0.0,0.0,-26.0,1.0,0.0,0.0,2.0,0.0,0.0,0.0,0.653,0.696,0.0,10.6,0.0,0.0,0.0,,0.0,0.0,11.25,-0.75,-1.4000000000000004,53.6,51.8,0.0,0.0,0.0,0.0,51.8,55.4,51.8,55.4,51.8,53.6,53.6,55.4,0.0,0.0,51.08,52.25,30.65,29.48,0.0,0.16866666666666666,0.0,347.0,2025-11-29 12:30:35-08:00
78.06,1.0,10.0,2025-11-29 20:31:48,37.08156,-121.59962,346.0,0.0,243.6,-12.6,0.0,,0.0,0.0,0.0,11.0,-0.8,43.3,0.0,112.0,0.0,-0.01,1.0,0.0,-6.0,12.0,0.0,30.05,-211.0,0.0,0.0,325.0,0.0,0.0,0.0,0.0,0.0,0.0,0.0,0.0,0.0,0.0,0.0,0.0,0.0,0.0,0.0,0.0,0.0,0.0,0.0,0.0,0.0,0.0,0.0,0.0,0.0,11.0,0.0,0.0,30.2,0.0,0.0,0.0,0.0,0.0,0.0,39.2,0.0,0.0,-0.3,0.2,0.1,0.0,0.0,0.0,0.0,11.0,13.0,11.0,13.0,11.0,12.0,12.0,13.0,0.0,0.0,-25.0,1.0,0.0,0.0,2.0,0.0,0.0,0.0,0.653,0.696,0.0,10.6,0.0,0.0,0.0,,0.0,0.0,11.25,-0.75,-1.4000000000000004,53.6,51.8,0.0,0.0,0.0,0.0,51.8,55.4,51.8,55.4,51.8,53.6,53.6,55.4,0.0,0.0,51.08,52.25,30.65,29.48,0.0,0.16866666666666666,0.0,347.0,2025-11-29 12:30:35-08:00
79.06,1.0,10.0,2025-11-29 20:31:49,37.08156,-121.59962,346.0,0.0,243.6,-12.6,0.0,,0.0,0.0,0.0,11.0,-0.8,43.4,0.0,112.0,0.0,-0.01,1.0,0.0,-1.0,12.0,0.0,30.05,-211.0,0.0,0.0,325.0,0.0,0.0,0.0,0.0,0.0,0.0,0.0,0.0,0.0,0.0,0.0,0.0,0.0,0.0,0.0,0.0,0.0,0.0,0.0,0.0,0.0,0.0,0.0,0.0,0.0,11.0,0.0,0.0,30.2,0.0,0.0,0.0,0.0,0.0,0.0,39.2,0.0,0.0,-0.3,0.2,0.1,0.0,0.0,0.0,0.0,11.0,13.0,11.0,13.0,11.0,12.0,12.0,13.0,0.0,0.0,-26.0,1.0,0.0,0.0,2.0,0.0,0.0,0.0,0.653,0.696,0.0,10.6,0.0,0.0,0.0,,0.0,0.0,11.25,-0.75,-1.4000000000000004,53.6,51.8,0.0,0.0,0.0,0.0,51.8,55.4,51.8,55.4,51.8,53.6,53.6,55.4,0.0,0.0,51.08,52.25,30.65,29.48,0.0,0.16866666666666666,0.0,347.0,2025-11-29 12:30:35-08:00
80.06,1.0,10.0,2025-11-29 20:31:50,37.08156,-121.59962,345.0,0.0,243.6,-12.6,0.0,,0.0,0.0,0.0,11.0,-0.7,43.4,0.0,112.0,0.0,-0.01,1.0,0.0,7.0,12.0,0.0,30.05,-213.0,0.0,0.0,325.0,0.0,0.0,0.0,0.0,0.0,0.0,0.0,0.0,0.0,0.0,0.0,0.0,0.0,0.0,0.0,0.0,0.0,0.0,0.0,0.0,0.0,0.0,0.0,0.0,0.0,11.0,0.0,0.0,30.2,0.0,0.0,0.0,0.0,0.0,0.0,39.2,0.0,0.0,-0.3,0.2,0.1,0.0,0.0,0.0,0.0,11.0,13.0,11.0,13.0,11.0,12.0,12.0,13.0,0.0,0.0,-26.0,1.0,0.0,0.0,2.0,0.0,0.0,0.0,0.653,0.696,0.0,10.6,0.0,0.0,0.0,,0.0,0.0,11.25,-0.75,-1.4000000000000004,53.6,51.8,0.0,0.0,0.0,0.0,51.8,55.4,51.8,55.4,51.8,53.6,53.6,55.4,0.0,0.0,51.08,52.25,30.65,29.48,0.0,0.16866666666666666,0.0,347.0,2025-11-29 12:30:35-08:00
81.06,1.0,10.0,2025-11-29 20:31:51,37.08156,-121.59962,345.0,0.0,243.6,-12.6,0.0,,0.0,0.0,0.0,11.0,-0.8,43.4,0.0,112.0,0.0,-0.01,1.0,0.0,-1.0,12.0,0.0,30.05,-213.0,0.0,0.0,325.0,0.0,0.0,0.0,0.0,0.0,0.0,0.0,0.0,0.0,0.0,0.0,0.0,0.0,0.0,0.0,0.0,0.0,0.0,0.0,0.0,0.0,0.0,0.0,0.0,0.0,11.0,0.0,0.0,30.2,0.0,0.0,0.0,0.0,0.0,0.0,39.2,0.0,0.0,-0.3,0.2,0.1,0.0,0.0,0.0,0.0,11.0,13.0,11.0,13.0,11.0,12.0,12.0,13.0,0.0,0.0,-26.0,1.0,0.0,0.0,2.0,0.0,0.0,0.0,0.653,0.696,0.0,10.6,0.0,0.0,0.0,,0.0,0.0,11.25,-0.75,-1.4000000000000004,53.6,51.8,0.0,0.0,0.0,0.0,51.8,55.4,51.8,55.4,51.8,53.6,53.6,55.4,0.0,0.0,51.08,52.25,30.65,29.48,0.0,0.16866666666666666,0.0,347.0,2025-11-29 12:30:35-08:00
82.06,1.0,10.0,2025-11-29 20:31:52,37.08156,-121.59962,345.0,0.0,243.6,-12.6,0.0,,0.0,0.0,0.0,11.0,-0.8,43.4,0.0,112.0,0.0,-0.01,1.0,0.0,18.0,12.0,0.0,30.05,-213.0,0.0,0.0,325.0,0.0,0.0,0.0,0.0,0.0,0.0,0.0,0.0,0.0,0.0,0.0,0.0,0.0,0.0,0.0,0.0,0.0,0.0,0.0,0.0,0.0,0.0,0.0,0.0,0.0,11.0,0.0,0.0,30.2,0.0,0.0,0.0,0.0,0.0,0.0,39.2,0.0,0.0,-0.3,0.2,0.1,0.0,0.0,0.0,0.0,11.0,13.0,12.0,13.0,12.0,13.0,12.0,13.0,0.0,0.0,-25.0,1.0,0.0,0.0,2.0,0.0,0.0,0.0,0.653,0.696,0.0,10.6,0.0,0.0,0.0,,0.0,0.0,11.75,-0.25,-1.4000000000000004,53.6,51.8,0.0,0.0,0.0,0.0,51.8,55.4,53.6,55.4,53.6,55.4,53.6,55.4,0.0,0.0,51.08,53.15,31.55,29.48,0.0,0.16866666666666666,0.0,347.0,2025-11-29 12:30:35-08:00
83.06,1.0,10.0,2025-11-29 20:31:53,37.08156,-121.59962,344.0,0.0,243.6,-12.6,0.0,,0.0,0.0,0.0,11.0,-0.8,43.4,0.0,112.0,0.0,-0.01,1.0,0.0,35.0,12.0,0.0,30.05,-211.0,0.0,0.0,325.0,0.0,0.0,0.0,0.0,0.0,0.0,0.0,0.0,0.0,0.0,0.0,0.0,0.0,0.0,0.0,0.0,0.0,0.0,0.0,0.0,0.0,0.0,0.0,0.0,0.0,11.0,0.0,0.0,30.2,0.0,0.0,0.0,0.0,0.0,0.0,39.2,0.0,0.0,-0.3,0.2,0.1,0.0,0.0,0.0,0.0,11.0,13.0,11.0,13.0,11.0,12.0,12.0,13.0,0.0,0.0,-24.0,1.0,0.0,0.0,2.0,0.0,0.0,0.0,0.653,0.696,0.0,10.6,0.0,0.0,0.0,,0.0,0.0,11.25,-0.75,-1.4000000000000004,53.6,51.8,0.0,0.0,0.0,0.0,51.8,55.4,51.8,55.4,51.8,53.6,53.6,55.4,0.0,0.0,51.08,52.25,30.65,29.48,0.0,0.16866666666666666,0.0,347.0,2025-11-29 12:30:35-08:00
84.06,1.0,10.0,2025-11-29 20:31:54,37.08156,-121.59963,344.0,0.0,243.6,-12.6,0.0,,0.0,0.0,0.0,11.0,-0.8,43.4,0.0,112.0,0.0,-0.01,1.0,0.0,49.0,12.0,0.0,30.05,-211.0,0.0,0.0,325.0,0.0,0.0,0.0,0.0,0.0,0.0,0.0,0.0,0.0,0.0,0.0,0.0,0.0,0.0,0.0,0.0,0.0,0.0,0.0,0.0,0.0,0.0,0.0,0.0,0.0,11.0,0.0,0.0,30.2,0.0,0.0,0.0,0.0,0.0,0.0,39.2,0.0,0.0,-0.3,0.2,0.1,0.0,0.0,0.0,0.0,11.0,13.0,11.0,13.0,11.0,12.0,12.0,13.0,0.0,0.0,-24.0,1.0,0.0,0.0,2.0,0.0,0.0,0.0,0.653,0.696,0.0,10.6,0.0,0.0,0.0,,0.0,0.0,11.25,-0.75,-1.4000000000000004,53.6,51.8,0.0,0.0,0.0,0.0,51.8,55.4,51.8,55.4,51.8,53.6,53.6,55.4,0.0,0.0,51.08,52.25,30.65,29.48,0.0,0.16866666666666666,0.0,347.0,2025-11-29 12:30:35-08:00
85.06,1.0,10.0,2025-11-29 20:31:55,37.08156,-121.59963,344.0,0.0,243.6,-12.6,0.0,,0.0,0.0,0.0,11.0,-0.8,43.4,0.0,112.0,0.0,-0.01,1.0,0.0,40.0,12.0,0.0,30.05,-211.0,0.0,0.0,325.0,0.0,0.0,0.0,0.0,0.0,0.0,0.0,0.0,0.0,0.0,0.0,0.0,0.0,0.0,0.0,0.0,0.0,0.0,0.0,0.0,0.0,0.0,0.0,0.0,0.0,11.0,0.0,0.0,30.2,0.0,0.0,0.0,0.0,0.0,0.0,39.2,0.0,0.0,-0.3,0.2,0.1,0.0,0.0,0.0,0.0,11.0,13.0,11.0,13.0,11.0,12.0,12.0,13.0,0.0,0.0,-25.0,1.0,0.0,0.0,2.0,0.0,0.0,0.0,0.653,0.696,0.0,10.6,0.0,0.0,0.0,,0.0,0.0,11.25,-0.75,-1.4000000000000004,53.6,51.8,0.0,0.0,0.0,0.0,51.8,55.4,51.8,55.4,51.8,53.6,53.6,55.4,0.0,0.0,51.08,52.25,30.65,29.48,0.0,0.16866666666666666,0.0,347.0,2025-11-29 12:30:35-08:00
86.06,1.0,10.0,2025-11-29 20:31:56,37.08156,-121.59963,344.0,0.0,243.6,-12.6,0.0,,0.0,0.0,0.0,11.0,-0.8,43.4,0.0,112.0,0.0,-0.01,1.0,0.0,58.0,12.0,0.0,30.05,-211.0,0.0,0.0,325.0,0.0,0.0,0.0,0.0,0.0,0.0,0.0,0.0,0.0,0.0,0.0,0.0,0.0,0.0,0.0,0.0,0.0,0.0,0.0,0.0,0.0,0.0,0.0,0.0,0.0,11.0,0.0,0.0,30.2,0.0,0.0,0.0,0.0,0.0,0.0,39.2,0.0,0.0,-0.3,0.2,0.1,0.0,0.0,0.0,0.0,11.0,13.0,11.0,13.0,11.0,12.0,12.0,13.0,0.0,0.0,-25.0,1.0,0.0,0.0,2.0,0.0,0.0,0.0,0.653,0.696,0.0,10.6,0.0,0.0,0.0,,0.0,0.0,11.25,-0.75,-1.4000000000000004,53.6,51.8,0.0,0.0,0.0,0.0,51.8,55.4,51.8,55.4,51.8,53.6,53.6,55.4,0.0,0.0,51.08,52.25,30.65,29.48,0.0,0.16866666666666666,0.0,347.0,2025-11-29 12:30:35-08:00
87.06,1.0,10.0,2025-11-29 20:31:57,37.08156,-121.59963,343.0,0.0,243.6,-12.6,0.0,,0.0,0.0,0.0,11.0,-0.9,43.3,0.0,112.0,0.0,-0.01,1.0,0.0,65.0,12.0,0.0,30.05,-211.0,0.0,0.0,325.0,0.0,0.0,0.0,0.0,0.0,0.0,0.0,0.0,0.0,0.0,0.0,0.0,0.0,0.0,0.0,0.0,0.0,0.0,0.0,0.0,0.0,0.0,0.0,0.0,0.0,11.0,0.0,0.0,30.2,0.0,0.0,0.0,0.0,0.0,0.0,39.2,0.0,0.0,-0.3,0.2,0.1,0.0,0.0,0.0,0.0,11.0,13.0,11.0,13.0,11.0,12.0,12.0,13.0,0.0,0.0,-25.0,1.0,0.0,0.0,2.0,0.0,0.0,0.0,0.653,0.696,0.0,10.6,0.0,0.0,0.0,,0.0,0.0,11.25,-0.75,-1.4000000000000004,53.6,51.8,0.0,0.0,0.0,0.0,51.8,55.4,51.8,55.4,51.8,53.6,53.6,55.4,0.0,0.0,51.08,52.25,30.65,29.48,0.0,0.16866666666666666,0.0,347.0,2025-11-29 12:30:35-08:00
88.06,1.0,10.0,2025-11-29 20:31:58,37.08156,-121.59962,343.0,0.0,243.6,-12.6,0.0,,0.0,0.0,0.0,11.0,-0.9,43.3,0.0,112.0,0.0,-0.01,1.0,0.0,43.0,12.0,0.0,30.05,-210.0,0.0,0.0,325.0,0.0,0.0,0.0,0.0,0.0,0.0,0.0,0.0,0.0,0.0,0.0,0.0,0.0,0.0,0.0,0.0,0.0,0.0,0.0,0.0,0.0,0.0,0.0,0.0,0.0,11.0,0.0,0.0,30.2,0.0,0.0,0.0,0.0,0.0,0.0,39.2,0.0,0.0,-0.3,0.2,0.1,0.0,0.0,0.0,0.0,11.0,13.0,11.0,13.0,11.0,12.0,12.0,13.0,0.0,0.0,-25.0,0.0,0.0,0.0,2.0,0.0,0.0,0.0,0.653,0.696,0.0,10.6,0.0,0.0,0.0,,0.0,0.0,11.25,-0.75,-1.4000000000000004,53.6,51.8,0.0,0.0,0.0,0.0,51.8,55.4,51.8,55.4,51.8,53.6,53.6,55.4,0.0,0.0,51.08,52.25,30.65,29.48,0.0,0.16866666666666666,0.0,347.0,2025-11-29 12:30:35-08:00
89.06,1.0,10.0,2025-11-29 20:31:59,37.08156,-121.59962,342.0,0.0,243.6,-12.6,0.0,,0.0,0.0,0.0,11.0,-0.8,43.3,0.0,112.0,0.0,-0.01,1.0,0.0,52.0,12.0,0.0,30.05,-210.0,0.0,0.0,325.0,0.0,0.0,0.0,0.0,0.0,0.0,0.0,0.0,0.0,0.0,0.0,0.0,0.0,0.0,0.0,0.0,0.0,0.0,0.0,0.0,0.0,0.0,0.0,0.0,0.0,11.0,0.0,0.0,30.2,0.0,0.0,0.0,0.0,0.0,0.0,39.2,0.0,0.0,-0.3,0.2,0.1,0.0,0.0,0.0,0.0,11.0,13.0,11.0,13.0,12.0,13.0,12.0,13.0,0.0,0.0,-25.0,0.0,0.0,0.0,2.0,0.0,0.0,0.0,0.653,0.696,0.0,10.6,0.0,0.0,0.0,,0.0,0.0,11.5,-0.5,-1.4000000000000004,53.6,51.8,0.0,0.0,0.0,0.0,51.8,55.4,51.8,55.4,53.6,55.4,53.6,55.4,0.0,0.0,51.08,52.7,31.1,29.48,0.0,0.16866666666666666,0.0,347.0,2025-11-29 12:30:35-08:00
90.06,1.0,10.0,2025-11-29 20:32:00,37.08156,-121.59962,342.0,0.0,243.6,-12.6,0.0,,0.0,0.0,0.0,11.0,-0.8,43.3,0.0,113.0,0.0,-0.01,1.0,0.0,55.0,12.0,0.0,30.05,-208.0,0.0,0.0,325.0,0.0,0.0,0.0,0.0,0.0,0.0,0.0,0.0,0.0,0.0,0.0,0.0,0.0,0.0,0.0,0.0,0.0,0.0,0.0,0.0,0.0,0.0,0.0,0.0,0.0,11.0,0.0,0.0,30.2,0.0,0.0,0.0,0.0,0.0,0.0,39.2,0.0,0.0,-0.3,0.2,0.1,0.0,0.0,0.0,0.0,11.0,13.0,11.0,13.0,11.0,12.0,12.0,13.0,0.0,0.0,-25.0,0.0,0.0,0.0,2.0,0.0,0.0,0.0,0.653,0.696,0.0,10.6,0.0,0.0,0.0,,0.0,0.0,11.25,-0.75,-1.4000000000000004,53.6,51.8,0.0,0.0,0.0,0.0,51.8,55.4,51.8,55.4,51.8,53.6,53.6,55.4,0.0,0.0,51.08,52.25,30.65,29.48,0.0,0.16866666666666666,0.0,347.0,2025-11-29 12:30:35-08:00
91.06,1.0,10.0,2025-11-29 20:32:01,37.08156,-121.59962,341.0,0.0,243.6,-12.6,0.0,,0.0,0.0,0.0,11.0,-0.8,43.3,0.0,115.0,0.0,-0.01,1.0,0.0,84.0,12.0,0.0,30.05,-206.0,0.0,0.0,325.0,0.0,0.0,0.0,0.0,0.0,0.0,0.0,0.0,0.0,0.0,0.0,0.0,0.0,0.0,0.0,0.0,0.0,0.0,0.0,0.0,0.0,0.0,0.0,0.0,0.0,11.0,0.0,0.0,30.2,0.0,0.0,0.0,0.0,0.0,0.0,39.2,0.0,0.0,-0.3,0.2,0.1,0.0,0.0,0.0,0.0,11.0,13.0,12.0,13.0,12.0,13.0,12.0,13.0,0.0,0.0,-24.0,0.0,0.0,0.0,2.0,0.0,0.0,0.0,0.653,0.696,0.0,10.6,0.0,0.0,0.0,,0.0,0.0,11.75,-0.25,-1.4000000000000004,53.6,51.8,0.0,0.0,0.0,0.0,51.8,55.4,53.6,55.4,53.6,55.4,53.6,55.4,0.0,0.0,51.08,53.15,31.55,29.48,0.0,0.16866666666666666,0.0,347.0,2025-11-29 12:30:35-08:00
