Session Time,GPS Fix Quality,Number of Satellites,GPS Date & Time,Latitude (deg),Longitude (deg),GPS Altitude (feet),Ground Speed (knots),Ground Track (deg),Mag Var (deg),Cross Track Error (NM),Destination Waypoint ID,Range to Destination (NM),Bearing to Destination (deg),System Time,Pitch (deg),Roll (deg),Magnetic Heading (deg),Indicated Airspeed (knots),Pressure Altitude (ft),Turn Rate (deg/s),Lateral Accel (g),Vertical Accel(g),Angle of Attack (%),Vertical Speed (ft/min),OAT (deg C),True Airspeed (knots),Barometer Setting (inHg),Density Altitude (ft),Wind Direction (deg),Wind Speed (knots),Heading Bug (deg),Altitude Bug (ft),Airspeed Bug (knots),Vertical Speed Bug (ft/min),Course (deg),CDI Source Type,CDI Source Port,CDI Scale (NM),CDI Deflection (%),Glideslope (%),AP Engaged,AP Roll Mode,AP Roll Force,AP Roll Position (steps),AP Roll Slip (bool),AP Pitch Force,AP Pitch Position (steps),AP Pitch Slip (bool),AP Yaw Force,AP Yaw Position,AP Yaw Slip (bool),Transponder Status,Transponder Reply (bool),Transponder Identing (bool),Transponder Code (octal),Oil Pressure (PSI),Oil Temp (deg C),RPM L,RPM R,Manifold Pressure (inHg),Fuel Flow 1 (gal/hr),Fuel Flow 2 (gal/hr),Total Fuel Flow (gal/hr),Fuel Pressure (PSI),Fuel Level L (gal),Fuel Level R (gal),Fuel Remaining (gal),Volts 1,Volts 2,Amps,Hobbs Time,Tach Time,Thermocouple 1 (deg C),Thermocouple 2 (deg C),Thermocouple 3 (deg C),Thermocouple 4 (deg C),CHT 4 (deg C),EGT 4 (deg C),CHT 3 (deg C),EGT 3 (deg C),CHT 2 (deg C),EGT 2 (deg C),CHT 1 (deg C),EGT 1 (deg C),Thermocouple 13 (deg C),Thermocouple 14 (deg C),ELEV POSITION (%),CO PPM PRESSURE (PSI),GP Input 3,FUEL PRESSURE (PSI),AILERN POSITION (%),CANOPY CONTACT (V),GP Input 7,GP Input 8,LEFT LEVEL (Sensor V),RIGHT LEVEL (Sensor V),OIL PRESSURE (PSI),OIL TEMPERATURE (deg C),GP Input 13,Contacts,Percent Power,EGT Leaning State,Unnamed: 103,RPM,Flight ID
5.06,1.0,4.0,2025-11-29 20:30:35,37.08153,-121.59957,350.0,0.0,243.6,-12.6,,,,,20:30:35,10.9,-0.7,43.6,0.0,153.0,0.0,-0.01,1.0,,-65.0,12.0,0.0,30.05,-203.0,,,325.0,,,,,0.0,0.0,,,,,,,,,,,,,,,,,,,0.0,11.0,0.0,0.0,30.2,0.0,,0.0,0.0,,,39.2,0.0,0.0,-0.2,0.2,0.1,,,,,11.0,12.0,11.0,12.0,11.0,12.0,11.0,12.0,,,-25.0,254.5,,0.0,1.0,0.0,,,0.653,0.696,0.0,10.5,,,,,,0.0,2025-11-29 12:30:35-08:00
6.06,1.0,10.0,2025-11-29 20:30:36,37.0816,-121.59962,389.0,0.0,243.6,-12.6,,,,,20:30:36,10.9,-0.7,43.6,0.0,153.0,0.0,-0.01,1.0,,-30.0,12.0,0.0,30.05,-203.0,,,325.0,,,,,0.0,0.0,,,,,,,,,,,,,,,,,,,0.0,11.0,0.0,0.0,30.2,0.0,,0.0,0.0,,,39.2,0.0,0.0,-0.2,0.2,0.1,,,,,11.0,12.0,11.0,12.0,11.0,12.0,11.0,12.0,,,-25.0,254.5,,0.0,1.0,0.0,,,0.653,0.696,0.0,10.5,,,,,,0.0,2025-11-29 12:30:35-08:00
7.06,1.0,10.0,2025-11-29 20:30:37,37.08158,-121.59966,371.0,0.0,243.6,-12.6,,,,,20:30:37,10.9,-0.7,43.6,0.0,152.0,0.0,-0.01,1.0,,-46.0,12.0,0.0,30.05,-203.0,,,325.0,,,,,0.0,0.0,,,,,,,,,,,,,,,,,,,0.0,11.0,0.0,0.0,30.2,0.0,,0.0,0.0,,,39.2,0.0,0.0,-0.2,0.2,0.1,,,,,11.0,12.0,11.0,12.0,11.0,12.0,11.0,12.0,,,-26.0,254.5,,0.0,1.0,0.0,,,0.653,0.696,0.0,10.5,,,,,,0.0,2025-11-29 12:30:35-08:00
8.06,1.0,10.0,2025-11-29 20:30:38,37.08158,-121.59966,376.0,0.0,243.6,-12.6,,,,,20:30:38,10.9,-0.8,43.6,0.0,152.0,0.0,-0.01,1.0,,-12.0,12.0,0.0,30.05,-205.0,,,325.0,,,,,0.0,0.0,,,,,,,,,,,,,,,,,,,0.0,11.0,0.0,0.0,30.2,0.0,,0.0,0.0,,,39.2,0.0,0.0,-0.2,0.2,0.1,,,,,11.0,12.0,11.0,12.0,11.0,12.0,11.0,12.0,,,-25.0,254.5,,0.0,1.0,0.0,,,0.653,0.696,0.0,10.5,,,,,,0.0,2025-11-29 12:30:35-08:00
9.06,1.0,10.0,2025-11-29 20:30:39,37.08158,-121.59966,380.0,0.0,243.6,-12.6,,,,,20:30:39,10.9,-0.8,43.5,0.0,151.0,0.0,-0.01,1.0,,-27.0,12.0,0.0,30.05,-205.0,,,325.0,,,,,0.0,0.0,,,,,,,,,,,,,,,,,,,0.0,11.0,0.0,0.0,30.2,0.0,,0.0,0.0,,,39.2,0.0,0.0,-0.2,0.2,0.1,,,,,11.0,12.0,11.0,12.0,11.0,12.0,11.0,12.0,,,-25.0,254.5,,0.0,1.0,0.0,,,0.653,0.696,0.0,10.5,,,,,,0.0,2025-11-29 12:30:35-08:00
10.06,1.0,10.0,2025-11-29 20:30:40,37.08158,-121.59965,383.0,0.0,243.6,-12.6,,,,,20:30:40,10.9,-0.7,43.5,0.0,151.0,0.0,-0.01,1.0,,-30.0,12.0,0.0,30.05,-205.0,,,325.0,,,,,0.0,0.0,,,,,,,,,,,,,,,,,,,0.0,11.0,0.0,0.0,30.2,0.0,,0.0,0.0,,,39.2,0.0,0.0,-0.2,0.2,0.1,,,,,11.0,12.0,11.0,12.0,11.0,12.0,11.0,12.0,,,-26.0,254.5,,0.0,1.0,0.0,,,0.653,0.696,0.0,10.5,,,,,,0.0,2025-11-29 12:30:35-08:00
11.06,1.0,10.0,2025-11-29 20:30:41,37.08158,-121.59965,385.0,0.0,243.6,-12.6,,,,,20:30:41,10.9,-0.7,43.6,0.0,148.0,0.0,-0.01,1.0,,-81.0,12.0,0.0,30.05,-201.0,,,325.0,,,,,0.0,0.0,,,,,,,,,,,,,,,,,,,0.0,11.0,0.0,0.0,30.2,0.0,,0.0,0.0,,,39.2,0.0,0.0,-0.2,0.2,0.1,,,,,11.0,12.0,11.0,12.0,11.0,12.0,11.0,12.0,,,-26.0,254.5,,0.0,1.0,0.0,,,0.653,0.696,0.0,10.5,,,,,,0.0,2025-11-29 12:30:35-08:00
12.06,1.0,10.0,2025-11-29 20:30:42,37.08158,-121.59965,385.0,0.0,243.6,-12.6,,,,,20:30:42,10.9,-0.7,43.6,0.0,147.0,0.0,-0.01,1.0,,-89.0,12.0,0.0,30.05,-203.0,,,325.0,,,,,0.0,0.0,,,,,,,,,,,,,,,,,,,0.0,11.0,0.0,0.0,30.2,0.0,,0.0,0.0,,,39.2,0.0,0.0,-0.2,0.2,0.1,,,,,11.0,12.0,11.0,12.0,11.0,12.0,11.0,12.0,,,-28.0,254.5,,0.0,1.0,0.0,,,0.653,0.696,0.0,10.5,,,,,,0.0,2025-11-29 12:30:35-08:00
13.06,1.0,10.0,2025-11-29 20:30:43,37.08158,-121.59965,386.0,0.0,243.6,-12.6,,,,,20:30:43,10.9,-0.7,43.5,0.0,146.0,0.0,-0.01,1.0,,-50.0,12.0,0.0,30.05,-203.0,,,325.0,,,,,0.0,0.0,,,,,,,,,,,,,,,,,,,0.0,11.0,0.0,0.0,30.2,0.0,,0.0,0.0,,,39.2,0.0,0.0,-0.2,0.2,0.1,,,,,11.0,12.0,11.0,12.0,11.0,12.0,11.0,12.0,,,-26.0,254.5,,0.0,1.0,0.0,,,0.653,0.696,0.0,10.5,,,,,,0.0,2025-11-29 12:30:35-08:00
14.06,1.0,10.0,2025-11-29 20:30:44,37.08158,-121.59965,385.0,0.0,243.6,-12.6,,,,,20:30:44,10.9,-0.7,43.6,0.0,146.0,0.0,-0.01,1.0,,-52.0,12.0,0.0,30.05,-203.0,,,325.0,,,,,0.0,0.0,,,,,,,,,,,,,,,,,,,0.0,11.0,0.0,0.0,30.2,0.0,,0.0,0.0,,,39.2,0.0,0.0,-0.2,0.2,0.1,,,,,11.0,12.0,11.0,12.0,11.0,12.0,11.0,12.0,,,-25.0,254.5,,0.0,1.0,0.0,,,0.653,0.696,0.0,10.5,,,,,,0.0,2025-11-29 12:30:35-08:00
15.06,1.0,10.0,2025-11-29 20:30:45,37.08158,-121.59965,385.0,0.0,243.6,-12.6,,,,,20:30:45,10.9,-0.7,43.6,0.0,146.0,0.0,-0.01,1.0,,-34.0,12.0,0.0,30.05,-202.0,,,325.0,,,,,0.0,0.0,,,,,,,,,,,,,,,,,,,0.0,11.0,0.0,0.0,30.2,0.0,,0.0,0.0,,,39.2,0.0,0.0,-0.2,0.2,0.1,,,,,11.0,12.0,11.0,12.0,11.0,12.0,11.0,12.0,,,-25.0,254.5,,0.0,1.0,0.0,,,0.653,0.696,0.0,10.5,,,,,,0.0,2025-11-29 12:30:35-08:00
16.06,1.0,10.0,2025-11-29 20:30:46,37.08158,-121.59965,384.0,0.0,243.6,-12.6,,,,,20:30:46,10.9,-0.7,43.6,0.0,146.0,0.0,-0.01,1.0,,-2.0,12.0,0.0,30.05,-202.0,,,325.0,,,,,0.0,0.0,,,,,,,,,,,,,,,,,,,0.0,11.0,0.0,0.0,30.2,0.0,,0.0,0.0,,,39.2,0.0,0.0,-0.2,0.2,0.1,,,,,11.0,12.0,11.0,12.0,11.0,12.0,11.0,12.0,,,-25.0,254.5,,0.0,1.0,0.0,,,0.653,0.696,0.0,10.5,,,,,,0.0,2025-11-29 12:30:35-08:00
17.06,1.0,10.0,2025-11-29 20:30:47,37.08158,-121.59965,382.0,0.0,243.6,-12.6,,,,,20:30:47,10.9,-0.7,43.6,0.0,146.0,0.0,-0.01,1.0,,13.0,12.0,0.0,30.05,-202.0,,,325.0,,,,,0.0,0.0,,,,,,,,,,,,,,,,,,,0.0,11.0,0.0,0.0,30.2,0.0,,0.0,0.0,,,39.2,0.0,0.0,-0.2,0.2,0.1,,,,,11.0,12.0,11.0,12.0,11.0,12.0,11.0,12.0,,,-26.0,254.5,,0.0,1.0,0.0,,,0.653,0.696,0.0,10.5,,,,,,0.0,2025-11-29 12:30:35-08:00
18.06,1.0,10.0,2025-11-29 20:30:48,37.08158,-121.59964,380.0,0.0,243.6,-12.6,,,,,20:30:48,10.9,-0.7,43.6,0.0,146.0,0.0,-0.01,1.0,,15.0,12.0,0.0,30.05,-202.0,,,325.0,,,,,0.0,0.0,,,,,,,,,,,,,,,,,,,0.0,11.0,0.0,0.0,30.2,0.0,,0.0,0.0,,,39.2,0.0,0.0,-0.2,0.2,0.1,,,,,11.0,12.0,11.0,12.0,11.0,12.0,11.0,12.0,,,-26.0,254.5,,0.0,1.0,0.0,,,0.653,0.696,0.0,10.5,,,,,,0.0,2025-11-29 12:30:35-08:00
19.06,1.0,10.0,2025-11-29 20:30:49,37.08158,-121.59964,378.0,0.0,243.6,-12.6,,,,,20:30:49,10.9,-0.7,43.6,0.0,146.0,0.0,-0.01,1.0,,10.0,12.0,0.0,30.05,-202.0,,,325.0,,,,,0.0,0.0,,,,,,,,,,,,,,,,,,,0.0,11.0,0.0,0.0,30.2,0.0,,0.0,0.0,,,39.2,0.0,0.0,-0.2,0.2,0.1,,,,,11.0,12.0,11.0,12.0,11.0,12.0,11.0,12.0,,,-25.0,254.5,,0.0,1.0,0.0,,,0.653,0.696,0.0,10.5,,,,,,0.0,2025-11-29 12:30:35-08:00
20.06,1.0,10.0,2025-11-29 20:30:50,37.08158,-121.59964,376.0,0.0,243.6,-12.6,,,,,20:30:50,10.9,-0.8,43.6,0.0,146.0,0.0,-0.01,1.0,,10.0,12.0,0.0,30.05,-202.0,,,325.0,,,,,0.0,0.0,,,,,,,,,,,,,,,,,,,0.0,11.0,0.0,0.0,30.2,0.0,,0.0,0.0,,,39.2,0.0,0.0,-0.2,0.2,0.1,,,,,11.0,12.0,11.0,12.0,11.0,12.0,11.0,12.0,,,-26.0,254.5,,0.0,1.0,0.0,,,0.653,0.696,0.0,10.5,,,,,,0.0,2025-11-29 12:30:35-08:00
21.06,1.0,10.0,2025-11-29 20:30:51,37.08158,-121.59964,373.0,0.0,243.6,-12.6,,,,,20:30:51,10.9,-0.8,43.5,0.0,146.0,0.0,-0.01,1.0,,-8.0,12.0,0.0,30.05,-202.0,,,325.0,,,,,0.0,0.0,,,,,,,,,,,,,,,,,,,0.0,11.0,0.0,0.0,30.2,0.0,,0.0,0.0,,,39.2,0.0,0.0,-0.2,0.2,0.1,,,,,11.0,12.0,11.0,12.0,11.0,12.0,11.0,12.0,,,-26.0,254.5,,0.0,1.0,0.0,,,0.653,0.696,0.0,10.5,,,,,,0.0,2025-11-29 12:30:35-08:00
22.06,1.0,10.0,2025-11-29 20:30:52,37.08157,-121.59964,371.0,0.0,243.6,-12.6,,,,,20:30:52,10.9,-0.8,43.6,0.0,145.0,0.0,-0.01,1.0,,-35.0,12.0,0.0,30.05,-202.0,,,325.0,,,,,0.0,0.0,,,,,,,,,,,,,,,,,,,0.0,11.0,0.0,0.0,30.2,0.0,,0.0,0.0,,,39.2,0.0,0.0,-0.2,0.2,0.1,,,,,11.0,13.0,11.0,12.0,11.0,12.0,12.0,12.0,,,-26.0,254.5,,0.0,1.0,0.0,,,0.653,0.696,0.0,10.5,,,,,,0.0,2025-11-29 12:30:35-08:00
23.06,1.0,10.0,2025-11-29 20:30:53,37.08157,-121.59964,368.0,0.0,243.6,-12.6,,,,,20:30:53,10.9,-0.8,43.5,0.0,144.0,0.0,-0.01,1.0,,-25.0,12.0,0.0,30.05,-202.0,,,325.0,,,,,0.0,0.0,,,,,,,,,,,,,,,,,,,0.0,11.0,0.0,0.0,30.2,0.0,,0.0,0.0,,,39.2,0.0,0.0,-0.2,0.2,0.1,,,,,11.0,12.0,11.0,12.0,11.0,12.0,11.0,12.0,,,-26.0,254.5,,0.0,1.0,0.0,,,0.653,0.696,0.0,10.5,,,,,,0.0,2025-11-29 12:30:35-08:00
24.06,1.0,10.0,2025-11-29 20:30:54,37.08157,-121.59964,366.0,0.0,243.6,-12.6,,,,,20:30:54,10.9,-0.8,43.5,0.0,144.0,0.0,-0.01,1.0,,-42.0,12.0,0.0,30.05,-204.0,,,325.0,,,,,0.0,0.0,,,,,,,,,,,,,,,,,,,0.0,11.0,0.0,0.0,30.2,0.0,,0.0,0.0,,,39.2,0.0,0.0,-0.2,0.2,0.1,,,,,11.0,12.0,11.0,12.0,11.0,12.0,11.0,12.0,,,-26.0,254.5,,0.0,1.0,0.0,,,0.653,0.696,0.0,10.5,,,,,,0.0,2025-11-29 12:30:35-08:00
25.06,1.0,10.0,2025-11-29 20:30:55,37.08157,-121.59964,363.0,0.0,243.6,-12.6,,,,,20:30:55,10.9,-0.8,43.5,0.0,143.0,0.0,-0.01,1.0,,-55.0,12.0,0.0,30.05,-204.0,,,325.0,,,,,0.0,0.0,,,,,,,,,,,,,,,,,,,0.0,11.0,0.0,0.0,30.2,0.0,,0.0,0.0,,,39.2,0.0,0.0,-0.2,0.2,0.1,,,,,11.0,12.0,11.0,12.0,11.0,12.0,11.0,12.0,,,-25.0,254.5,,0.0,1.0,0.0,,,0.653,0.696,0.0,10.5,,,,,,0.0,2025-11-29 12:30:35-08:00
26.06,1.0,10.0,2025-11-29 20:30:56,37.08157,-121.59963,361.0,0.0,243.6,-12.6,,,,,20:30:56,10.9,-0.8,43.5,0.0,142.0,0.0,-0.01,1.0,,-55.0,12.0,0.0,30.05,-204.0,,,325.0,,,,,0.0,0.0,,,,,,,,,,,,,,,,,,,0.0,11.0,0.0,0.0,30.2,0.0,,0.0,0.0,,,39.2,0.0,0.0,-0.2,0.2,0.1,,,,,11.0,13.0,11.0,12.0,11.0,12.0,11.0,12.0,,,-26.0,254.5,,0.0,1.0,0.0,,,0.653,0.696,0.0,10.5,,,,,,0.0,2025-11-29 12:30:35-08:00
27.06,1.0,10.0,2025-11-29 20:30:57,37.08156,-121.59963,358.0,0.0,243.6,-12.6,,,,,20:30:57,10.9,-0.8,43.5,0.0,141.0,0.0,-0.01,1.0,,-45.0,12.0,0.0,30.05,-208.0,,,325.0,,,,,0.0,0.0,,,,,,,,,,,,,,,,,,,0.0,11.0,0.0,0.0,30.2,0.0,,0.0,0.0,,,39.2,0.0,0.0,-0.2,0.2,0.1,,,,,11.0,12.0,11.0,12.0,11.0,12.0,11.0,12.0,,,-26.0,254.5,,0.0,1.0,0.0,,,0.653,0.696,0.0,10.5,,,,,,0.0,2025-11-29 12:30:35-08:00
28.06,1.0,10.0,2025-11-29 20:30:58,37.08156,-121.59963,356.0,0.0,243.6,-12.6,,,,,20:30:58,11.0,-0.8,43.5,0.0,139.0,0.0,-0.01,1.0,,-85.0,12.0,0.0,30.05,-207.0,,,325.0,,,,,0.0,0.0,,,,,,,,,,,,,,,,,,,0.0,11.0,0.0,0.0,30.2,0.0,,0.0,0.0,,,39.2,0.0,0.0,-0.2,0.2,0.1,,,,,11.0,13.0,11.0,12.0,11.0,12.0,11.0,12.0,,,-26.0,254.5,,0.0,1.0,0.0,,,0.653,0.696,0.0,10.5,,,,,,0.0,2025-11-29 12:30:35-08:00
29.06,1.0,10.0,2025-11-29 20:30:59,37.08156,-121.59963,354.0,0.0,243.6,-12.6,,,,,20:30:59,10.9,-0.8,43.4,0.0,137.0,0.0,-0.01,1.0,,-79.0,12.0,0.0,30.05,-207.0,,,325.0,,,,,0.0,0.0,,,,,,,,,,,,,,,,,,,0.0,11.0,0.0,0.0,30.2,0.0,,0.0,0.0,,,39.2,0.0,0.0,-0.2,0.2,0.1,,,,,11.0,12.0,11.0,12.0,11.0,12.0,11.0,12.0,,,-26.0,254.5,,0.0,1.0,0.0,,,0.653,0.696,0.0,10.5,,,,,,0.0,2025-11-29 12:30:35-08:00
30.06,1.0,10.0,2025-11-29 20:31:00,37.08155,-121.59963,352.0,0.0,243.6,-12.6,,,,,20:31:00,10.9,-0.9,43.4,0.0,137.0,0.0,-0.01,1.0,,-60.0,12.0,0.0,30.05,-207.0,,,325.0,,,,,0.0,0.0,,,,,,,,,,,,,,,,,,,0.0,11.0,0.0,0.0,30.2,0.0,,0.0,0.0,,,39.2,0.0,0.0,-0.2,0.2,0.1,,,,,11.0,12.0,11.0,12.0,11.0,12.0,11.0,12.0,,,-29.0,254.5,,0.0,1.0,0.0,,,0.653,0.696,0.0,10.5,,,,,,0.0,2025-11-29 12:30:35-08:00
31.06,1.0,10.0,2025-11-29 20:31:01,37.08155,-121.59963,351.0,0.0,243.6,-12.6,,,,,20:31:01,11.0,-0.9,43.4,0.0,135.0,0.0,-0.01,1.0,,-89.0,12.0,0.0,30.05,-206.0,,,325.0,,,,,0.0,0.0,,,,,,,,,,,,,,,,,,,0.0,11.0,0.0,0.0,30.2,0.0,,0.0,0.0,,,39.2,0.0,0.0,-0.2,0.2,0.1,,,,,11.0,12.0,11.0,12.0,11.0,12.0,11.0,12.0,,,-28.0,254.5,,0.0,1.0,0.0,,,0.653,0.696,0.0,10.5,,,,,,0.0,2025-11-29 12:30:35-08:00
32.06,1.0,10.0,2025-11-29 20:31:02,37.08155,-121.59963,350.0,0.0,243.6,-12.6,,,,,20:31:02,10.9,-0.9,43.4,0.0,134.0,0.0,-0.01,1.0,,-84.0,12.0,0.0,30.05,-208.0,,,325.0,,,,,0.0,0.0,,,,,,,,,,,,,,,,,,,0.0,11.0,0.0,0.0,30.2,0.0,,0.0,0.0,,,39.2,0.0,0.0,-0.2,0.2,0.1,,,,,11.0,12.0,11.0,12.0,11.0,12.0,11.0,12.0,,,-27.0,254.5,,0.0,1.0,0.0,,,0.653,0.696,0.0,10.5,,,,,,0.0,2025-11-29 12:30:35-08:00
33.06,1.0,10.0,2025-11-29 20:31:03,37.08155,-121.59963,349.0,0.0,243.6,-12.6,,,,,20:31:03,10.9,-0.9,43.3,0.0,132.0,0.0,-0.01,1.0,,-71.0,12.0,0.0,30.05,-208.0,,,325.0,,,,,0.0,0.0,,,,,,,,,,,,,,,,,,,0.0,11.0,0.0,0.0,30.2,0.0,,0.0,0.0,,,39.2,0.0,0.0,-0.2,0.2,0.1,,,,,11.0,12.0,11.0,12.0,11.0,12.0,11.0,12.0,,,-25.0,254.5,,0.0,1.0,0.0,,,0.653,0.696,0.0,10.5,,,,,,0.0,2025-11-29 12:30:35-08:00
34.06,1.0,10.0,2025-11-29 20:31:04,37.08155,-121.59963,348.0,0.0,243.6,-12.6,,,,,20:31:04,10.9,-0.8,43.4,0.0,131.0,0.0,-0.01,1.0,,-68.0,12.0,0.0,30.05,-211.0,,,325.0,,,,,0.0,0.0,,,,,,,,,,,,,,,,,,,0.0,11.0,0.0,0.0,30.2,0.0,,0.0,0.0,,,39.2,0.0,0.0,-0.2,0.2,0.1,,,,,11.0,12.0,11.0,12.0,11.0,12.0,11.0,12.0,,,-24.0,254.5,,0.0,1.0,0.0,,,0.653,0.696,0.0,10.5,,,,,,0.0,2025-11-29 12:30:35-08:00
35.06,1.0,10.0,2025-11-29 20:31:05,37.08155,-121.59963,349.0,0.0,243.6,-12.6,,,,,20:31:05,10.9,-0.8,43.4,0.0,130.0,0.0,-0.01,1.0,,-65.0,12.0,0.0,30.05,-212.0,,,325.0,,,,,0.0,0.0,,,,,,,,,,,,,,,,,,,0.0,11.0,0.0,0.0,30.2,0.0,,0.0,0.0,,,39.2,0.0,0.0,-0.2,0.2,0.1,,,,,11.0,12.0,11.0,12.0,11.0,12.0,11.0,12.0,,,-24.0,254.5,,0.0,1.0,0.0,,,0.653,0.696,0.0,10.5,,,,,,0.0,2025-11-29 12:30:35-08:00
36.06,1.0,10.0,2025-11-29 20:31:06,37.08155,-121.59963,349.0,0.0,243.6,-12.6,,,,,20:31:06,10.9,-0.8,43.5,0.0,128.0,0.0,-0.01,1.0,,-77.0,12.0,0.0,30.05,-213.0,,,325.0,,,,,0.0,0.0,,,,,,,,,,,,,,,,,,,0.0,11.0,0.0,0.0,30.2,0.0,,0.0,0.0,,,39.2,0.0,0.0,-0.2,0.2,0.1,,,,,11.0,12.0,11.0,12.0,11.0,12.0,11.0,12.0,,,-25.0,254.5,,0.0,1.0,0.0,,,0.653,0.696,0.0,10.5,,,,,,0.0,2025-11-29 12:30:35-08:00
37.06,1.0,10.0,2025-11-29 20:31:07,37.08155,-121.59963,349.0,0.0,243.6,-12.6,,,,,20:31:07,10.9,-0.8,43.5,0.0,127.0,0.0,-0.01,1.0,,-73.0,12.0,0.0,30.05,-213.0,,,325.0,,,,,0.0,0.0,,,,,,,,,,,,,,,,,,,0.0,11.0,0.0,0.0,30.2,0.0,,0.0,0.0,,,39.2,0.0,0.0,-0.2,0.2,0.1,,,,,11.0,12.0,11.0,12.0,11.0,12.0,11.0,12.0,,,-25.0,254.5,,0.0,1.0,0.0,,,0.653,0.696,0.0,10.5,,,,,,0.0,2025-11-29 12:30:35-08:00
38.06,1.0,10.0,2025-11-29 20:31:08,37.08155,-121.59963,350.0,0.0,243.6,-12.6,,,,,20:31:08,10.9,-0.8,43.5,0.0,127.0,0.0,-0.01,1.0,,-57.0,12.0,0.0,30.05,-213.0,,,325.0,,,,,0.0,0.0,,,,,,,,,,,,,,,,,,,0.0,11.0,0.0,0.0,30.2,0.0,,0.0,0.0,,,39.2,0.0,0.0,-0.2,0.2,0.1,,,,,11.0,12.0,11.0,12.0,11.0,12.0,11.0,12.0,,,-24.0,254.5,,0.0,1.0,0.0,,,0.653,0.696,0.0,10.5,,,,,,0.0,2025-11-29 12:30:35-08:00
39.06,1.0,10.0,2025-11-29 20:31:09,37.08155,-121.59963,351.0,0.0,243.6,-12.6,,,,,20:31:09,11.0,-0.8,43.5,0.0,126.0,0.0,-0.01,1.0,,-41.0,12.0,0.0,30.05,-215.0,,,325.0,,,,,0.0,0.0,,,,,,,,,,,,,,,,,,,0.0,11.0,0.0,0.0,30.2,0.0,,0.0,0.0,,,39.2,0.0,0.0,-0.2,0.2,0.1,,,,,11.0,12.0,11.0,12.0,11.0,12.0,11.0,12.0,,,-24.0,254.5,,0.0,1.0,0.0,,,0.653,0.696,0.0,10.5,,,,,,0.0,2025-11-29 12:30:35-08:00
40.06,1.0,10.0,2025-11-29 20:31:10,37.08155,-121.59963,351.0,0.0,243.6,-12.6,,,,,20:31:10,10.9,-0.8,43.4,0.0,125.0,0.0,-0.01,1.0,,-51.0,12.0,0.0,30.05,-215.0,,,325.0,,,,,0.0,0.0,,,,,,,,,,,,,,,,,,,0.0,11.0,0.0,0.0,30.2,0.0,,0.0,0.0,,,39.2,0.0,0.0,-0.2,0.2,0.1,,,,,11.0,12.0,11.0,12.0,11.0,12.0,11.0,12.0,,,-24.0,254.5,,0.0,1.0,0.0,,,0.653,0.696,0.0,10.5,,,,,,0.0,2025-11-29 12:30:35-08:00
41.06,1.0,10.0,2025-11-29 20:31:11,37.08155,-121.59963,352.0,0.0,243.6,-12.6,,,,,20:31:11,11.0,-0.8,43.4,0.0,125.0,0.0,-0.01,1.0,,-15.0,12.0,0.0,30.05,-215.0,,,325.0,,,,,0.0,0.0,,,,,,,,,,,,,,,,,,,0.0,11.0,0.0,0.0,30.2,0.0,,0.0,0.0,,,39.2,0.0,0.0,-0.2,0.2,0.1,,,,,11.0,13.0,11.0,12.0,11.0,12.0,11.0,12.0,,,-25.0,254.5,,0.0,1.0,0.0,,,0.653,0.696,0.0,10.5,,,,,,0.0,2025-11-29 12:30:35-08:00
42.06,1.0,10.0,2025-11-29 20:31:12,37.08155,-121.59963,352.0,0.0,243.6,-12.6,,,,,20:31:12,11.0,-0.8,43.4,0.0,125.0,0.0,-0.01,1.0,,-34.0,12.0,0.0,30.05,-217.0,,,325.0,,,,,0.0,0.0,,,,,,,,,,,,,,,,,,,0.0,11.0,0.0,0.0,30.2,0.0,,0.0,0.0,,,39.2,0.0,0.0,-0.2,0.2,0.1,,,,,11.0,13.0,11.0,13.0,11.0,13.0,11.0,13.0,,,-26.0,251.2,,0.0,1.0,0.0,,,0.653,0.696,0.0,10.6,,,,,,0.0,2025-11-29 12:30:35-08:00
43.06,1.0,10.0,2025-11-29 20:31:13,37.08155,-121.59964,353.0,0.1,243.6,-12.6,,,,,20:31:13,11.0,-0.8,43.4,0.0,123.0,0.0,-0.01,1.0,,-54.0,12.0,0.0,30.05,-217.0,,,325.0,,,,,0.0,0.0,,,,,,,,,,,,,,,,,,,0.0,11.0,0.0,0.0,30.2,0.0,,0.0,0.0,,,39.2,0.0,0.0,-0.2,0.2,0.1,,,,,11.0,13.0,11.0,13.0,11.0,13.0,11.0,13.0,,,-26.0,196.1,,0.0,1.0,0.0,,,0.653,0.696,0.0,10.6,,,,,,0.0,2025-11-29 12:30:35-08:00
44.06,1.0,10.0,2025-11-29 20:31:14,37.08155,-121.59964,354.0,0.0,243.6,-12.6,,,,,20:31:14,11.0,-0.9,43.3,0.0,122.0,0.0,-0.01,1.0,,-61.0,12.0,0.0,30.05,-217.0,,,325.0,,,,,0.0,0.0,,,,,,,,,,,,,,,,,,,0.0,11.0,0.0,0.0,30.2,0.0,,0.0,0.0,,,39.2,0.0,0.0,-0.2,0.2,0.1,,,,,11.0,12.0,11.0,12.0,11.0,12.0,11.0,12.0,,,-25.0,152.7,,0.0,1.0,0.0,,,0.653,0.696,0.0,10.6,,,,,,0.0,2025-11-29 12:30:35-08:00
45.06,1.0,10.0,2025-11-29 20:31:15,37.08155,-121.59964,354.0,0.0,243.6,-12.6,,,,,20:31:15,11.0,-0.8,43.3,0.0,121.0,0.0,-0.01,1.0,,-51.0,12.0,0.0,30.05,-220.0,,,325.0,,,,,0.0,0.0,,,,,,,,,,,,,,,,,,,0.0,11.0,0.0,0.0,30.2,0.0,,0.0,0.0,,,39.2,0.0,0.0,-0.2,0.2,0.1,,,,,11.0,12.0,11.0,12.0,11.0,12.0,11.0,12.0,,,-25.0,118.9,,0.0,1.0,0.0,,,0.653,0.696,0.0,10.6,,,,,,0.0,2025-11-29 12:30:35-08:00
46.06,1.0,10.0,2025-11-29 20:31:16,37.08155,-121.59964,355.0,0.0,243.6,-12.6,,,,,20:31:16,11.0,-0.8,43.4,0.0,121.0,0.0,-0.01,1.0,,-22.0,12.0,0.0,30.05,-220.0,,,325.0,,,,,0.0,0.0,,,,,,,,,,,,,,,,,,,0.0,11.0,0.0,0.0,30.2,0.0,,0.0,0.0,,,39.2,0.0,0.0,-0.2,0.2,0.1,,,,,11.0,12.0,11.0,12.0,11.0,12.0,11.0,12.0,,,-26.0,92.6,,0.0,1.0,0.0,,,0.653,0.696,0.0,10.6,,,,,,0.0,2025-11-29 12:30:35-08:00
47.06,1.0,10.0,2025-11-29 20:31:17,37.08156,-121.59964,356.0,0.0,243.6,-12.6,,,,,20:31:17,11.0,-0.8,43.4,0.0,121.0,0.0,-0.01,1.0,,4.0,12.0,0.0,30.05,-220.0,,,325.0,,,,,0.0,0.0,,,,,,,,,,,,,,,,,,,0.0,11.0,0.0,0.0,30.2,0.0,,0.0,0.0,,,39.2,0.0,0.0,-0.2,0.2,0.1,,,,,11.0,12.0,11.0,12.0,11.0,12.0,11.0,12.0,,,-26.0,72.2,,0.0,1.0,0.0,,,0.653,0.696,0.0,10.6,,,,,,0.0,2025-11-29 12:30:35-08:00
48.06,1.0,10.0,2025-11-29 20:31:18,37.08156,-121.59964,357.0,0.0,243.6,-12.6,,,,,20:31:18,11.0,-0.8,43.4,0.0,121.0,0.0,-0.01,1.0,,17.0,12.0,0.0,30.05,-221.0,,,325.0,,,,,0.0,0.0,,,,,,,,,,,,,,,,,,,0.0,11.0,0.0,0.0,30.2,0.0,,0.0,0.0,,,39.2,0.0,0.0,-0.2,0.2,0.1,,,,,11.0,13.0,11.0,13.0,11.0,13.0,11.0,13.0,,,-26.0,56.3,,0.0,1.0,0.0,,,0.653,0.696,0.0,10.6,,,,,,0.0,2025-11-29 12:30:35-08:00
49.06,1.0,10.0,2025-11-29 20:31:19,37.08156,-121.59964,357.0,0.0,243.6,-12.6,,,,,20:31:19,11.0,-0.8,43.4,0.0,121.0,0.0,-0.01,1.0,,45.0,12.0,0.0,30.05,-221.0,,,325.0,,,,,0.0,0.0,,,,,,,,,,,,,,,,,,,0.0,11.0,0.0,0.0,30.2,0.0,,0.0,0.0,,,39.2,0.0,0.0,-0.2,0.2,0.1,,,,,11.0,12.0,11.0,12.0,11.0,12.0,11.0,12.0,,,-26.0,44.0,,0.0,1.0,0.0,,,0.653,0.696,0.0,10.6,,,,,,0.0,2025-11-29 12:30:35-08:00
50.06,1.0,10.0,2025-11-29 20:31:20,37.08156,-121.59964,358.0,0.0,243.6,-12.6,,,,,20:31:20,11.0,-0.8,43.3,0.0,121.0,0.0,-0.01,1.0,,16.0,12.0,0.0,30.05,-221.0,,,325.0,,,,,0.0,0.0,,,,,,,,,,,,,,,,,,,0.0,11.0,0.0,0.0,30.2,0.0,,0.0,0.0,,,39.2,0.0,0.0,-0.2,0.2,0.1,,,,,11.0,12.0,11.0,12.0,11.0,12.0,11.0,12.0,,,-25.0,34.4,,0.0,1.0,0.0,,,0.653,0.696,0.0,10.6,,,,,,0.0,2025-11-29 12:30:35-08:00
51.06,1.0,10.0,2025-11-29 20:31:21,37.08156,-121.59964,358.0,0.0,243.6,-12.6,,,,,20:31:21,11.0,-0.8,43.3,0.0,121.0,0.0,-0.01,1.0,,32.0,12.0,0.0,30.05,-221.0,,,325.0,,,,,0.0,0.0,,,,,,,,,,,,,,,,,,,0.0,11.0,0.0,0.0,30.2,0.0,,0.0,0.0,,,39.2,0.0,0.0,-0.2,0.2,0.1,,,,,11.0,12.0,11.0,12.0,11.0,12.0,11.0,12.0,,,-25.0,27.0,,0.0,1.0,0.0,,,0.653,0.696,0.0,10.6,,,,,,0.0,2025-11-29 12:30:35-08:00
52.06,1.0,10.0,2025-11-29 20:31:22,37.08156,-121.59964,358.0,0.0,243.6,-12.6,,,,,20:31:22,11.0,-0.8,43.3,0.0,121.0,0.0,-0.01,1.0,,12.0,12.0,0.0,30.05,-221.0,,,325.0,,,,,0.0,0.0,,,,,,,,,,,,,,,,,,,0.0,11.0,0.0,0.0,30.2,0.0,,0.0,0.0,,,39.2,0.0,0.0,-0.2,0.2,0.1,,,,,11.0,13.0,11.0,13.0,12.0,12.0,12.0,13.0,,,-25.0,21.2,,0.0,1.0,0.0,,,0.653,0.696,0.0,10.6,,,,,,0.0,2025-11-29 12:30:35-08:00
53.06,1.0,10.0,2025-11-29 20:31:23,37.08156,-121.59964,358.0,0.0,243.6,-12.6,,,,,20:31:23,11.0,-0.8,43.3,0.0,121.0,0.0,-0.01,1.0,,10.0,12.0,0.0,30.05,-220.0,,,325.0,,,,,0.0,0.0,,,,,,,,,,,,,,,,,,,0.0,11.0,0.0,0.0,30.2,0.0,,0.0,0.0,,,39.2,0.0,0.0,-0.2,0.2,0.1,,,,,11.0,12.0,11.0,12.0,11.0,12.0,11.0,12.0,,,-25.0,16.7,,0.0,1.0,0.0,,,0.653,0.696,0.0,10.6,,,,,,0.0,2025-11-29 12:30:35-08:00
54.06,1.0,10.0,2025-11-29 20:31:24,37.08156,-121.59964,357.0,0.0,243.6,-12.6,,,,,20:31:24,11.0,-0.8,43.4,0.0,121.0,0.0,-0.01,1.0,,6.0,12.0,0.0,30.05,-220.0,,,325.0,,,,,0.0,0.0,,,,,,,,,,,,,,,,,,,0.0,11.0,0.0,0.0,30.2,0.0,,0.0,0.0,,,39.2,0.0,0.0,-0.2,0.2,0.1,,,,,11.0,12.0,11.0,12.0,11.0,12.0,11.0,12.0,,,-25.0,13.2,,0.0,1.0,0.0,,,0.653,0.696,0.0,10.6,,,,,,0.0,2025-11-29 12:30:35-08:00
55.06,1.0,10.0,2025-11-29 20:31:25,37.08156,-121.59964,357.0,0.0,243.6,-12.6,,,,,20:31:25,11.0,-0.8,43.3,0.0,121.0,0.0,-0.01,1.0,,18.0,12.0,0.0,30.05,-220.0,,,325.0,,,,,0.0,0.0,,,,,,,,,,,,,,,,,,,0.0,11.0,0.0,0.0,30.2,0.0,,0.0,0.0,,,39.2,0.0,0.0,-0.2,0.2,0.1,,,,,11.0,13.0,11.0,13.0,11.0,12.0,12.0,13.0,,,-25.0,10.4,,0.0,1.0,0.0,,,0.653,0.696,0.0,10.6,,,,,,0.0,2025-11-29 12:30:35-08:00
56.06,1.0,10.0,2025-11-29 20:31:26,37.08156,-121.59964,357.0,0.0,243.6,-12.6,,,,,20:31:26,11.0,-0.8,43.4,0.0,121.0,0.0,-0.01,1.0,,-5.0,12.0,0.0,30.05,-220.0,,,325.0,,,,,0.0,0.0,,,,,,,,,,,,,,,,,,,0.0,11.0,0.0,0.0,30.2,0.0,,0.0,0.0,,,39.2,0.0,0.0,-0.2,0.2,0.1,,,,,11.0,12.0,11.0,12.0,11.0,12.0,11.0,12.0,,,-25.0,8.3,,0.0,1.0,0.0,,,0.653,0.696,0.0,10.6,,,,,,0.0,2025-11-29 12:30:35-08:00
57.06,1.0,10.0,2025-11-29 20:31:27,37.08156,-121.59964,356.0,0.0,243.6,-12.6,,,,,20:31:27,11.0,-0.8,43.4,0.0,121.0,0.0,-0.01,1.0,,0.0,12.0,0.0,30.05,-220.0,,,325.0,,,,,0.0,0.0,,,,,,,,,,,,,,,,,,,0.0,11.0,0.0,0.0,30.2,0.0,,0.0,0.0,,,39.2,0.0,0.0,-0.2,0.2,0.1,,,,,11.0,12.0,11.0,12.0,11.0,12.0,11.0,12.0,,,-25.0,6.7,,0.0,1.0,0.0,,,0.653,0.696,0.0,10.6,,,,,,0.0,2025-11-29 12:30:35-08:00
58.06,1.0,10.0,2025-11-29 20:31:28,37.08156,-121.59964,355.0,0.0,243.6,-12.6,,,,,20:31:28,11.0,-0.8,43.5,0.0,121.0,0.0,-0.01,1.0,,-4.0,12.0,0.0,30.05,-220.0,,,325.0,,,,,0.0,0.0,,,,,,,,,,,,,,,,,,,0.0,11.0,0.0,0.0,30.2,0.0,,0.0,0.0,,,39.2,0.0,0.0,-0.2,0.2,0.1,,,,,11.0,13.0,11.0,13.0,11.0,12.0,12.0,13.0,,,-25.0,5.4,,0.0,1.0,0.0,,,0.653,0.696,0.0,10.6,,,,,,0.0,2025-11-29 12:30:35-08:00
59.06,1.0,10.0,2025-11-29 20:31:29,37.08156,-121.59964,355.0,0.0,243.6,-12.6,,,,,20:31:29,11.0,-0.8,43.5,0.0,121.0,0.0,-0.01,1.0,,-8.0,12.0,0.0,30.05,-210.0,,,325.0,,,,,0.0,0.0,,,,,,,,,,,,,,,,,,,0.0,11.0,0.0,0.0,30.2,0.0,,0.0,0.0,,,39.2,0.0,0.0,-0.2,0.2,0.1,,,,,11.0,12.0,11.0,12.0,11.0,12.0,11.0,12.0,,,-25.0,4.4,,0.0,1.0,0.0,,,0.653,0.696,0.0,10.6,,,,,,0.0,2025-11-29 12:30:35-08:00
60.06,1.0,10.0,2025-11-29 20:31:30,37.08156,-121.59963,354.0,0.0,243.6,-12.6,,,,,20:31:30,11.0,-0.8,43.4,0.0,121.0,0.0,-0.01,1.0,,9.0,12.0,0.0,30.05,-212.0,,,325.0,,,,,0.0,0.0,,,,,,,,,,,,,,,,,,,0.0,11.0,0.0,0.0,30.2,0.0,,0.0,0.0,,,39.2,0.0,0.0,-0.2,0.2,0.1,,,,,11.0,12.0,11.0,12.0,11.0,12.0,11.0,12.0,,,-26.0,3.7,,0.0,1.0,0.0,,,0.653,0.696,0.0,10.6,,,,,,0.0,2025-11-29 12:30:35-08:00
61.06,1.0,10.0,2025-11-29 20:31:31,37.08156,-121.59963,353.0,0.0,243.6,-12.6,,,,,20:31:31,11.0,-0.7,43.4,0.0,121.0,0.0,-0.01,1.0,,-7.0,12.0,0.0,30.05,-212.0,,,325.0,,,,,0.0,0.0,,,,,,,,,,,,,,,,,,,0.0,11.0,0.0,0.0,30.2,0.0,,0.0,0.0,,,39.2,0.0,0.0,-0.2,0.2,0.1,,,,,11.0,12.0,11.0,12.0,11.0,12.0,11.0,12.0,,,-27.0,3.1,,0.0,1.0,0.0,,,0.653,0.696,0.0,10.6,,,,,,0.0,2025-11-29 12:30:35-08:00
62.06,1.0,10.0,2025-11-29 20:31:32,37.08156,-121.59963,353.0,0.0,243.6,-12.6,,,,,20:31:32,11.0,-0.8,43.4,0.0,121.0,0.0,-0.01,1.0,,-25.0,12.0,0.0,30.05,-212.0,,,325.0,,,,,0.0,0.0,,,,,,,,,,,,,,,,,,,0.0,11.0,0.0,0.0,30.2,0.0,,0.0,0.0,,,39.2,0.0,0.0,-0.2,0.2,0.1,,,,,11.0,12.0,11.0,12.0,11.0,12.0,11.0,12.0,,,-26.0,2.6,,0.0,1.0,0.0,,,0.653,0.696,0.0,10.6,,,,,,0.0,2025-11-29 12:30:35-08:00
63.06,1.0,10.0,2025-11-29 20:31:33,37.08156,-121.59963,353.0,0.0,243.6,-12.6,,,,,20:31:33,11.1,-0.8,43.4,0.0,121.0,0.0,-0.01,1.0,,-48.0,12.0,0.0,30.05,-210.0,,,325.0,,,,,0.0,0.0,,,,,,,,,,,,,,,,,,,0.0,11.0,0.0,0.0,30.2,0.0,,0.0,0.0,,,39.2,0.0,0.0,-0.3,0.2,0.1,,,,,11.0,12.0,11.0,12.0,11.0,12.0,11.0,12.0,,,-27.0,2.2,,0.0,1.0,0.0,,,0.653,0.696,0.0,10.6,,,,,,0.0,2025-11-29 12:30:35-08:00
64.06,1.0,10.0,2025-11-29 20:31:34,37.08156,-121.59963,353.0,0.0,243.6,-12.6,,,,,20:31:34,11.0,-0.8,43.4,0.0,121.0,0.0,-0.01,1.0,,-15.0,12.0,0.0,30.05,-210.0,,,325.0,,,,,0.0,0.0,,,,,,,,,,,,,,,,,,,0.0,11.0,0.0,0.0,30.2,0.0,,0.0,0.0,,,39.2,0.0,0.0,-0.3,0.2,0.1,,,,,11.0,12.0,11.0,12.0,11.0,12.0,11.0,12.0,,,-26.0,2.0,,0.0,1.0,0.0,,,0.653,0.697,0.0,10.6,,,,,,0.0,2025-11-29 12:30:35-08:00
65.06,1.0,10.0,2025-11-29 20:31:35,37.08156,-121.59963,352.0,0.0,243.6,-12.6,,,,,20:31:35,11.0,-0.8,43.4,0.0,121.0,0.0,-0.01,1.0,,-68.0,12.0,0.0,30.05,-210.0,,,325.0,,,,,0.0,0.0,,,,,,,,,,,,,,,,,,,0.0,11.0,0.0,0.0,30.2,0.0,,0.0,0.0,,,39.2,0.0,0.0,-0.3,0.2,0.1,,,,,11.0,12.0,11.0,12.0,11.0,12.0,11.0,12.0,,,-26.0,1.7,,0.0,1.0,0.0,,,0.653,0.696,0.0,10.6,,,,,,0.0,2025-11-29 12:30:35-08:00
66.06,1.0,10.0,2025-11-29 20:31:36,37.08157,-121.59963,355.0,0.0,243.6,-12.6,,,,,20:31:36,11.0,-0.7,43.4,0.0,119.0,0.0,-0.01,1.0,,-92.0,12.0,0.0,30.05,-212.0,,,325.0,,,,,0.0,0.0,,,,,,,,,,,,,,,,,,,0.0,11.0,0.0,0.0,30.2,0.0,,0.0,0.0,,,39.2,0.0,0.0,-0.3,0.2,0.1,,,,,11.0,13.0,11.0,13.0,11.0,12.0,12.0,13.0,,,-25.0,1.6,,0.0,1.0,0.0,,,0.653,0.696,0.0,10.6,,,,,,0.0,2025-11-29 12:30:35-08:00
67.06,1.0,10.0,2025-11-29 20:31:37,37.08157,-121.59963,355.0,0.0,243.6,-12.6,,,,,20:31:37,11.0,-0.7,43.4,0.0,116.0,0.0,-0.01,1.0,,-108.0,12.0,0.0,30.05,-212.0,,,325.0,,,,,0.0,0.0,,,,,,,,,,,,,,,,,,,0.0,11.0,0.0,0.0,30.2,0.0,,0.0,0.0,,,39.2,0.0,0.0,-0.3,0.2,0.1,,,,,11.0,12.0,11.0,12.0,11.0,12.0,11.0,12.0,,,-26.0,1.5,,0.0,1.0,0.0,,,0.653,0.696,0.0,10.6,,,,,,0.0,2025-11-29 12:30:35-08:00
68.06,1.0,10.0,2025-11-29 20:31:38,37.08157,-121.59963,354.0,0.0,243.6,-12.6,,,,,20:31:38,11.0,-0.8,43.4,0.0,116.0,0.0,-0.01,1.0,,-92.0,12.0,0.0,30.05,-212.0,,,325.0,,,,,0.0,0.0,,,,,,,,,,,,,,,,,,,0.0,11.0,0.0,0.0,30.2,0.0,,0.0,0.0,,,39.2,0.0,0.0,-0.3,0.2,0.1,,,,,11.0,12.0,11.0,12.0,11.0,12.0,11.0,12.0,,,-26.0,1.3,,0.0,1.0,0.0,,,0.653,0.696,0.0,10.6,,,,,,0.0,2025-11-29 12:30:35-08:00
69.06,1.0,10.0,2025-11-29 20:31:39,37.08157,-121.59963,354.0,0.0,243.6,-12.6,,,,,20:31:39,11.1,-0.8,43.3,0.0,114.0,0.0,-0.01,1.0,,-78.0,12.0,0.0,30.05,-218.0,,,325.0,,,,,0.0,0.0,,,,,,,,,,,,,,,,,,,0.0,11.0,0.0,0.0,30.2,0.0,,0.0,0.0,,,39.2,0.0,0.0,-0.3,0.2,0.1,,,,,11.0,12.0,11.0,12.0,11.0,12.0,11.0,12.0,,,-27.0,1.2,,0.0,2.0,0.0,,,0.653,0.696,0.0,10.6,,,,,,0.0,2025-11-29 12:30:35-08:00
70.06,1.0,10.0,2025-11-29 20:31:40,37.08157,-121.59962,353.0,0.0,243.6,-12.6,,,,,20:31:40,11.0,-0.8,43.3,0.0,113.0,0.0,-0.01,1.0,,-85.0,12.0,0.0,30.05,-218.0,,,325.0,,,,,0.0,0.0,,,,,,,,,,,,,,,,,,,0.0,11.0,0.0,0.0,30.2,0.0,,0.0,0.0,,,39.2,0.0,0.0,-0.3,0.2,0.1,,,,,11.0,12.0,11.0,12.0,11.0,12.0,11.0,12.0,,,-26.0,1.2,,0.0,2.0,0.0,,,0.653,0.696,0.0,10.6,,,,,,0.0,2025-11-29 12:30:35-08:00
71.06,1.0,10.0,2025-11-29 20:31:41,37.08156,-121.59962,353.0,0.0,243.6,-12.6,,,,,20:31:41,11.0,-0.8,43.4,0.0,112.0,0.0,-0.01,1.0,,-77.0,12.0,0.0,30.05,-218.0,,,325.0,,,,,0.0,0.0,,,,,,,,,,,,,,,,,,,0.0,11.0,0.0,0.0,30.2,0.0,,0.0,0.0,,,39.2,0.0,0.0,-0.3,0.2,0.1,,,,,12.0,13.0,12.0,13.0,12.0,13.0,12.0,13.0,,,-25.0,1.2,,0.0,2.0,0.0,,,0.653,0.696,0.0,10.6,,,,,,0.0,2025-11-29 12:30:35-08:00
72.06,1.0,10.0,2025-11-29 20:31:42,37.08156,-121.59962,352.0,0.0,243.6,-12.6,,,,,20:31:42,11.0,-0.8,43.4,0.0,112.0,0.0,-0.01,1.0,,-34.0,12.0,0.0,30.05,-221.0,,,325.0,,,,,0.0,0.0,,,,,,,,,,,,,,,,,,,0.0,11.0,0.0,0.0,30.2,0.0,,0.0,0.0,,,39.2,0.0,0.0,-0.3,0.2,0.1,,,,,11.0,13.0,11.0,13.0,11.0,12.0,12.0,13.0,,,-25.0,1.1,,0.0,2.0,0.0,,,0.653,0.696,0.0,10.6,,,,,,0.0,2025-11-29 12:30:35-08:00
73.06,1.0,10.0,2025-11-29 20:31:43,37.08156,-121.59962,351.0,0.0,243.6,-12.6,,,,,20:31:43,11.0,-0.8,43.4,0.0,112.0,0.0,-0.01,1.0,,-3.0,12.0,0.0,30.05,-221.0,,,325.0,,,,,0.0,0.0,,,,,,,,,,,,,,,,,,,0.0,11.0,0.0,0.0,30.2,0.0,,0.0,0.0,,,39.2,0.0,0.0,-0.3,0.2,0.1,,,,,11.0,13.0,11.0,13.0,11.0,12.0,12.0,13.0,,,-26.0,1.1,,0.0,2.0,0.0,,,0.653,0.696,0.0,10.6,,,,,,0.0,2025-11-29 12:30:35-08:00
74.06,1.0,10.0,2025-11-29 20:31:44,37.08156,-121.59962,350.0,0.0,243.6,-12.6,,,,,20:31:44,11.0,-0.8,43.4,0.0,112.0,0.0,-0.01,1.0,,17.0,12.0,0.0,30.05,-221.0,,,325.0,,,,,0.0,0.0,,,,,,,,,,,,,,,,,,,0.0,11.0,0.0,0.0,30.2,0.0,,0.0,0.0,,,39.2,0.0,0.0,-0.3,0.2,0.1,,,,,12.0,13.0,12.0,13.0,12.0,13.0,12.0,13.0,,,-27.0,1.1,,0.0,2.0,0.0,,,0.653,0.696,0.0,10.6,,,,,,0.0,2025-11-29 12:30:35-08:00
75.06,1.0,10.0,2025-11-29 20:31:45,37.08156,-121.59962,349.0,0.0,243.6,-12.6,,,,,20:31:45,11.0,-0.8,43.4,0.0,112.0,0.0,-0.01,1.0,,25.0,12.0,0.0,30.05,-213.0,,,325.0,,,,,0.0,0.0,,,,,,,,,,,,,,,,,,,0.0,11.0,0.0,0.0,30.2,0.0,,0.0,0.0,,,39.2,0.0,0.0,-0.3,0.2,0.1,,,,,11.0,13.0,11.0,13.0,11.0,12.0,12.0,13.0,,,-26.0,1.0,,0.0,2.0,0.0,,,0.653,0.696,0.0,10.6,,,,,,0.0,2025-11-29 12:30:35-08:00
76.06,1.0,10.0,2025-11-29 20:31:46,37.08156,-121.59962,348.0,0.0,243.6,-12.6,,,,,20:31:46,11.0,-0.8,43.4,0.0,112.0,0.0,-0.01,1.0,,35.0,12.0,0.0,30.05,-213.0,,,325.0,,,,,0.0,0.0,,,,,,,,,,,,,,,,,,,0.0,11.0,0.0,0.0,30.2,0.0,,0.0,0.0,,,39.2,0.0,0.0,-0.3,0.2,0.1,,,,,11.0,13.0,11.0,13.0,11.0,12.0,12.0,13.0,,,-26.0,1.0,,0.0,2.0,0.0,,,0.653,0.696,0.0,10.6,,,,,,0.0,2025-11-29 12:30:35-08:00
77.06,1.0,10.0,2025-11-29 20:31:47,37.08156,-121.59962,347.0,0.0,243.6,-12.6,,,,,20:31:47,11.0,-0.8,43.4,0.0,112.0,0.0,-0.01,1.0,,34.0,12.0,0.0,30.05,-213.0,,,325.0,,,,,0.0,0.0,,,,,,,,,,,,,,,,,,,0.0,11.0,0.0,0.0,30.2,0.0,,0.0,0.0,,,39.2,0.0,0.0,-0.3,0.2,0.1,,,,,11.0,13.0,11.0,13.0,11.0,12.0,12.0,13.0,,,-26.0,1.0,,0.0,2.0,0.0,,,0.653,0.696,0.0,10.6,,,,,,0.0,2025-11-29 12:30:35-08:00
78.06,1.0,10.0,2025-11-29 20:31:48,37.08156,-121.59962,346.0,0.0,243.6,-12.6,,,,,20:31:48,11.0,-0.8,43.3,0.0,112.0,0.0,-0.01,1.0,,-6.0,12.0,0.0,30.05,-211.0,,,325.0,,,,,0.0,0.0,,,,,,,,,,,,,,,,,,,0.0,11.0,0.0,0.0,30.2,0.0,,0.0,0.0,,,39.2,0.0,0.0,-0.3,0.2,0.1,,,,,11.0,13.0,11.0,13.0,11.0,12.0,12.0,13.0,,,-25.0,1.0,,0.0,2.0,0.0,,,0.653,0.696,0.0,10.6,,,,,,0.0,2025-11-29 12:30:35-08:00
79.06,1.0,10.0,2025-11-29 20:31:49,37.08156,-121.59962,346.0,0.0,243.6,-12.6,,,,,20:31:49,11.0,-0.8,43.4,0.0,112.0,0.0,-0.01,1.0,,-1.0,12.0,0.0,30.05,-211.0,,,325.0,,,,,0.0,0.0,,,,,,,,,,,,,,,,,,,0.0,11.0,0.0,0.0,30.2,0.0,,0.0,0.0,,,39.2,0.0,0.0,-0.3,0.2,0.1,,,,,11.0,13.0,11.0,13.0,11.0,12.0,12.0,13.0,,,-26.0,1.0,,0.0,2.0,0.0,,,0.653,0.696,0.0,10.6,,,,,,0.0,2025-11-29 12:30:35-08:00
80.06,1.0,10.0,2025-11-29 20:31:50,37.08156,-121.59962,345.0,0.0,243.6,-12.6,,,,,20:31:50,11.0,-0.7,43.4,0.0,112.0,0.0,-0.01,1.0,,7.0,12.0,0.0,30.05,-213.0,,,325.0,,,,,0.0,0.0,,,,,,,,,,,,,,,,,,,0.0,11.0,0.0,0.0,30.2,0.0,,0.0,0.0,,,39.2,0.0,0.0,-0.3,0.2,0.1,,,,,11.0,13.0,11.0,13.0,11.0,12.0,12.0,13.0,,,-26.0,1.0,,0.0,2.0,0.0,,,0.653,0.696,0.0,10.6,,,,,,0.0,2025-11-29 12:30:35-08:00
81.06,1.0,10.0,2025-11-29 20:31:51,37.08156,-121.59962,345.0,0.0,243.6,-12.6,,,,,20:31:51,11.0,-0.8,43.4,0.0,112.0,0.0,-0.01,1.0,,-1.0,12.0,0.0,30.05,-213.0,,,325.0,,,,,0.0,0.0,,,,,,,,,,,,,,,,,,,0.0,11.0,0.0,0.0,30.2,0.0,,0.0,0.0,,,39.2,0.0,0.0,-0.3,0.2,0.1,,,,,11.0,13.0,11.0,13.0,11.0,12.0,12.0,13.0,,,-26.0,1.0,,0.0,2.0,0.0,,,0.653,0.696,0.0,10.6,,,,,,0.0,2025-11-29 12:30:35-08:00
82.06,1.0,10.0,2025-11-29 20:31:52,37.08156,-121.59962,345.0,0.0,243.6,-12.6,,,,,20:31:52,11.0,-0.8,43.4,0.0,112.0,0.0,-0.01,1.0,,18.0,12.0,0.0,30.05,-213.0,,,325.0,,,,,0.0,0.0,,,,,,,,,,,,,,,,,,,0.0,11.0,0.0,0.0,30.2,0.0,,0.0,0.0,,,39.2,0.0,0.0,-0.3,0.2,0.1,,,,,11.0,13.0,12.0,13.0,12.0,13.0,12.0,13.0,,,-25.0,1.0,,0.0,2.0,0.0,,,0.653,0.696,0.0,10.6,,,,,,0.0,2025-11-29 12:30:35-08:00
83.06,1.0,10.0,2025-11-29 20:31:53,37.08156,-121.59962,344.0,0.0,243.6,-12.6,,,,,20:31:53,11.0,-0.8,43.4,0.0,112.0,0.0,-0.01,1.0,,35.0,12.0,0.0,30.05,-211.0,,,325.0,,,,,0.0,0.0,,,,,,,,,,,,,,,,,,,0.0,11.0,0.0,0.0,30.2,0.0,,0.0,0.0,,,39.2,0.0,0.0,-0.3,0.2,0.1,,,,,11.0,13.0,11.0,13.0,11.0,12.0,12.0,13.0,,,-24.0,1.0,,0.0,2.0,0.0,,,0.653,0.696,0.0,10.6,,,,,,0.0,2025-11-29 12:30:35-08:00
84.06,1.0,10.0,2025-11-29 20:31:54,37.08156,-121.59963,344.0,0.0,243.6,-12.6,,,,,20:31:54,11.0,-0.8,43.4,0.0,112.0,0.0,-0.01,1.0,,49.0,12.0,0.0,30.05,-211.0,,,325.0,,,,,0.0,0.0,,,,,,,,,,,,,,,,,,,0.0,11.0,0.0,0.0,30.2,0.0,,0.0,0.0,,,39.2,0.0,0.0,-0.3,0.2,0.1,,,,,11.0,13.0,11.0,13.0,11.0,12.0,12.0,13.0,,,-24.0,1.0,,0.0,2.0,0.0,,,0.653,0.696,0.0,10.6,,,,,,0.0,2025-11-29 12:30:35-08:00
85.06,1.0,10.0,2025-11-29 20:31:55,37.08156,-121.59963,344.0,0.0,243.6,-12.6,,,,,20:31:55,11.0,-0.8,43.4,0.0,112.0,0.0,-0.01,1.0,,40.0,12.0,0.0,30.05,-211.0,,,325.0,,,,,0.0,0.0,,,,,,,,,,,,,,,,,,,0.0,11.0,0.0,0.0,30.2,0.0,,0.0,0.0,,,39.2,0.0,0.0,-0.3,0.2,0.1,,,,,11.0,13.0,11.0,13.0,11.0,12.0,12.0,13.0,,,-25.0,1.0,,0.0,2.0,0.0,,,0.653,0.696,0.0,10.6,,,,,,0.0,2025-11-29 12:30:35-08:00
86.06,1.0,10.0,2025-11-29 20:31:56,37.08156,-121.59963,344.0,0.0,243.6,-12.6,,,,,20:31:56,11.0,-0.8,43.4,0.0,112.0,0.0,-0.01,1.0,,58.0,12.0,0.0,30.05,-211.0,,,325.0,,,,,0.0,0.0,,,,,,,,,,,,,,,,,,,0.0,11.0,0.0,0.0,30.2,0.0,,0.0,0.0,,,39.2,0.0,0.0,-0.3,0.2,0.1,,,,,11.0,13.0,11.0,13.0,11.0,12.0,12.0,13.0,,,-25.0,1.0,,0.0,2.0,0.0,,,0.653,0.696,0.0,10.6,,,,,,0.0,2025-11-29 12:30:35-08:00
87.06,1.0,10.0,2025-11-29 20:31:57,37.08156,-121.59963,343.0,0.0,243.6,-12.6,,,,,20:31:57,11.0,-0.9,43.3,0.0,112.0,0.0,-0.01,1.0,,65.0,12.0,0.0,30.05,-211.0,,,325.0,,,,,0.0,0.0,,,,,,,,,,,,,,,,,,,0.0,11.0,0.0,0.0,30.2,0.0,,0.0,0.0,,,39.2,0.0,0.0,-0.3,0.2,0.1,,,,,11.0,13.0,11.0,13.0,11.0,12.0,12.0,13.0,,,-25.0,1.0,,0.0,2.0,0.0,,,0.653,0.696,0.0,10.6,,,,,,0.0,2025-11-29 12:30:35-08:00
88.06,1.0,10.0,2025-11-29 20:31:58,37.08156,-121.59962,343.0,0.0,243.6,-12.6,,,,,20:31:58,11.0,-0.9,43.3,0.0,112.0,0.0,-0.01,1.0,,43.0,12.0,0.0,30.05,-210.0,,,325.0,,,,,0.0,0.0,,,,,,,,,,,,,,,,,,,0.0,11.0,0.0,0.0,30.2,0.0,,0.0,0.0,,,39.2,0.0,0.0,-0.3,0.2,0.1,,,,,11.0,13.0,11.0,13.0,11.0,12.0,12.0,13.0,,,-25.0,0.0,,0.0,2.0,0.0,,,0.653,0.696,0.0,10.6,,,,,,0.0,2025-11-29 12:30:35-08:00
89.06,1.0,10.0,2025-11-29 20:31:59,37.08156,-121.59962,342.0,0.0,243.6,-12.6,,,,,20:31:59,11.0,-0.8,43.3,0.0,112.0,0.0,-0.01,1.0,,52.0,12.0,0.0,30.05,-210.0,,,325.0,,,,,0.0,0.0,,,,,,,,,,,,,,,,,,,0.0,11.0,0.0,0.0,30.2,0.0,,0.0,0.0,,,39.2,0.0,0.0,-0.3,0.2,0.1,,,,,11.0,13.0,11.0,13.0,12.0,13.0,12.0,13.0,,,-25.0,0.0,,0.0,2.0,0.0,,,0.653,0.696,0.0,10.6,,,,,,0.0,2025-11-29 12:30:35-08:00
90.06,1.0,10.0,2025-11-29 20:32:00,37.08156,-121.59962,342.0,0.0,243.6,-12.6,,,,,20:32:00,11.0,-0.8,43.3,0.0,113.0,0.0,-0.01,1.0,,55.0,12.0,0.0,30.05,-208.0,,,325.0,,,,,0.0,0.0,,,,,,,,,,,,,,,,,,,0.0,11.0,0.0,0.0,30.2,0.0,,0.0,0.0,,,39.2,0.0,0.0,-0.3,0.2,0.1,,,,,11.0,13.0,11.0,13.0,11.0,12.0,12.0,13.0,,,-25.0,0.0,,0.0,2.0,0.0,,,0.653,0.696,0.0,10.6,,,,,,0.0,2025-11-29 12:30:35-08:00
91.06,1.0,10.0,2025-11-29 20:32:01,37.08156,-121.59962,341.0,0.0,243.6,-12.6,,,,,20:32:01,11.0,-0.8,43.3,0.0,115.0,0.0,-0.01,1.0,,84.0,12.0,0.0,30.05,-206.0,,,325.0,,,,,0.0,0.0,,,,,,,,,,,,,,,,,,,0.0,11.0,0.0,0.0,30.2,0.0,,0.0,0.0,,,39.2,0.0,0.0,-0.3,0.2,0.1,,,,,11.0,13.0,12.0,13.0,12.0,13.0,12.0,13.0,,,-24.0,0.0,,0.0,2.0,0.0,,,0.653,0.696,0.0,10.6,,,,,,0.0,2025-11-29 12:30:35-08:00
92.06,1.0,10.0,2025-11-29 20:32:02,37.08156,-121.59962,341.0,0.0,243.6,-12.6,,,,,20:32:02,11.0,-0.8,43.4,0.0,116.0,0.0,-0.01,1.0,,65.0,12.0,0.0,30.05,-205.0,,,325.0,,,,,0.0,0.0,,,,,,,,,,,,,,,,,,,0.0,11.0,0.0,0.0,30.2,0.0,,0.0,0.0,,,39.2,0.0,0.0,-0.3,0.2,0.1,,,,,11.0,13.0,12.0,13.0,12.0,12.0,12.0,13.0,,,-25.0,0.0,,0.0,2.0,0.0,,,0.653,0.696,0.0,10.6,,,,,,0.0,2025-11-29 12:30:35-08:00
93.06,1.0,10.0,2025-11-29 20:32:03,37.08156,-121.59962,340.0,0.0,243.6,-12.6,,,,,20:32:03,11.0,-0.8,43.3,0.0,117.0,0.0,-0.01,1.0,,66.0,12.0,0.0,30.05,-203.0,,,325.0,,,,,0.0,0.0,,,,,,,,,,,,,,,,,,,0.0,11.0,0.0,0.0,30.2,0.0,,0.0,0.0,,,39.2,0.0,0.0,-0.3,0.2,0.1,,,,,11.0,13.0,11.0,13.0,12.0,12.0,12.0,13.0,,,-24.0,0.0,,0.0,2.0,0.0,,,0.653,0.696,0.0,10.6,,,,,,0.0,2025-11-29 12:30:35-08:00
94.06,1.0,10.0,2025-11-29 20:32:04,37.08156,-121.59962,339.0,0.0,243.6,-12.6,,,,,20:32:04,11.0,-0.8,43.4,0.0,117.0,0.0,-0.01,1.0,,60.0,12.0,0.0,30.05,-203.0,,,325.0,,,,,0.0,0.0,,,,,,,,,,,,,,,,,,,0.0,11.0,0.0,0.0,30.2,0.0,,0.0,0.0,,,39.2,0.0,0.0,-0.3,0.2,0.1,,,,,11.0,13.0,11.0,13.0,12.0,12.0,12.0,13.0,,,-24.0,0.0,,0.0,2.0,0.0,,,0.653,0.697,0.0,10.6,,,,,,0.0,2025-11-29 12:30:35-08:00
95.06,1.0,10.0,2025-11-29 20:32:05,37.08156,-121.59962,338.0,0.0,243.6,-12.6,,,,,20:32:05,11.0,-0.8,43.4,0.0,118.0,0.0,-0.01,1.0,,44.0,12.0,0.0,30.05,-202.0,,,325.0,,,,,0.0,0.0,,,,,,,,,,,,,,,,,,,0.0,11.0,0.0,0.0,30.2,0.0,,0.0,0.0,,,39.2,0.0,0.0,-0.3,0.2,0.1,,,,,11.0,13.0,11.0,13.0,12.0,12.0,12.0,13.0,,,-24.0,0.0,,0.0,2.0,0.0,,,0.653,0.696,0.0,10.6,,,,,,0.0,2025-11-29 12:30:35-08:00
96.06,1.0,10.0,2025-11-29 20:32:06,37.08155,-121.59962,320.0,0.0,243.6,-12.6,,,,,20:32:06,11.0,-0.8,43.4,0.0,120.0,0.0,-0.01,1.0,,56.0,12.0,0.0,30.05,-200.0,,,325.0,,,,,0.0,0.0,,,,,,,,,,,,,,,,,,,0.0,11.0,0.0,0.0,30.2,0.0,,0.0,0.0,,,39.2,0.0,0.0,-0.3,0.2,0.1,,,,,11.0,13.0,12.0,13.0,12.0,12.0,12.0,13.0,,,-24.0,0.0,,0.0,2.0,0.0,,,0.653,0.696,0.0,10.6,,,,,,0.0,2025-11-29 12:30:35-08:00
97.06,1.0,10.0,2025-11-29 20:32:07,37.08155,-121.59962,319.0,0.0,243.6,-12.6,,,,,20:32:07,11.0,-0.8,43.4,0.0,120.0,0.0,-0.01,1.0,,31.0,12.0,0.0,30.05,-200.0,,,325.0,,,,,0.0,0.0,,,,,,,,,,,,,,,,,,,0.0,11.0,0.0,0.0,30.2,0.0,,0.0,0.0,,,39.2,0.0,0.0,-0.3,0.2,0.1,,,,,12.0,13.0,12.0,13.0,12.0,13.0,12.0,13.0,,,-24.0,0.0,,0.0,2.0,0.0,,,0.653,0.696,0.0,10.6,,,,,,0.0,2025-11-29 12:30:35-08:00
98.06,1.0,10.0,2025-11-29 20:32:08,37.08155,-121.59962,318.0,0.0,243.6,-12.6,,,,,20:32:08,11.0,-0.9,43.3,0.0,120.0,0.0,-0.01,1.0,,-1.0,12.0,0.0,30.05,-200.0,,,325.0,,,,,0.0,0.0,,,,,,,,,,,,,,,,,,,0.0,11.0,0.0,0.0,30.2,0.0,,0.0,0.0,,,39.2,0.0,0.0,-0.3,0.2,0.1,,,,,11.0,13.0,12.0,13.0,12.0,12.0,12.0,13.0,,,-25.0,0.0,,0.0,2.0,0.0,,,0.653,0.696,0.0,10.6,,,,,,0.0,2025-11-29 12:30:35-08:00
99.06,1.0,10.0,2025-11-29 20:32:09,37.08155,-121.59962,318.0,0.0,243.6,-12.6,,,,,20:32:09,11.0,-0.8,43.3,0.0,120.0,0.0,-0.01,1.0,,8.0,12.0,0.0,30.05,-190.0,,,325.0,,,,,0.0,0.0,,,,,,,,,,,,,,,,,,,0.0,11.0,0.0,0.0,30.2,0.0,,0.0,0.0,,,39.2,0.0,0.0,-0.3,0.2,0.1,,,,,11.0,13.0,12.0,13.0,12.0,12.0,12.0,13.0,,,-26.0,0.0,,0.0,2.0,0.0,,,0.653,0.696,0.0,10.6,,,,,,0.0,2025-11-29 12:30:35-08:00
100.06,1.0,10.0,2025-11-29 20:32:10,37.08155,-121.59962,317.0,0.0,243.6,-12.6,,,,,20:32:10,11.0,-0.8,43.3,0.0,120.0,0.0,-0.01,1.0,,5.0,12.0,0.0,30.05,-190.0,,,325.0,,,,,0.0,0.0,,,,,,,,,,,,,,,,,,,0.0,11.0,0.0,0.0,30.2,0.0,,0.0,0.0,,,39.2,0.0,0.0,-0.3,0.2,0.1,,,,,11.0,13.0,12.0,13.0,12.0,12.0,12.0,13.0,,,-24.0,0.0,,0.0,2.0,0.0,,,0.653,0.696,0.0,10.6,,,,,,0.0,2025-11-29 12:30:35-08:00
101.06,1.0,10.0,2025-11-29 20:32:11,37.08155,-121.59962,316.0,0.0,243.6,-12.6,,,,,20:32:11,11.0,-0.8,43.3,0.0,120.0,0.0,-0.01,1.0,,-8.0,12.0,0.0,30.05,-189.0,,,325.0,,,,,0.0,0.0,,,,,,,,,,,,,,,,,,,0.0,11.0,0.0,0.0,30.2,0.0,,0.0,0.0,,,39.2,0.0,0.0,-0.3,0.2,0.1,,,,,11.0,13.0,12.0,13.0,12.0,12.0,12.0,13.0,,,-24.0,0.0,,0.0,2.0,0.0,,,0.653,0.696,0.0,10.6,,,,,,0.0,2025-11-29 12:30:35-08:00
102.06,1.0,10.0,2025-11-29 20:32:12,37.08154,-121.59962,315.0,0.0,243.6,-12.6,,,,,20:32:12,11.0,-0.8,43.4,0.0,120.0,0.0,-0.01,1.0,,25.0,12.0,0.0,30.05,-189.0,,,325.0,,,,,0.0,0.0,,,,,,,,,,,,,,,,,,,0.0,11.0,0.0,0.0,30.2,0.0,,0.0,0.0,,,39.2,0.0,0.0,-0.3,0.2,0.1,,,,,11.0,13.0,11.0,13.0,12.0,13.0,12.0,13.0,,,-24.0,0.0,,0.0,2.0,0.0,,,0.653,0.696,0.0,10.6,,,,,,0.0,2025-11-29 12:30:35-08:00
103.06,1.0,10.0,2025-11-29 20:32:13,37.08154,-121.59962,314.0,0.0,243.6,-12.6,,,,,20:32:13,11.0,-0.7,43.4,0.0,120.0,0.0,-0.01,1.0,,5.0,12.0,0.0,30.05,-189.0,,,325.0,,,,,0.0,0.0,,,,,,,,,,,,,,,,,,,0.0,11.0,0.0,0.0,30.2,0.0,,0.0,0.0,,,39.2,0.0,0.0,-0.3,0.2,0.1,,,,,12.0,13.0,12.0,13.0,12.0,13.0,12.0,13.0,,,-24.0,0.0,,0.0,2.0,0.0,,,0.653,0.696,0.0,10.6,,,,,,0.0,2025-11-29 12:30:35-08:00
104.06,1.0,10.0,2025-11-29 20:32:14,37.08154,-121.59962,313.0,0.1,243.6,-12.6,,,,,20:32:14,11.0,-0.8,43.4,0.0,120.0,0.0,-0.01,1.0,,-25.0,12.0,0.0,30.05,-189.0,,,325.0,,,,,0.0,0.0,,,,,,,,,,,,,,,,,,,0.0,11.0,0.0,0.0,30.2,0.0,,0.0,0.0,,,39.2,0.0,0.0,-0.3,0.2,0.1,,,,,12.0,13.0,12.0,13.0,12.0,13.0,12.0,13.0,,,-23.0,0.0,,0.0,2.0,0.0,,,0.653,0.697,0.0,10.6,,,,,,0.0,2025-11-29 12:30:35-08:00
105.06,1.0,10.0,2025-11-29 20:32:15,37.08154,-121.59962,312.0,0.2,243.6,-12.6,,,,,20:32:15,11.0,-0.9,43.4,0.0,120.0,0.0,-0.02,1.0,,-58.0,12.0,0.0,30.05,-189.0,,,325.0,,,,,0.0,0.0,,,,,,,,,,,,,,,,,,,0.0,11.0,0.0,0.0,30.2,0.0,,0.0,0.0,,,39.2,0.0,0.0,-0.3,0.2,0.1,,,,,11.0,13.0,11.0,13.0,12.0,13.0,12.0,13.0,,,-23.0,0.0,,0.0,2.0,0.0,,,0.653,0.696,0.0,10.6,,,,,,0.0,2025-11-29 12:30:35-08:00
106.06,1.0,10.0,2025-11-29 20:32:16,37.08154,-121.59962,310.0,0.0,243.6,-12.6,,,,,20:32:16,11.0,-0.9,43.4,0.0,120.0,0.0,-0.01,1.0,,-59.0,12.0,0.0,30.05,-189.0,,,325.0,,,,,0.0,0.0,,,,,,,,,,,,,,,,,,,0.0,11.0,0.0,0.0,30.2,0.0,,0.0,0.0,,,39.2,0.0,0.0,-0.3,0.2,0.1,,,,,11.0,13.0,11.0,13.0,12.0,13.0,12.0,13.0,,,-23.0,0.0,,0.0,2.0,0.0,,,0.653,0.696,0.0,10.6,,,,,,0.0,2025-11-29 12:30:35-08:00
107.06,1.0,10.0,2025-11-29 20:32:17,37.08154,-121.59962,310.0,0.0,243.6,-12.6,,,,,20:32:17,11.0,-0.8,43.4,0.0,120.0,0.0,-0.02,1.0,,-28.0,12.0,0.0,30.05,-179.0,,,325.0,,,,,0.0,0.0,,,,,,,,,,,,,,,,,,,0.0,11.0,0.0,0.0,30.2,0.0,,0.0,0.0,,,39.2,0.0,0.0,-0.3,0.2,0.1,,,,,11.0,13.0,11.0,13.0,12.0,13.0,12.0,13.0,,,-23.0,0.0,,0.0,2.0,0.0,,,0.653,0.696,0.0,10.6,,,,,,0.0,2025-11-29 12:30:35-08:00
108.06,1.0,10.0,2025-11-29 20:32:18,37.08154,-121.59962,309.0,0.0,243.6,-12.6,,,,,20:32:18,11.1,-0.8,43.4,0.0,120.0,0.0,-0.01,1.0,,2.0,12.0,0.0,30.05,-179.0,,,325.0,,,,,0.0,0.0,,,,,,,,,,,,,,,,,,,0.0,11.0,0.0,0.0,30.2,0.0,,0.0,0.0,,,39.2,0.0,0.0,-0.3,0.2,0.1,,,,,11.0,13.0,11.0,13.0,12.0,13.0,12.0,13.0,,,-24.0,0.0,,0.0,2.0,0.0,,,0.653,0.696,0.0,10.6,,,,,,0.0,2025-11-29 12:30:35-08:00
109.06,1.0,10.0,2025-11-29 20:32:19,37.08154,-121.59962,308.0,0.0,243.6,-12.6,,,,,20:32:19,11.0,-0.8,43.4,0.0,120.0,0.0,-0.01,1.0,,1.0,12.0,0.0,30.05,-179.0,,,325.0,,,,,0.0,0.0,,,,,,,,,,,,,,,,,,,0.0,11.0,0.0,0.0,30.2,0.0,,0.0,0.0,,,39.2,0.0,0.0,-0.3,0.2,0.1,,,,,11.0,13.0,11.0,13.0,12.0,13.0,12.0,13.0,,,-26.0,0.0,,0.0,2.0,0.0,,,0.653,0.697,0.0,10.6,,,,,,0.0,2025-11-29 12:30:35-08:00
110.06,1.0,10.0,2025-11-29 20:32:20,37.08154,-121.59962,308.0,0.0,243.6,-12.6,,,,,20:32:20,11.0,-0.7,43.4,0.0,120.0,0.0,-0.01,1.0,,-5.0,12.0,0.0,30.05,-179.0,,,325.0,,,,,0.0,0.0,,,,,,,,,,,,,,,,,,,0.0,11.0,0.0,0.0,30.2,0.0,,0.0,0.0,,,39.2,0.0,0.0,-0.3,0.2,0.1,,,,,11.0,13.0,11.0,13.0,12.0,13.0,12.0,13.0,,,-25.0,0.0,,0.0,2.0,0.0,,,0.653,0.696,0.0,10.6,,,,,,0.0,2025-11-29 12:30:35-08:00
111.06,1.0,10.0,2025-11-29 20:32:21,37.08154,-121.59962,307.0,0.0,243.6,-12.6,,,,,20:32:21,11.0,-0.8,43.4,0.0,120.0,0.0,-0.01,1.0,,-22.0,12.0,0.0,30.05,-179.0,,,325.0,,,,,0.0,0.0,,,,,,,,,,,,,,,,,,,0.0,11.0,0.0,0.0,30.2,0.0,,0.0,0.0,,,39.2,0.0,0.0,-0.3,0.2,0.1,,,,,11.0,13.0,11.0,13.0,11.0,13.0,12.0,13.0,,,-25.0,0.0,,0.0,2.0,0.0,,,0.653,0.696,0.0,10.6,,,,,,0.0,2025-11-29 12:30:35-08:00
112.06,1.0,10.0,2025-11-29 20:32:22,37.08154,-121.59962,307.0,0.0,243.6,-12.6,,,,,20:32:22,11.0,-0.8,43.3,0.0,120.0,0.0,-0.01,1.0,,20.0,12.0,0.0,30.05,-179.0,,,325.0,,,,,0.0,0.0,,,,,,,,,,,,,,,,,,,0.0,11.0,0.0,0.0,30.2,0.0,,0.0,0.0,,,39.2,0.0,0.0,-0.3,0.2,0.1,,,,,12.0,13.0,12.0,14.0,12.0,13.0,12.0,13.0,,,-25.0,0.0,,0.0,2.0,0.0,,,0.653,0.697,0.0,10.6,,,,,,0.0,2025-11-29 12:30:35-08:00
113.06,1.0,10.0,2025-11-29 20:32:23,37.08154,-121.59962,308.0,0.0,243.6,-12.6,,,,,20:32:23,11.0,-0.8,43.4,0.0,120.0,0.0,-0.01,1.0,,12.0,12.0,0.0,30.05,-179.0,,,325.0,,,,,0.0,0.0,,,,,,,,,,,,,,,,,,,0.0,11.0,0.0,0.0,30.2,0.0,,0.0,0.0,,,39.2,0.0,0.0,-0.3,0.2,0.1,,,,,12.0,13.0,12.0,13.0,12.0,12.0,12.0,13.0,,,-25.0,0.0,,0.0,2.0,0.0,,,0.653,0.696,0.0,10.6,,,,,,0.0,2025-11-29 12:30:35-08:00
114.06,1.0,10.0,2025-11-29 20:32:24,37.08154,-121.59962,308.0,0.0,243.6,-12.6,,,,,20:32:24,11.0,-0.8,43.4,0.0,120.0,0.0,-0.01,1.0,,12.0,12.0,0.0,30.05,-179.0,,,325.0,,,,,0.0,0.0,,,,,,,,,,,,,,,,,,,0.0,11.0,0.0,0.0,30.2,0.0,,0.0,0.0,,,39.2,0.0,0.0,-0.3,0.2,0.1,,,,,12.0,13.0,12.0,13.0,12.0,13.0,12.0,13.0,,,-25.0,0.0,,0.0,2.0,0.0,,,0.653,0.696,0.0,10.6,,,,,,0.0,2025-11-29 12:30:35-08:00
115.06,1.0,10.0,2025-11-29 20:32:25,37.08154,-121.59962,308.0,0.0,243.6,-12.6,,,,,20:32:25,11.0,-0.8,43.4,0.0,120.0,0.0,-0.01,1.0,,-15.0,12.0,0.0,30.05,-179.0,,,325.0,,,,,0.0,0.0,,,,,,,,,,,,,,,,,,,0.0,11.0,0.0,0.0,30.2,0.0,,0.0,0.0,,,39.2,0.0,0.0,-0.3,0.2,0.1,,,,,12.0,13.0,12.0,13.0,12.0,13.0,12.0,13.0,,,-25.0,0.0,,0.0,2.0,0.0,,,0.653,0.696,0.0,10.6,,,,,,0.0,2025-11-29 12:30:35-08:00
116.06,1.0,10.0,2025-11-29 20:32:26,37.08154,-121.59962,309.0,0.0,243.6,-12.6,,,,,20:32:26,11.0,-0.8,43.4,0.0,120.0,0.0,-0.01,1.0,,-1.0,12.0,0.0,30.05,-179.0,,,325.0,,,,,0.0,0.0,,,,,,,,,,,,,,,,,,,0.0,11.0,0.0,0.0,30.2,0.0,,0.0,0.0,,,39.2,0.0,0.0,-0.3,0.2,0.1,,,,,12.0,13.0,12.0,13.0,12.0,13.0,12.0,13.0,,,-27.0,0.0,,0.0,2.0,0.0,,,0.653,0.696,0.0,10.6,,,,,,0.0,2025-11-29 12:30:35-08:00
117.06,1.0,10.0,2025-11-29 20:32:27,37.08155,-121.59962,309.0,0.0,243.6,-12.6,,,,,20:32:27,11.0,-0.7,43.4,0.0,120.0,0.0,-0.01,1.0,,-2.0,12.0,0.0,30.05,-179.0,,,325.0,,,,,0.0,0.0,,,,,,,,,,,,,,,,,,,0.0,11.0,0.0,0.0,30.2,0.0,,0.0,0.0,,,39.2,0.0,0.0,-0.3,0.2,0.1,,,,,12.0,13.0,12.0,13.0,12.0,13.0,12.0,13.0,,,-26.0,0.0,,0.0,2.0,0.0,,,0.653,0.696,0.0,10.6,,,,,,0.0,2025-11-29 12:30:35-08:00
118.06,1.0,10.0,2025-11-29 20:32:28,37.08155,-121.59962,310.0,0.0,243.6,-12.6,,,,,20:32:28,11.0,-0.7,43.4,0.0,120.0,0.0,-0.01,1.0,,-40.0,12.0,0.0,30.05,-179.0,,,325.0,,,,,0.0,0.0,,,,,,,,,,,,,,,,,,,0.0,11.0,0.0,0.0,30.2,0.0,,0.0,0.4,,,39.2,0.0,0.0,-0.3,0.2,0.1,,,,,12.0,13.0,12.0,13.0,12.0,13.0,12.0,13.0,,,-28.0,0.0,,0.4,2.0,0.0,,,0.653,0.697,0.0,10.6,,,,,,0.0,2025-11-29 12:30:35-08:00
119.06,1.0,10.0,2025-11-29 20:32:29,37.08155,-121.59962,310.0,0.0,243.6,-12.6,,,,,20:32:29,11.0,-0.7,43.4,0.0,120.0,0.0,-0.01,1.0,,22.0,12.0,0.0,30.05,-180.0,,,325.0,,,,,0.0,0.0,,,,,,,,,,,,,,,,,,,0.0,11.0,0.0,0.0,30.2,0.6,,0.6,6.0,,,39.2,0.0,0.0,-0.3,0.2,0.1,,,,,12.0,13.0,12.0,13.0,12.0,13.0,12.0,13.0,,,-27.0,0.0,,6.0,2.0,0.0,,,0.653,0.697,0.0,10.6,,,,,,0.0,2025-11-29 12:30:35-08:00
120.06,1.0,10.0,2025-11-29 20:32:30,37.08155,-121.59962,311.0,0.0,243.6,-12.6,,,,,20:32:30,11.0,-0.7,43.5,0.0,120.0,0.0,-0.01,1.0,,15.0,12.0,0.0,30.05,-180.0,,,325.0,,,,,0.0,0.0,,,,,,,,,,,,,,,,,,,0.0,11.0,0.0,0.0,30.2,1.9,,1.9,19.7,,,39.2,0.0,0.0,-0.3,0.2,0.1,,,,,12.0,13.0,12.0,13.0,12.0,13.0,12.0,13.0,,,-26.0,0.0,,19.7,2.0,0.0,,,0.653,0.697,0.0,10.6,,,,,,0.0,2025-11-29 12:30:35-08:00
121.06,1.0,10.0,2025-11-29 20:32:31,37.08155,-121.59962,311.0,0.0,243.6,-12.6,,,,,20:32:31,11.0,-0.7,43.5,0.0,120.0,0.0,-0.01,1.0,,22.0,12.0,0.0,30.05,-180.0,,,325.0,,,,,0.0,0.0,,,,,,,,,,,,,,,,,,,0.0,11.0,0.0,0.0,30.2,2.9,,2.9,29.2,,,39.2,0.0,0.0,-0.3,0.2,0.1,,,,,12.0,13.0,12.0,13.0,12.0,13.0,12.0,13.0,,,-25.0,0.0,,29.2,2.0,0.0,,,0.653,0.697,0.0,10.6,,,,,,0.0,2025-11-29 12:30:35-08:00
122.06,1.0,10.0,2025-11-29 20:32:32,37.08155,-121.59962,312.0,0.0,243.6,-12.6,,,,,20:32:32,11.0,-0.7,43.5,0.0,120.0,0.0,-0.01,1.0,,41.0,12.0,0.0,30.05,-179.0,,,325.0,,,,,0.0,0.0,,,,,,,,,,,,,,,,,,,0.0,11.0,0.0,0.0,30.2,3.7,,3.7,29.8,,,39.2,0.0,0.0,-0.3,0.2,0.1,,,,,12.0,13.0,12.0,13.0,12.0,13.0,12.0,13.0,,,-25.0,0.0,,29.8,2.0,0.0,,,0.653,0.697,0.0,10.6,,,,,,0.0,2025-11-29 12:30:35-08:00
123.06,1.0,10.0,2025-11-29 20:32:33,37.08155,-121.59962,312.0,0.0,243.6,-12.6,,,,,20:32:33,11.0,-0.8,43.5,0.0,120.0,0.0,-0.01,1.0,,35.0,12.0,0.0,30.05,-177.0,,,325.0,,,,,0.0,0.0,,,,,,,,,,,,,,,,,,,0.0,11.0,0.0,0.0,30.2,4.2,,4.2,23.4,,,39.2,0.0,0.0,-0.3,0.2,0.1,,,,,12.0,13.0,12.0,13.0,12.0,12.0,12.0,13.0,,,-25.0,0.0,,23.4,2.0,0.0,,,0.653,0.697,0.0,10.6,,,,,,0.0,2025-11-29 12:30:35-08:00
124.06,1.0,10.0,2025-11-29 20:32:34,37.08155,-121.59962,313.0,0.0,243.6,-12.6,,,,,20:32:34,11.0,-0.8,43.5,0.0,120.0,0.0,-0.01,1.0,,8.0,12.0,0.0,30.05,-177.0,,,325.0,,,,,0.0,0.0,,,,,,,,,,,,,,,,,,,0.0,11.0,0.0,0.0,30.2,4.7,,4.7,15.3,,,39.2,0.0,0.0,-0.3,0.2,0.1,,,,,12.0,13.0,12.0,13.0,12.0,12.0,12.0,13.0,,,-25.0,0.0,,15.3,2.0,0.0,,,0.653,0.697,0.0,10.6,,,,,,0.0,2025-11-29 12:30:35-08:00
125.06,1.0,10.0,2025-11-29 20:32:35,37.08155,-121.59962,313.0,0.0,243.6,-12.6,,,,,20:32:35,11.1,-0.8,43.4,0.0,120.0,0.0,-0.01,1.0,,6.0,12.0,0.0,30.05,-177.0,,,325.0,,,,,0.0,0.0,,,,,,,,,,,,,,,,,,,0.0,11.0,0.0,0.0,30.2,3.9,,3.9,15.4,,,39.2,0.0,0.0,-0.3,0.2,0.1,,,,,12.0,13.0,12.0,13.0,12.0,12.0,12.0,13.0,,,-25.0,0.0,,15.4,2.0,0.0,,,0.653,0.697,0.0,10.6,,,,,,0.0,2025-11-29 12:30:35-08:00
126.06,1.0,10.0,2025-11-29 20:32:36,37.08154,-121.59962,307.0,0.0,243.6,-12.6,,,,,20:32:36,11.1,-0.7,43.4,0.0,120.0,0.0,-0.01,1.0,,-13.0,12.0,0.0,30.05,-169.0,,,325.0,,,,,0.0,0.0,,,,,,,,,,,,,,,,,,,0.0,11.0,0.0,0.0,30.2,3.4,,3.4,15.3,,,39.2,0.0,0.0,-0.3,0.2,0.1,,,,,12.0,13.0,12.0,13.0,12.0,12.0,12.0,13.0,,,-25.0,0.0,,15.3,2.0,0.0,,,0.653,0.697,0.0,10.6,,,,,,0.0,2025-11-29 12:30:35-08:00
127.06,1.0,10.0,2025-11-29 20:32:37,37.08154,-121.59962,307.0,0.0,243.6,-12.6,,,,,20:32:37,11.1,-0.8,43.3,0.0,120.0,0.0,-0.01,1.0,,35.0,12.0,0.0,30.05,-169.0,,,325.0,,,,,0.0,0.0,,,,,,,,,,,,,,,,,,,0.0,11.0,0.0,0.0,30.2,3.4,,3.4,15.2,,,39.2,0.0,0.0,-0.3,0.2,0.1,,,,,12.0,13.0,12.0,13.0,12.0,12.0,12.0,13.0,,,-26.0,0.0,,15.2,2.0,0.0,,,0.653,0.697,0.0,10.6,,,,,,0.0,2025-11-29 12:30:35-08:00
128.06,1.0,10.0,2025-11-29 20:32:38,37.08154,-121.59962,307.0,0.0,243.6,-12.6,,,,,20:32:38,11.1,-0.7,43.3,0.0,120.0,0.0,-0.01,1.0,,13.0,12.0,0.0,30.05,-169.0,,,325.0,,,,,0.0,0.0,,,,,,,,,,,,,,,,,,,0.0,11.0,0.0,0.0,30.2,0.0,,0.0,15.1,,,39.2,0.0,0.0,-0.3,0.2,0.1,,,,,12.0,13.0,12.0,13.0,12.0,12.0,12.0,13.0,,,-26.0,0.0,,15.1,2.0,0.0,,,0.653,0.697,0.0,10.6,,,,,,0.0,2025-11-29 12:30:35-08:00
129.06,1.0,10.0,2025-11-29 20:32:39,37.08154,-121.59962,308.0,0.0,243.6,-12.6,,,,,20:32:39,11.1,-0.7,43.4,0.0,120.0,0.0,-0.01,1.0,,-8.0,12.0,0.0,30.05,-179.0,,,325.0,,,,,0.0,0.0,,,,,,,,,,,,,,,,,,,0.0,11.0,0.0,0.0,30.2,0.0,,0.0,15.1,,,39.2,0.0,0.0,-0.3,0.2,0.1,,,,,12.0,13.0,12.0,13.0,12.0,12.0,12.0,13.0,,,-25.0,0.0,,15.1,2.0,0.0,,,0.653,0.697,0.0,10.6,,,,,,0.0,2025-11-29 12:30:35-08:00
130.06,1.0,10.0,2025-11-29 20:32:40,37.08154,-121.59962,308.0,0.0,243.6,-12.6,,,,,20:32:40,11.1,-0.7,43.3,0.0,120.0,0.0,-0.01,1.0,,-9.0,12.0,0.0,30.05,-177.0,,,325.0,,,,,0.0,0.0,,,,,,,,,,,,,,,,,,,0.0,11.0,0.0,0.0,30.2,0.0,,0.0,15.0,,,39.2,0.0,0.0,-0.3,0.2,0.1,,,,,12.0,13.0,12.0,13.0,12.0,12.0,12.0,13.0,,,-26.0,0.0,,15.0,2.0,0.0,,,0.653,0.697,0.0,10.6,,,,,,0.0,2025-11-29 12:30:35-08:00
131.06,1.0,10.0,2025-11-29 20:32:41,37.08154,-121.59962,308.0,0.0,243.6,-12.6,,,,,20:32:41,11.1,-0.7,43.4,0.0,120.0,0.0,-0.01,1.0,,-7.0,12.0,0.0,30.05,-177.0,,,325.0,,,,,0.0,0.0,,,,,,,,,,,,,,,,,,,0.0,11.0,0.0,0.0,30.2,0.0,,0.0,14.9,,,39.2,0.0,0.0,-0.3,0.2,0.1,,,,,12.0,13.0,12.0,13.0,12.0,12.0,12.0,13.0,,,-26.0,0.0,,14.9,2.0,0.0,,,0.653,0.697,0.0,10.6,,,,,,0.0,2025-11-29 12:30:35-08:00
132.06,1.0,10.0,2025-11-29 20:32:42,37.08154,-121.59962,308.0,0.0,243.6,-12.6,,,,,20:32:42,11.1,-0.7,43.4,0.0,120.0,0.0,-0.01,1.0,,24.0,12.0,0.0,30.05,-177.0,,,325.0,,,,,0.0,0.0,,,,,,,,,,,,,,,,,,,0.0,11.0,0.0,0.0,30.2,0.0,,0.0,14.8,,,39.2,0.0,0.0,-0.3,0.2,0.1,,,,,12.0,13.0,12.0,13.0,12.0,13.0,12.0,13.0,,,-26.0,0.0,,14.8,2.0,0.0,,,0.653,0.697,0.0,10.6,,,,,,0.0,2025-11-29 12:30:35-08:00
133.06,1.0,10.0,2025-11-29 20:32:43,37.08154,-121.59962,308.0,0.0,243.6,-12.6,,,,,20:32:43,11.1,-0.7,43.4,0.0,120.0,0.0,-0.01,1.0,,43.0,12.0,0.0,30.05,-168.0,,,325.0,,,,,0.0,0.0,,,,,,,,,,,,,,,,,,,0.0,11.0,0.0,0.0,30.2,0.0,,0.0,14.7,,,39.2,0.0,0.0,-0.3,0.2,0.1,,,,,12.0,13.0,12.0,13.0,12.0,13.0,12.0,13.0,,,-26.0,0.0,,14.7,2.0,0.0,,,0.653,0.697,0.0,10.6,,,,,,0.0,2025-11-29 12:30:35-08:00
134.06,1.0,10.0,2025-11-29 20:32:44,37.08154,-121.59962,307.0,0.0,243.6,-12.6,,,,,20:32:44,11.0,-0.7,43.4,0.0,120.0,0.0,-0.01,1.0,,45.0,12.0,0.0,30.05,-168.0,,,325.0,,,,,0.0,0.0,,,,,,,,,,,,,,,,,,,0.0,11.0,0.0,0.0,30.2,0.0,,0.0,14.6,,,39.2,0.0,0.0,-0.3,0.2,0.1,,,,,12.0,13.0,12.0,13.0,12.0,13.0,12.0,13.0,,,-26.0,0.0,,14.6,2.0,0.0,,,0.653,0.697,0.0,10.6,,,,,,0.0,2025-11-29 12:30:35-08:00
135.06,1.0,10.0,2025-11-29 20:32:45,37.08154,-121.59962,307.0,0.0,243.6,-12.6,,,,,20:32:45,11.1,-0.7,43.4,0.0,121.0,0.0,-0.01,1.0,,58.0,12.0,0.0,30.05,-168.0,,,325.0,,,,,0.0,0.0,,,,,,,,,,,,,,,,,,,0.0,11.0,0.0,0.0,30.2,0.0,,0.0,14.5,,,39.2,0.0,0.0,-0.3,0.2,0.1,,,,,12.0,13.0,12.0,13.0,12.0,13.0,12.0,13.0,,,-26.0,0.0,,14.5,2.0,0.0,,,0.653,0.697,0.0,10.6,,,,,,0.0,2025-11-29 12:30:35-08:00
136.06,1.0,10.0,2025-11-29 20:32:46,37.08154,-121.59962,307.0,0.0,243.6,-12.6,,,,,20:32:46,11.1,-0.7,43.4,0.0,121.0,0.0,-0.01,1.0,,37.0,12.0,0.0,30.05,-167.0,,,325.0,,,,,0.0,0.0,,,,,,,,,,,,,,,,,,,0.0,11.0,0.0,0.0,30.2,0.0,,0.0,14.4,,,39.2,0.0,0.0,-0.3,0.2,0.1,,,,,11.0,13.0,12.0,13.0,12.0,13.0,12.0,13.0,,,-26.0,0.0,,14.4,2.0,0.0,,,0.653,0.697,0.0,10.6,,,,,,0.0,2025-11-29 12:30:35-08:00
137.06,1.0,10.0,2025-11-29 20:32:47,37.08154,-121.59962,307.0,0.0,243.6,-12.6,,,,,20:32:47,11.1,-0.7,43.4,0.0,121.0,0.0,-0.01,1.0,,34.0,12.0,0.0,30.05,-167.0,,,325.0,,,,,0.0,0.0,,,,,,,,,,,,,,,,,,,0.0,11.0,0.0,0.0,30.2,0.0,,0.0,14.3,,,39.2,0.0,0.0,-0.3,0.2,0.1,,,,,12.0,13.0,12.0,13.0,12.0,13.0,12.0,13.0,,,-26.0,0.0,,14.3,2.0,0.0,,,0.653,0.697,0.0,10.6,,,,,,0.0,2025-11-29 12:30:35-08:00
138.06,1.0,10.0,2025-11-29 20:32:48,37.08154,-121.59962,307.0,0.0,243.6,-12.6,,,,,20:32:48,11.1,-0.7,43.4,0.0,122.0,0.0,-0.01,1.0,,61.0,12.0,0.0,30.05,-167.0,,,325.0,,,,,0.0,0.0,,,,,,,,,,,,,,,,,,,0.0,11.0,0.0,0.0,30.2,0.0,,0.0,14.3,,,39.2,0.0,0.0,-0.4,0.2,0.1,,,,,11.0,13.0,12.0,13.0,12.0,13.0,12.0,13.0,,,-26.0,0.0,,14.3,2.0,0.0,,,0.653,0.697,0.0,10.6,,,,,,0.0,2025-11-29 12:30:35-08:00
139.06,1.0,10.0,2025-11-29 20:32:49,37.08154,-121.59962,307.0,0.0,243.6,-12.6,,,,,20:32:49,11.0,-0.7,43.5,0.0,122.0,0.0,-0.01,1.0,,26.0,12.0,0.0,30.05,-165.0,,,325.0,,,,,0.0,0.0,,,,,,,,,,,,,,,,,,,0.0,11.0,0.0,0.0,30.2,0.0,,0.0,14.2,,,39.2,0.0,0.0,-0.3,0.2,0.1,,,,,11.0,13.0,12.0,13.0,12.0,13.0,12.0,13.0,,,-26.0,0.0,,14.2,2.0,0.0,,,0.653,0.697,0.0,10.6,,,,,,0.0,2025-11-29 12:30:35-08:00
140.06,1.0,10.0,2025-11-29 20:32:50,37.08154,-121.59962,307.0,0.0,243.6,-12.6,,,,,20:32:50,11.0,-0.7,43.5,0.0,123.0,0.0,-0.01,1.0,,21.0,12.0,0.0,30.05,-165.0,,,325.0,,,,,0.0,0.0,,,,,,,,,,,,,,,,,,,0.0,11.0,0.0,0.0,30.2,0.0,,0.0,14.1,,,39.2,0.0,0.0,-0.3,0.2,0.1,,,,,11.0,13.0,12.0,13.0,12.0,13.0,12.0,13.0,,,-26.0,0.0,,14.1,2.0,0.0,,,0.653,0.697,0.0,10.6,,,,,,0.0,2025-11-29 12:30:35-08:00
141.06,1.0,10.0,2025-11-29 20:32:51,37.08154,-121.59962,307.0,0.0,243.6,-12.6,,,,,20:32:51,11.0,-0.7,43.5,0.0,123.0,0.0,-0.01,1.0,,15.0,12.0,0.0,30.05,-165.0,,,325.0,,,,,0.0,0.0,,,,,,,,,,,,,,,,,,,0.0,11.0,0.0,0.0,30.2,0.0,,0.0,14.0,,,39.2,0.0,0.0,-0.4,0.2,0.1,,,,,11.0,13.0,12.0,13.0,12.0,13.0,12.0,13.0,,,-26.0,0.0,,14.0,2.0,0.0,,,0.653,0.697,0.0,10.6,,,,,,0.0,2025-11-29 12:30:35-08:00
142.06,1.0,10.0,2025-11-29 20:32:52,37.08154,-121.59962,308.0,0.0,243.6,-12.6,,,,,20:32:52,11.0,-0.7,43.5,0.0,124.0,0.0,-0.01,1.0,,33.0,12.0,0.0,30.05,-164.0,,,325.0,,,,,0.0,0.0,,,,,,,,,,,,,,,,,,,0.0,11.0,0.0,0.0,30.2,0.0,,0.0,13.9,,,39.2,0.0,0.0,-0.4,0.2,0.1,,,,,12.0,13.0,12.0,13.0,12.0,13.0,12.0,13.0,,,-27.0,0.0,,13.9,2.0,0.0,,,0.653,0.697,0.0,10.6,,,,,,0.0,2025-11-29 12:30:35-08:00
143.06,1.0,10.0,2025-11-29 20:32:53,37.08154,-121.59962,308.0,0.0,243.6,-12.6,,,,,20:32:53,11.0,-0.8,43.5,0.0,124.0,0.0,-0.01,1.0,,12.0,12.0,0.0,30.05,-161.0,,,325.0,,,,,0.0,0.0,,,,,,,,,,,,,,,,,,,0.0,11.0,0.0,0.0,30.2,0.0,,0.0,13.9,,,39.2,0.0,0.0,-0.4,0.2,0.1,,,,,12.0,13.0,12.0,13.0,12.0,13.0,12.0,13.0,,,-24.0,0.0,,13.9,2.0,0.0,,,0.653,0.697,0.0,10.6,,,,,,0.0,2025-11-29 12:30:35-08:00
144.06,1.0,10.0,2025-11-29 20:32:54,37.08154,-121.59962,308.0,0.0,243.6,-12.6,,,,,20:32:54,11.0,-0.8,43.5,0.0,124.0,0.0,-0.01,1.0,,5.0,12.0,0.0,30.05,-161.0,,,325.0,,,,,0.0,0.0,,,,,,,,,,,,,,,,,,,0.0,11.0,0.0,0.0,30.2,0.0,,0.0,13.8,,,39.2,0.0,0.0,-0.4,0.2,0.1,,,,,12.0,13.0,12.0,13.0,12.0,13.0,12.0,13.0,,,-24.0,0.0,,13.8,2.0,0.0,,,0.653,0.697,0.0,10.6,,,,,,0.0,2025-11-29 12:30:35-08:00
145.06,1.0,10.0,2025-11-29 20:32:55,37.08154,-121.59962,308.0,0.0,243.6,-12.6,,,,,20:32:55,11.0,-0.7,43.4,0.0,124.0,0.0,-0.01,1.0,,9.0,12.0,0.0,30.05,-161.0,,,325.0,,,,,0.0,0.0,,,,,,,,,,,,,,,,,,,0.0,11.0,0.0,0.0,30.2,0.0,,0.0,13.7,,,39.2,0.0,0.0,-0.4,0.2,0.1,,,,,12.0,13.0,12.0,13.0,12.0,13.0,12.0,13.0,,,-24.0,0.0,,13.7,2.0,0.0,,,0.653,0.697,0.0,10.6,,,,,,0.0,2025-11-29 12:30:35-08:00
146.06,1.0,10.0,2025-11-29 20:32:56,37.08154,-121.59962,309.0,0.0,243.6,-12.6,,,,,20:32:56,11.0,-0.7,43.4,0.0,124.0,0.0,-0.01,1.0,,16.0,12.0,0.0,30.05,-163.0,,,325.0,,,,,0.0,0.0,,,,,,,,,,,,,,,,,,,0.0,11.0,0.0,0.0,30.2,0.0,,0.0,13.7,,,39.2,0.0,0.0,-0.4,0.2,0.1,,,,,12.0,13.0,12.0,13.0,12.0,13.0,12.0,13.0,,,-24.0,0.0,,13.7,2.0,0.0,,,0.653,0.697,0.0,10.6,,,,,,0.0,2025-11-29 12:30:35-08:00
147.06,1.0,10.0,2025-11-29 20:32:57,37.08154,-121.59962,309.0,0.0,243.6,-12.6,,,,,20:32:57,11.1,-0.7,43.5,0.0,124.0,0.0,-0.01,1.0,,20.0,12.0,0.0,30.05,-161.0,,,325.0,,,,,0.0,0.0,,,,,,,,,,,,,,,,,,,0.0,11.0,0.0,0.0,30.2,0.0,,0.0,13.6,,,39.2,0.0,0.0,-0.4,0.2,0.1,,,,,12.0,13.0,12.0,13.0,12.0,13.0,12.0,13.0,,,-24.0,0.0,,13.6,2.0,0.0,,,0.653,0.697,0.0,10.6,,,,,,0.0,2025-11-29 12:30:35-08:00
148.06,1.0,10.0,2025-11-29 20:32:58,37.08154,-121.59962,309.0,0.0,243.6,-12.6,,,,,20:32:58,11.1,-0.8,43.4,0.0,125.0,0.0,-0.01,1.0,,42.0,12.0,0.0,30.05,-159.0,,,325.0,,,,,0.0,0.0,,,,,,,,,,,,,,,,,,,0.0,11.0,0.0,0.0,30.2,0.0,,0.0,13.5,,,39.2,0.0,0.0,-0.4,0.2,0.1,,,,,12.0,13.0,12.0,13.0,12.0,13.0,12.0,13.0,,,-23.0,0.0,,13.5,2.0,0.0,,,0.653,0.697,0.0,10.6,,,,,,0.0,2025-11-29 12:30:35-08:00
149.06,1.0,10.0,2025-11-29 20:32:59,37.08154,-121.59962,309.0,0.0,243.6,-12.6,,,,,20:32:59,11.0,-0.8,43.4,0.0,126.0,0.0,-0.01,1.0,,32.0,12.0,0.0,30.05,-158.0,,,325.0,,,,,0.0,0.0,,,,,,,,,,,,,,,,,,,0.0,11.0,0.0,0.0,30.2,0.0,,0.0,13.5,,,39.2,0.0,0.0,-0.4,0.2,0.1,,,,,12.0,13.0,12.0,13.0,12.0,13.0,12.0,13.0,,,-23.0,0.0,,13.5,2.0,0.0,,,0.653,0.697,0.0,10.6,,,,,,0.0,2025-11-29 12:30:35-08:00
150.06,1.0,10.0,2025-11-29 20:33:00,37.08154,-121.59962,310.0,0.0,243.6,-12.6,,,,,20:33:00,11.0,-0.8,43.4,0.0,126.0,0.0,-0.01,1.0,,23.0,12.0,0.0,30.05,-158.0,,,325.0,,,,,0.0,0.0,,,,,,,,,,,,,,,,,,,0.0,11.0,0.0,0.0,30.2,0.0,,0.0,13.4,,,39.2,0.0,0.0,-0.4,0.2,0.1,,,,,12.0,13.0,12.0,13.0,12.0,13.0,12.0,13.0,,,-23.0,0.0,,13.4,2.0,0.0,,,0.653,0.697,0.0,10.6,,,,,,0.0,2025-11-29 12:30:35-08:00
151.06,1.0,10.0,2025-11-29 20:33:01,37.08154,-121.59962,310.0,0.0,243.6,-12.6,,,,,20:33:01,11.0,-0.8,43.4,0.0,127.0,0.0,-0.01,1.0,,31.0,12.0,0.0,30.05,-157.0,,,325.0,,,,,0.0,0.0,,,,,,,,,,,,,,,,,,,0.0,11.0,0.0,0.0,30.2,0.0,,0.0,13.3,,,39.2,0.0,0.0,-0.4,0.2,0.1,,,,,12.0,13.0,12.0,14.0,12.0,13.0,12.0,14.0,,,-24.0,0.0,,13.3,2.0,0.0,,,0.653,0.697,0.0,10.6,,,,,,0.0,2025-11-29 12:30:35-08:00
152.06,1.0,10.0,2025-11-29 20:33:02,37.08154,-121.59962,310.0,0.0,243.6,-12.6,,,,,20:33:02,11.0,-0.7,43.4,0.0,127.0,0.0,-0.01,1.0,,22.0,12.0,0.0,30.05,-157.0,,,325.0,,,,,0.0,0.0,,,,,,,,,,,,,,,,,,,0.0,11.0,0.0,0.0,30.2,0.0,,0.0,13.3,,,39.2,0.0,0.0,-0.4,0.2,0.1,,,,,12.0,13.0,12.0,13.0,12.0,13.0,12.0,13.0,,,-23.0,0.0,,13.3,2.0,0.0,,,0.653,0.697,0.0,10.6,,,,,,0.0,2025-11-29 12:30:35-08:00
153.06,1.0,10.0,2025-11-29 20:33:03,37.08154,-121.59962,310.0,0.0,243.6,-12.6,,,,,20:33:03,11.0,-0.7,43.5,0.0,127.0,0.0,-0.01,1.0,,-13.0,12.0,0.0,30.05,-157.0,,,325.0,,,,,0.0,0.0,,,,,,,,,,,,,,,,,,,0.0,11.0,0.0,0.0,30.2,0.0,,0.0,13.2,,,39.2,0.0,0.0,-0.4,0.2,0.1,,,,,12.0,13.0,12.0,13.0,12.0,13.0,12.0,13.0,,,-24.0,0.0,,13.2,2.0,0.0,,,0.653,0.697,0.0,10.6,,,,,,0.0,2025-11-29 12:30:35-08:00
154.06,1.0,10.0,2025-11-29 20:33:04,37.08154,-121.59962,311.0,0.0,243.6,-12.6,,,,,20:33:04,11.0,-0.8,43.5,0.0,127.0,0.0,-0.01,1.0,,-13.0,12.0,0.0,30.05,-148.0,,,325.0,,,,,0.0,0.0,,,,,,,,,,,,,,,,,,,0.0,11.0,0.0,0.0,30.2,0.0,,0.0,13.1,,,39.2,0.0,0.0,-0.4,0.2,0.1,,,,,12.0,13.0,12.0,13.0,12.0,13.0,12.0,13.0,,,-21.0,0.0,,13.1,2.0,0.0,,,0.653,0.697,0.0,10.6,,,,,,0.0,2025-11-29 12:30:35-08:00
