Session Time,GPS Fix Quality,Number of Satellites,GPS Date & Time,Latitude (deg),Longitude (deg),GPS Altitude (feet),Ground Speed (knots),Ground Track (deg),Mag Var (deg),Cross Track Error (NM),Destination Waypoint ID,Range to Destination (NM),Bearing to Destination (deg),System Time,Pitch (deg),Roll (deg),Magnetic Heading (deg),Indicated Airspeed (knots),Pressure Altitude (ft),Turn Rate (deg/s),Lateral Accel (g),Vertical Accel(g),Angle of Attack (%),Vertical Speed (ft/min),OAT (deg C),True Airspeed (knots),Barometer Setting (inHg),Density Altitude (ft),Wind Direction (deg),Wind Speed (knots),Heading Bug (deg),Altitude Bug (ft),Airspeed Bug (knots),Vertical Speed Bug (ft/min),Course (deg),CDI Source Type,CDI Source Port,CDI Scale (NM),CDI Deflection (%),Glideslope (%),AP Engaged,AP Roll Mode,AP Roll Force,AP Roll Position (steps),AP Roll Slip (bool),AP Pitch Force,AP Pitch Position (steps),AP Pitch Slip (bool),AP Yaw Force,AP Yaw Position,AP Yaw Slip (bool),Transponder Status,Transponder Reply (bool),Transponder Identing (bool),Transponder Code (octal),Oil Pressure (PSI),Oil Temp (deg C),RPM L,RPM R,Manifold Pressure (inHg),Fuel Flow 1 (gal/hr),Fuel Flow 2 (gal/hr),Total Fuel Flow (gal/hr),Fuel Pressure (PSI),Fuel Level L (gal),Fuel Level R (gal),Fuel Remaining (gal),Volts 1,Volts 2,Amps,Hobbs Time,Tach Time,Thermocouple 1 (deg C),Thermocouple 2 (deg C),Thermocouple 3 (deg C),Thermocouple 4 (deg C),CHT 4 (deg C),EGT 4 (deg C),CHT 3 (deg C),EGT 3 (deg C),CHT 2 (deg C),EGT 2 (deg C),CHT 1 (deg C),EGT 1 (deg C),Thermocouple 13 (deg C),Thermocouple 14 (deg C),ELEV POSITION (%),CO PPM PRESSURE (PSI),GP Input 3,FUEL PRESSURE (PSI),AILERN POSITION (%),CANOPY CONTACT (V),GP Input 7,GP Input 8,LEFT LEVEL (Sensor V),RIGHT LEVEL (Sensor V),OIL PRESSURE (PSI),OIL TEMPERATURE (deg C),GP Input 13,Contacts,Percent Power,EGT Leaning State,Unnamed: 103,RPM,Flight ID
5.06,1.0,5.0,2025-11-22 21:05:14,37.08154,-121.59951,342.0,0.0,136.4,-12.6,,,,,21:05:14,10.8,-0.7,49.7,0.0,198.0,0.0,-0.01,1.0,,-66.0,19.0,0.0,30.07,747.0,,,323.0,,,,,0.0,0.0,,,,,,,,,,,,,,,,,,,0.0,15.0,0.0,0.0,30.1,0.0,,0.0,0.7,,,40.0,0.0,0.0,-0.6,0.1,0.0,,,,,16.0,18.0,16.0,22.0,16.0,18.0,17.0,21.0,,,-28.0,254.4,,0.7,1.0,4.998,,,0.653,0.817,0.0,14.8,,,,,,0.0,2025-11-22 13:05:14-08:00
5.31,1.0,10.0,2025-11-22 21:05:14,37.08157,-121.59958,347.0,0.0,136.4,-12.6,,,,,21:05:14,10.8,-0.7,49.7,0.0,198.0,0.0,-0.01,1.0,,-85.0,19.0,0.0,30.07,747.0,,,323.0,,,,,0.0,0.0,,,,,,,,,,,,,,,,,,,0.0,15.0,0.0,0.0,30.1,0.0,,0.0,0.7,,,40.0,0.0,0.0,-0.6,0.1,0.0,,,,,16.0,18.0,16.0,22.0,16.0,18.0,17.0,21.0,,,-28.0,254.4,,0.7,1.0,4.998,,,0.653,0.817,0.0,14.8,,,,,,0.0,2025-11-22 13:05:14-08:00
5.56,1.0,10.0,2025-11-22 21:05:14,37.08154,-121.5996,358.0,0.0,136.4,-12.6,,,,,21:05:14,10.8,-0.7,49.7,0.0,198.0,0.0,-0.01,1.0,,-74.0,19.0,0.0,30.07,747.0,,,323.0,,,,,0.0,0.0,,,,,,,,,,,,,,,,,,,0.0,15.0,0.0,0.0,30.1,0.0,,0.0,0.7,,,40.0,0.0,0.0,-0.6,0.1,0.0,,,,,16.0,18.0,16.0,22.0,16.0,18.0,17.0,21.0,,,-29.0,254.4,,0.7,1.0,4.998,,,0.653,0.817,0.0,14.8,,,,,,0.0,2025-11-22 13:05:14-08:00
5.81,1.0,10.0,2025-11-22 21:05:15,37.08154,-121.5996,358.0,0.0,136.4,-12.6,,,,,21:05:14,10.8,-0.7,49.7,0.0,198.0,0.0,-0.01,1.0,,-54.0,19.0,0.0,30.07,747.0,,,323.0,,,,,0.0,0.0,,,,,,,,,,,,,,,,,,,0.0,15.0,0.0,0.0,30.1,0.0,,0.0,0.7,,,40.0,0.0,0.0,-0.6,0.1,0.0,,,,,16.0,18.0,16.0,22.0,16.0,18.0,16.0,21.0,,,-28.0,254.4,,0.7,1.0,4.998,,,0.653,0.817,0.0,14.8,,,,,,0.0,2025-11-22 13:05:14-08:00
6.06,1.0,10.0,2025-11-22 21:05:15,37.08154,-121.5996,358.0,0.0,136.4,-12.6,,,,,21:05:15,10.8,-0.7,49.7,0.0,198.0,0.0,-0.01,1.0,,-62.0,19.0,0.0,30.07,747.0,,,323.0,,,,,0.0,0.0,,,,,,,,,,,,,,,,,,,0.0,15.0,0.0,0.0,30.1,0.0,,0.0,0.7,,,40.0,0.0,0.0,-0.6,0.1,0.0,,,,,16.0,18.0,16.0,22.0,16.0,18.0,17.0,21.0,,,-28.0,254.4,,0.7,1.0,4.998,,,0.653,0.817,0.0,14.8,,,,,,0.0,2025-11-22 13:05:14-08:00
6.31,1.0,10.0,2025-11-22 21:05:15,37.08155,-121.5996,328.0,0.0,136.4,-12.6,,,,,21:05:15,10.9,-0.8,49.7,0.0,198.0,0.0,-0.01,1.0,,-62.0,19.0,0.0,30.07,747.0,,,323.0,,,,,0.0,0.0,,,,,,,,,,,,,,,,,,,0.0,15.0,0.0,0.0,30.1,0.0,,0.0,0.7,,,40.0,0.0,0.0,-0.6,0.1,0.0,,,,,16.0,18.0,16.0,22.0,16.0,18.0,16.0,21.0,,,-28.0,254.4,,0.7,1.0,4.998,,,0.653,0.817,0.0,14.8,,,,,,0.0,2025-11-22 13:05:14-08:00
6.56,1.0,10.0,2025-11-22 21:05:15,37.08155,-121.5996,328.0,0.0,136.4,-12.6,,,,,21:05:15,10.9,-0.8,49.7,0.0,197.0,0.1,-0.01,1.0,,-60.0,19.0,0.0,30.07,745.0,,,323.0,,,,,0.0,0.0,,,,,,,,,,,,,,,,,,,0.0,15.0,0.0,0.0,30.1,0.0,,0.0,0.7,,,40.0,0.0,0.0,-0.6,0.1,0.0,,,,,16.0,18.0,16.0,22.0,16.0,18.0,17.0,21.0,,,-29.0,254.4,,0.7,1.0,4.998,,,0.653,0.817,0.0,14.8,,,,,,0.0,2025-11-22 13:05:14-08:00
6.81,1.0,10.0,2025-11-22 21:05:16,37.08155,-121.5996,328.0,0.0,136.4,-12.6,,,,,21:05:15,10.9,-0.8,49.7,0.0,197.0,0.1,-0.01,1.0,,-77.0,19.0,0.0,30.07,745.0,,,323.0,,,,,0.0,0.0,,,,,,,,,,,,,,,,,,,0.0,15.0,0.0,0.0,30.1,0.0,,0.0,0.7,,,40.0,0.0,0.0,-0.6,0.1,0.0,,,,,16.0,18.0,16.0,22.0,16.0,18.0,17.0,21.0,,,-28.0,254.4,,0.7,1.0,4.998,,,0.653,0.817,0.0,14.8,,,,,,0.0,2025-11-22 13:05:14-08:00
7.06,1.0,10.0,2025-11-22 21:05:16,37.08155,-121.5996,327.0,0.0,136.4,-12.6,,,,,21:05:16,10.9,-0.8,49.7,0.0,196.0,0.1,-0.01,1.0,,-82.0,19.0,0.0,30.07,745.0,,,323.0,,,,,0.0,0.0,,,,,,,,,,,,,,,,,,,0.0,15.0,0.0,0.0,30.1,0.0,,0.0,0.7,,,40.0,0.0,0.0,-0.6,0.1,0.0,,,,,16.0,18.0,16.0,22.0,16.0,18.0,17.0,21.0,,,-28.0,254.4,,0.7,1.0,4.998,,,0.653,0.817,0.0,14.8,,,,,,0.0,2025-11-22 13:05:14-08:00
7.31,1.0,10.0,2025-11-22 21:05:16,37.08155,-121.5996,327.0,0.0,136.4,-12.6,,,,,21:05:16,10.9,-0.8,49.6,0.0,194.0,0.0,-0.01,1.0,,-113.0,19.0,0.0,30.07,745.0,,,323.0,,,,,0.0,0.0,,,,,,,,,,,,,,,,,,,0.0,15.0,0.0,0.0,30.1,0.0,,0.0,0.7,,,40.0,0.0,0.0,-0.6,0.1,0.0,,,,,16.0,18.0,16.0,22.0,16.0,18.0,17.0,21.0,,,-28.0,254.4,,0.7,1.0,4.998,,,0.653,0.817,0.0,14.8,,,,,,0.0,2025-11-22 13:05:14-08:00
7.56,1.0,10.0,2025-11-22 21:05:16,37.08155,-121.5996,327.0,0.0,136.4,-12.6,,,,,21:05:16,10.9,-0.8,49.6,0.0,194.0,0.0,-0.01,1.0,,-105.0,19.0,0.0,30.07,745.0,,,323.0,,,,,0.0,0.0,,,,,,,,,,,,,,,,,,,0.0,15.0,0.0,0.0,30.1,0.0,,0.0,0.7,,,40.0,0.0,0.0,-0.6,0.1,0.0,,,,,16.0,18.0,16.0,22.0,16.0,18.0,17.0,21.0,,,-29.0,254.4,,0.7,1.0,4.998,,,0.653,0.815,0.0,14.8,,,,,,0.0,2025-11-22 13:05:14-08:00
7.81,1.0,10.0,2025-11-22 21:05:17,37.08155,-121.5996,327.0,0.0,136.4,-12.6,,,,,21:05:16,10.9,-0.8,49.6,0.0,194.0,0.0,-0.01,1.0,,-117.0,19.0,0.0,30.07,745.0,,,323.0,,,,,0.0,0.0,,,,,,,,,,,,,,,,,,,0.0,15.0,0.0,0.0,30.1,0.0,,0.0,0.7,,,40.0,0.0,0.0,-0.6,0.1,0.0,,,,,16.0,18.0,16.0,22.0,16.0,18.0,17.0,21.0,,,-29.0,254.4,,0.7,1.0,4.998,,,0.653,0.815,0.0,14.8,,,,,,0.0,2025-11-22 13:05:14-08:00
8.06,1.0,10.0,2025-11-22 21:05:17,37.08155,-121.5996,327.0,0.0,136.4,-12.6,,,,,21:05:17,10.9,-0.8,49.6,0.0,193.0,0.0,-0.01,1.0,,-101.0,19.0,0.0,30.07,745.0,,,323.0,,,,,0.0,0.0,,,,,,,,,,,,,,,,,,,0.0,15.0,0.0,0.0,30.1,0.0,,0.0,0.7,,,40.0,0.0,0.0,-0.6,0.1,0.0,,,,,16.0,18.0,16.0,22.0,16.0,18.0,17.0,21.0,,,-29.0,254.4,,0.7,1.0,4.998,,,0.653,0.817,0.0,14.8,,,,,,0.0,2025-11-22 13:05:14-08:00
8.31,1.0,10.0,2025-11-22 21:05:17,37.08155,-121.5996,327.0,0.0,136.4,-12.6,,,,,21:05:17,10.9,-0.8,49.6,0.0,193.0,0.0,-0.01,1.0,,-111.0,19.0,0.0,30.07,745.0,,,323.0,,,,,0.0,0.0,,,,,,,,,,,,,,,,,,,0.0,15.0,0.0,0.0,30.1,0.0,,0.0,0.7,,,40.0,0.0,0.0,-0.6,0.1,0.0,,,,,16.0,18.0,16.0,22.0,16.0,18.0,17.0,21.0,,,-29.0,254.4,,0.7,1.0,4.998,,,0.653,0.817,0.0,14.8,,,,,,0.0,2025-11-22 13:05:14-08:00
8.56,1.0,10.0,2025-11-22 21:05:17,37.08155,-121.5996,327.0,0.0,136.4,-12.6,,,,,21:05:17,10.9,-0.8,49.6,0.0,192.0,0.0,-0.01,1.0,,-105.0,19.0,0.0,30.07,745.0,,,323.0,,,,,0.0,0.0,,,,,,,,,,,,,,,,,,,0.0,15.0,0.0,0.0,30.1,0.0,,0.0,0.7,,,40.0,0.0,0.0,-0.6,0.1,0.0,,,,,16.0,18.0,16.0,22.0,16.0,18.0,17.0,21.0,,,-29.0,254.4,,0.7,1.0,4.998,,,0.653,0.817,0.0,14.8,,,,,,0.0,2025-11-22 13:05:14-08:00
8.81,1.0,10.0,2025-11-22 21:05:18,37.08155,-121.5996,327.0,0.0,136.4,-12.6,,,,,21:05:17,10.9,-0.8,49.6,0.0,192.0,0.0,-0.01,1.0,,-88.0,19.0,0.0,30.07,745.0,,,323.0,,,,,0.0,0.0,,,,,,,,,,,,,,,,,,,0.0,15.0,0.0,0.0,30.1,0.0,,0.0,0.7,,,40.0,0.0,0.0,-0.6,0.1,0.0,,,,,16.0,18.0,16.0,22.0,16.0,18.0,17.0,21.0,,,-27.0,254.4,,0.7,1.0,4.998,,,0.653,0.817,0.0,14.8,,,,,,0.0,2025-11-22 13:05:14-08:00
9.06,1.0,10.0,2025-11-22 21:05:18,37.08155,-121.5996,327.0,0.0,136.4,-12.6,,,,,21:05:18,10.9,-0.8,49.6,0.0,192.0,0.0,-0.01,1.0,,-93.0,19.0,0.0,30.07,745.0,,,323.0,,,,,0.0,0.0,,,,,,,,,,,,,,,,,,,0.0,15.0,0.0,0.0,30.1,0.0,,0.0,0.7,,,40.0,0.0,0.0,-0.6,0.1,0.0,,,,,16.0,18.0,16.0,22.0,16.0,18.0,17.0,21.0,,,-27.0,254.4,,0.7,1.0,4.998,,,0.653,0.817,0.0,14.8,,,,,,0.0,2025-11-22 13:05:14-08:00
9.31,1.0,10.0,2025-11-22 21:05:18,37.08155,-121.5996,326.0,0.0,136.4,-12.6,,,,,21:05:18,10.9,-0.8,49.6,0.0,192.0,0.0,-0.01,1.0,,-86.0,19.0,0.0,30.07,745.0,,,323.0,,,,,0.0,0.0,,,,,,,,,,,,,,,,,,,0.0,15.0,0.0,0.0,30.1,0.0,,0.0,0.7,,,40.0,0.0,0.0,-0.6,0.1,0.0,,,,,16.0,18.0,16.0,22.0,16.0,18.0,17.0,21.0,,,-27.0,254.4,,0.7,1.0,4.998,,,0.653,0.817,0.0,14.8,,,,,,0.0,2025-11-22 13:05:14-08:00
9.56,1.0,10.0,2025-11-22 21:05:18,37.08155,-121.5996,326.0,0.0,136.4,-12.6,,,,,21:05:18,10.9,-0.8,49.6,0.0,191.0,0.0,-0.01,1.0,,-71.0,19.0,0.0,30.07,738.0,,,323.0,,,,,0.0,0.0,,,,,,,,,,,,,,,,,,,0.0,15.0,0.0,0.0,30.1,0.0,,0.0,0.7,,,40.0,0.0,0.0,-0.6,0.1,0.0,,,,,16.0,18.0,16.0,22.0,16.0,18.0,17.0,21.0,,,-27.0,254.4,,0.7,1.0,4.998,,,0.653,0.817,0.0,14.8,,,,,,0.0,2025-11-22 13:05:14-08:00
9.81,1.0,10.0,2025-11-22 21:05:19,37.08155,-121.5996,326.0,0.0,136.4,-12.6,,,,,21:05:18,10.9,-0.7,49.6,0.0,191.0,0.0,-0.01,1.0,,-83.0,19.0,0.0,30.07,738.0,,,323.0,,,,,0.0,0.0,,,,,,,,,,,,,,,,,,,0.0,15.0,0.0,0.0,30.1,0.0,,0.0,0.7,,,40.0,0.0,0.0,-0.6,0.1,0.0,,,,,16.0,18.0,16.0,22.0,16.0,18.0,17.0,21.0,,,-27.0,254.4,,0.7,1.0,4.998,,,0.653,0.817,0.0,14.8,,,,,,0.0,2025-11-22 13:05:14-08:00
10.06,1.0,10.0,2025-11-22 21:05:19,37.08154,-121.5996,326.0,0.0,136.4,-12.6,,,,,21:05:19,10.9,-0.7,49.6,0.0,191.0,0.0,-0.01,1.0,,-86.0,19.0,0.0,30.07,739.0,,,323.0,,,,,0.0,0.0,,,,,,,,,,,,,,,,,,,0.0,15.0,0.0,0.0,30.1,0.0,,0.0,0.7,,,40.0,0.0,0.0,-0.6,0.1,0.0,,,,,16.0,18.0,16.0,22.0,16.0,18.0,17.0,21.0,,,-27.0,254.4,,0.7,1.0,4.998,,,0.653,0.817,0.0,14.8,,,,,,0.0,2025-11-22 13:05:14-08:00
10.31,1.0,10.0,2025-11-22 21:05:19,37.08154,-121.5996,325.0,0.0,136.4,-12.6,,,,,21:05:19,10.9,-0.7,49.6,0.0,190.0,0.0,-0.01,1.0,,-84.0,19.0,0.0,30.07,739.0,,,323.0,,,,,0.0,0.0,,,,,,,,,,,,,,,,,,,0.0,15.0,0.0,0.0,30.1,0.0,,0.0,0.7,,,40.0,0.0,0.0,-0.6,0.1,0.0,,,,,16.0,18.0,16.0,22.0,16.0,18.0,17.0,21.0,,,-27.0,254.4,,0.7,1.0,4.998,,,0.653,0.815,0.0,14.8,,,,,,0.0,2025-11-22 13:05:14-08:00
10.56,1.0,10.0,2025-11-22 21:05:19,37.08154,-121.5996,325.0,0.0,136.4,-12.6,,,,,21:05:19,10.9,-0.7,49.5,0.0,190.0,0.0,-0.01,1.0,,-90.0,19.0,0.0,30.07,739.0,,,323.0,,,,,0.0,0.0,,,,,,,,,,,,,,,,,,,0.0,15.0,0.0,0.0,30.1,0.0,,0.0,0.7,,,40.0,0.0,0.0,-0.6,0.1,0.0,,,,,16.0,18.0,16.0,22.0,16.0,18.0,17.0,21.0,,,-26.0,254.4,,0.7,1.0,4.998,,,0.653,0.817,0.0,14.8,,,,,,0.0,2025-11-22 13:05:14-08:00
10.81,1.0,10.0,2025-11-22 21:05:20,37.08154,-121.5996,325.0,0.0,136.4,-12.6,,,,,21:05:19,10.9,-0.8,49.5,0.0,189.0,0.0,-0.01,1.0,,-104.0,19.0,0.0,30.07,739.0,,,323.0,,,,,0.0,0.0,,,,,,,,,,,,,,,,,,,0.0,15.0,0.0,0.0,30.1,0.0,,0.0,0.7,,,40.0,0.0,0.0,-0.6,0.1,0.0,,,,,16.0,18.0,16.0,22.0,16.0,18.0,17.0,21.0,,,-26.0,254.4,,0.7,1.0,4.998,,,0.653,0.817,0.0,14.8,,,,,,0.0,2025-11-22 13:05:14-08:00
11.06,1.0,10.0,2025-11-22 21:05:20,37.08154,-121.5996,325.0,0.0,136.4,-12.6,,,,,21:05:20,10.9,-0.8,49.5,0.0,189.0,0.0,-0.01,1.0,,-99.0,19.0,0.0,30.07,739.0,,,323.0,,,,,0.0,0.0,,,,,,,,,,,,,,,,,,,0.0,15.0,0.0,0.0,30.1,0.0,,0.0,0.7,,,40.0,0.0,0.0,-0.6,0.1,0.0,,,,,16.0,18.0,16.0,22.0,16.0,18.0,17.0,21.0,,,-26.0,254.4,,0.7,1.0,4.998,,,0.653,0.817,0.0,14.8,,,,,,0.0,2025-11-22 13:05:14-08:00
11.31,1.0,10.0,2025-11-22 21:05:20,37.08154,-121.5996,325.0,0.0,136.4,-12.6,,,,,21:05:20,10.9,-0.8,49.5,0.0,188.0,0.0,-0.01,1.0,,-118.0,19.0,0.0,30.07,739.0,,,323.0,,,,,0.0,0.0,,,,,,,,,,,,,,,,,,,0.0,15.0,0.0,0.0,30.1,0.0,,0.0,0.7,,,40.0,0.0,0.0,-0.6,0.1,0.0,,,,,16.0,18.0,16.0,22.0,16.0,18.0,17.0,21.0,,,-26.0,254.4,,0.7,1.0,4.998,,,0.653,0.817,0.0,14.8,,,,,,0.0,2025-11-22 13:05:14-08:00
11.56,1.0,10.0,2025-11-22 21:05:20,37.08154,-121.5996,324.0,0.0,136.4,-12.6,,,,,21:05:20,10.9,-0.8,49.5,0.0,188.0,0.0,-0.01,1.0,,-98.0,19.0,0.0,30.07,739.0,,,323.0,,,,,0.0,0.0,,,,,,,,,,,,,,,,,,,0.0,15.0,0.0,0.0,30.1,0.0,,0.0,0.7,,,40.0,0.0,0.0,-0.6,0.1,0.0,,,,,16.0,18.0,16.0,22.0,16.0,18.0,17.0,21.0,,,-26.0,254.4,,0.7,1.0,4.998,,,0.653,0.817,0.0,14.8,,,,,,0.0,2025-11-22 13:05:14-08:00
11.81,1.0,10.0,2025-11-22 21:05:21,37.08154,-121.5996,324.0,0.0,136.4,-12.6,,,,,21:05:20,10.9,-0.8,49.5,0.0,187.0,0.0,-0.01,1.0,,-114.0,19.0,0.0,30.07,739.0,,,323.0,,,,,0.0,0.0,,,,,,,,,,,,,,,,,,,0.0,15.0,0.0,0.0,30.1,0.0,,0.0,0.7,,,40.0,0.0,0.0,-0.6,0.1,0.0,,,,,16.0,18.0,16.0,22.0,16.0,18.0,17.0,21.0,,,-26.0,254.4,,0.7,1.0,4.998,,,0.653,0.817,0.0,14.8,,,,,,0.0,2025-11-22 13:05:14-08:00
12.06,1.0,10.0,2025-11-22 21:05:21,37.08154,-121.5996,324.0,0.0,136.4,-12.6,,,,,21:05:21,10.9,-0.8,49.5,0.0,186.0,0.0,-0.01,1.0,,-117.0,19.0,0.0,30.07,739.0,,,323.0,,,,,0.0,0.0,,,,,,,,,,,,,,,,,,,0.0,15.0,0.0,0.0,30.1,0.0,,0.0,0.7,,,40.0,0.0,0.0,-0.6,0.1,0.0,,,,,16.0,18.0,16.0,22.0,16.0,18.0,17.0,21.0,,,-26.0,254.4,,0.7,1.0,4.998,,,0.653,0.817,0.0,14.8,,,,,,0.0,2025-11-22 13:05:14-08:00
12.31,1.0,10.0,2025-11-22 21:05:21,37.08154,-121.5996,324.0,0.0,136.4,-12.6,,,,,21:05:21,10.9,-0.8,49.6,0.0,186.0,0.0,-0.01,1.0,,-120.0,19.0,0.0,30.07,739.0,,,323.0,,,,,0.0,0.0,,,,,,,,,,,,,,,,,,,0.0,15.0,0.0,0.0,30.1,0.0,,0.0,0.7,,,40.0,0.0,0.0,-0.6,0.1,0.0,,,,,16.0,18.0,16.0,22.0,16.0,18.0,17.0,21.0,,,-27.0,254.4,,0.7,1.0,4.998,,,0.653,0.817,0.0,14.8,,,,,,0.0,2025-11-22 13:05:14-08:00
12.56,1.0,10.0,2025-11-22 21:05:21,37.08154,-121.5996,323.0,0.0,136.4,-12.6,,,,,21:05:21,10.9,-0.8,49.6,0.0,185.0,0.0,-0.01,1.0,,-117.0,19.0,0.0,30.07,739.0,,,323.0,,,,,0.0,0.0,,,,,,,,,,,,,,,,,,,0.0,15.0,0.0,0.0,30.1,0.0,,0.0,0.7,,,40.0,0.0,0.0,-0.6,0.1,0.0,,,,,16.0,18.0,16.0,22.0,16.0,18.0,17.0,21.0,,,-26.0,254.4,,0.7,1.0,4.998,,,0.653,0.817,0.0,14.8,,,,,,0.0,2025-11-22 13:05:14-08:00
12.81,1.0,10.0,2025-11-22 21:05:22,37.08154,-121.5996,323.0,0.0,136.4,-12.6,,,,,21:05:21,10.9,-0.7,49.6,0.0,185.0,0.0,-0.01,1.0,,-111.0,19.0,0.0,30.07,739.0,,,323.0,,,,,0.0,0.0,,,,,,,,,,,,,,,,,,,0.0,15.0,0.0,0.0,30.1,0.0,,0.0,0.7,,,40.0,0.0,0.0,-0.6,0.1,0.0,,,,,16.0,18.0,16.0,22.0,16.0,18.0,17.0,21.0,,,-27.0,254.4,,0.7,1.0,4.998,,,0.653,0.817,0.0,14.8,,,,,,0.0,2025-11-22 13:05:14-08:00
13.06,1.0,10.0,2025-11-22 21:05:22,37.08154,-121.5996,322.0,0.0,136.4,-12.6,,,,,21:05:22,10.9,-0.7,49.5,0.0,185.0,0.0,-0.01,1.0,,-122.0,19.0,0.0,30.07,730.0,,,323.0,,,,,0.0,0.0,,,,,,,,,,,,,,,,,,,0.0,15.0,0.0,0.0,30.1,0.0,,0.0,0.7,,,40.0,0.0,0.0,-0.6,0.1,0.0,,,,,16.0,18.0,16.0,22.0,16.0,18.0,17.0,21.0,,,-27.0,254.4,,0.7,1.0,4.998,,,0.653,0.817,0.0,14.8,,,,,,0.0,2025-11-22 13:05:14-08:00
13.31,1.0,10.0,2025-11-22 21:05:22,37.08154,-121.5996,322.0,0.0,136.4,-12.6,,,,,21:05:22,10.9,-0.7,49.6,0.0,184.0,0.0,-0.01,1.0,,-129.0,19.0,0.0,30.07,731.0,,,323.0,,,,,0.0,0.0,,,,,,,,,,,,,,,,,,,0.0,15.0,0.0,0.0,30.1,0.0,,0.0,0.7,,,40.0,0.0,0.0,-0.6,0.1,0.0,,,,,16.0,18.0,16.0,22.0,16.0,18.0,17.0,21.0,,,-27.0,254.4,,0.7,1.0,4.998,,,0.653,0.817,0.0,14.8,,,,,,0.0,2025-11-22 13:05:14-08:00
13.56,1.0,10.0,2025-11-22 21:05:22,37.08155,-121.5996,321.0,0.0,136.4,-12.6,,,,,21:05:22,10.9,-0.7,49.5,0.0,184.0,0.0,-0.01,1.0,,-104.0,19.0,0.0,30.07,731.0,,,323.0,,,,,0.0,0.0,,,,,,,,,,,,,,,,,,,0.0,15.0,0.0,0.0,30.1,0.0,,0.0,0.7,,,40.0,0.0,0.0,-0.6,0.1,0.0,,,,,16.0,18.0,16.0,22.0,16.0,18.0,17.0,21.0,,,-27.0,254.4,,0.7,1.0,4.998,,,0.653,0.817,0.0,14.8,,,,,,0.0,2025-11-22 13:05:14-08:00
13.81,1.0,10.0,2025-11-22 21:05:23,37.08155,-121.5996,321.0,0.0,136.4,-12.6,,,,,21:05:22,10.9,-0.8,49.5,0.0,184.0,0.0,-0.01,1.0,,-98.0,19.0,0.0,30.07,731.0,,,323.0,,,,,0.0,0.0,,,,,,,,,,,,,,,,,,,0.0,15.0,0.0,0.0,30.1,0.0,,0.0,0.7,,,40.0,0.0,0.0,-0.6,0.1,0.0,,,,,16.0,18.0,16.0,22.0,16.0,18.0,17.0,21.0,,,-26.0,254.4,,0.7,1.0,4.998,,,0.653,0.817,0.0,14.8,,,,,,0.0,2025-11-22 13:05:14-08:00
14.06,1.0,10.0,2025-11-22 21:05:23,37.08154,-121.5996,321.0,0.0,136.4,-12.6,,,,,21:05:23,10.9,-0.8,49.5,0.0,184.0,0.0,-0.01,1.0,,-89.0,19.0,0.0,30.07,731.0,,,323.0,,,,,0.0,0.0,,,,,,,,,,,,,,,,,,,0.0,15.0,0.0,0.0,30.1,0.0,,0.0,0.7,,,40.0,0.0,0.0,-0.6,0.1,0.0,,,,,16.0,18.0,16.0,22.0,16.0,18.0,17.0,21.0,,,-26.0,254.4,,0.7,1.0,4.998,,,0.653,0.817,0.0,14.8,,,,,,0.0,2025-11-22 13:05:14-08:00
14.31,1.0,10.0,2025-11-22 21:05:23,37.08155,-121.5996,320.0,0.0,136.4,-12.6,,,,,21:05:23,10.9,-0.8,49.5,0.0,183.0,-0.0,-0.01,1.0,,-112.0,19.0,0.0,30.07,731.0,,,323.0,,,,,0.0,0.0,,,,,,,,,,,,,,,,,,,0.0,15.0,0.0,0.0,30.1,0.0,,0.0,0.7,,,40.0,0.0,0.0,-0.6,0.1,0.0,,,,,16.0,18.0,16.0,22.0,16.0,18.0,17.0,21.0,,,-27.0,254.4,,0.7,1.0,4.998,,,0.653,0.817,0.0,14.8,,,,,,0.0,2025-11-22 13:05:14-08:00
14.56,1.0,10.0,2025-11-22 21:05:23,37.08155,-121.5996,319.0,0.0,136.4,-12.6,,,,,21:05:23,10.9,-0.8,49.5,0.0,182.0,0.0,-0.01,1.0,,-100.0,19.0,0.0,30.07,731.0,,,323.0,,,,,0.0,0.0,,,,,,,,,,,,,,,,,,,0.0,15.0,0.0,0.0,30.1,0.0,,0.0,0.7,,,40.0,0.0,0.0,-0.6,0.1,0.0,,,,,16.0,18.0,16.0,22.0,16.0,18.0,17.0,21.0,,,-27.0,254.4,,0.7,1.0,4.998,,,0.653,0.817,0.0,14.8,,,,,,0.0,2025-11-22 13:05:14-08:00
14.81,1.0,10.0,2025-11-22 21:05:24,37.08155,-121.5996,319.0,0.0,136.4,-12.6,,,,,21:05:23,10.9,-0.8,49.5,0.0,182.0,0.0,-0.01,1.0,,-97.0,19.0,0.0,30.07,731.0,,,323.0,,,,,0.0,0.0,,,,,,,,,,,,,,,,,,,0.0,15.0,0.0,0.0,30.1,0.0,,0.0,0.7,,,40.0,0.0,0.0,-0.6,0.1,0.0,,,,,16.0,18.0,16.0,22.0,16.0,18.0,17.0,21.0,,,-27.0,254.4,,0.7,1.0,4.998,,,0.653,0.817,0.0,14.8,,,,,,0.0,2025-11-22 13:05:14-08:00
15.06,1.0,10.0,2025-11-22 21:05:24,37.08155,-121.5996,318.0,0.0,136.4,-12.6,,,,,21:05:24,10.9,-0.8,49.6,0.0,182.0,0.0,-0.01,1.0,,-80.0,19.0,0.0,30.07,731.0,,,323.0,,,,,0.0,0.0,,,,,,,,,,,,,,,,,,,0.0,15.0,0.0,0.0,30.1,0.0,,0.0,0.7,,,40.0,0.0,0.0,-0.6,0.1,0.0,,,,,16.0,18.0,16.0,22.0,16.0,18.0,17.0,21.0,,,-27.0,254.4,,0.7,1.0,4.998,,,0.653,0.817,0.0,14.8,,,,,,0.0,2025-11-22 13:05:14-08:00
15.31,1.0,10.0,2025-11-22 21:05:24,37.08155,-121.5996,317.0,0.0,136.4,-12.6,,,,,21:05:24,10.9,-0.7,49.6,0.0,181.0,0.0,-0.01,1.0,,-94.0,19.0,0.0,30.07,731.0,,,323.0,,,,,0.0,0.0,,,,,,,,,,,,,,,,,,,0.0,15.0,0.0,0.0,30.1,0.0,,0.0,0.7,,,40.0,0.0,0.0,-0.6,0.1,0.0,,,,,16.0,18.0,16.0,22.0,16.0,18.0,17.0,21.0,,,-27.0,254.4,,0.7,1.0,4.998,,,0.653,0.817,0.0,14.8,,,,,,0.0,2025-11-22 13:05:14-08:00
15.56,1.0,10.0,2025-11-22 21:05:24,37.08155,-121.5996,316.0,0.0,136.4,-12.6,,,,,21:05:24,10.9,-0.7,49.5,0.0,181.0,0.0,-0.01,1.0,,-82.0,19.0,0.0,30.07,731.0,,,323.0,,,,,0.0,0.0,,,,,,,,,,,,,,,,,,,0.0,15.0,0.0,0.0,30.1,0.0,,0.0,0.7,,,40.0,0.0,0.0,-0.6,0.1,0.0,,,,,16.0,18.0,16.0,22.0,16.0,18.0,17.0,21.0,,,-27.0,254.4,,0.7,1.0,4.998,,,0.653,0.817,0.0,14.8,,,,,,0.0,2025-11-22 13:05:14-08:00
15.81,1.0,10.0,2025-11-22 21:05:25,37.08155,-121.5996,315.0,0.0,136.4,-12.6,,,,,21:05:24,10.9,-0.8,49.5,0.0,180.0,0.0,-0.01,1.0,,-107.0,19.0,0.0,30.07,731.0,,,323.0,,,,,0.0,0.0,,,,,,,,,,,,,,,,,,,0.0,15.0,0.0,0.0,30.1,0.0,,0.0,0.7,,,40.0,0.0,0.0,-0.6,0.1,0.0,,,,,16.0,18.0,16.0,22.0,16.0,18.0,17.0,21.0,,,-27.0,254.4,,0.7,1.0,4.998,,,0.653,0.817,0.0,14.8,,,,,,0.0,2025-11-22 13:05:14-08:00
16.06,1.0,10.0,2025-11-22 21:05:25,37.08155,-121.59961,315.0,0.0,136.4,-12.6,,,,,21:05:25,10.9,-0.8,49.5,0.0,180.0,0.0,-0.01,1.0,,-82.0,19.0,0.0,30.07,731.0,,,323.0,,,,,0.0,0.0,,,,,,,,,,,,,,,,,,,0.0,15.0,0.0,0.0,30.1,0.0,,0.0,0.7,,,40.0,0.0,0.0,-0.6,0.1,0.0,,,,,16.0,18.0,16.0,22.0,16.0,18.0,17.0,21.0,,,-27.0,254.4,,0.7,1.0,4.998,,,0.653,0.817,0.0,14.8,,,,,,0.0,2025-11-22 13:05:14-08:00
16.31,1.0,10.0,2025-11-22 21:05:25,37.08155,-121.59961,314.0,0.0,136.4,-12.6,,,,,21:05:25,10.9,-0.8,49.5,0.0,180.0,0.0,-0.01,1.0,,-81.0,19.0,0.0,30.07,736.0,,,323.0,,,,,0.0,0.0,,,,,,,,,,,,,,,,,,,0.0,15.0,0.0,0.0,30.1,0.0,,0.0,0.7,,,40.0,0.0,0.0,-0.6,0.1,0.0,,,,,16.0,18.0,16.0,22.0,16.0,18.0,17.0,21.0,,,-27.0,254.4,,0.7,1.0,4.998,,,0.653,0.817,0.0,14.8,,,,,,0.0,2025-11-22 13:05:14-08:00
16.56,1.0,10.0,2025-11-22 21:05:25,37.08155,-121.59961,313.0,0.0,136.4,-12.6,,,,,21:05:25,10.9,-0.8,49.6,0.0,180.0,0.0,-0.01,1.0,,-57.0,19.0,0.0,30.07,736.0,,,323.0,,,,,0.0,0.0,,,,,,,,,,,,,,,,,,,0.0,15.0,0.0,0.0,30.1,0.0,,0.0,0.7,,,40.0,0.0,0.0,-0.6,0.1,0.0,,,,,16.0,18.0,16.0,22.0,16.0,18.0,17.0,21.0,,,-26.0,254.4,,0.7,1.0,4.998,,,0.653,0.817,0.0,14.8,,,,,,0.0,2025-11-22 13:05:14-08:00
16.81,1.0,10.0,2025-11-22 21:05:26,37.08155,-121.59961,312.0,0.1,136.4,-12.6,,,,,21:05:25,10.9,-0.8,49.6,0.0,180.0,0.0,-0.01,1.0,,-62.0,19.0,0.0,30.07,736.0,,,323.0,,,,,0.0,0.0,,,,,,,,,,,,,,,,,,,0.0,15.0,0.0,0.0,30.1,0.0,,0.0,0.7,,,40.0,0.0,0.0,-0.6,0.1,0.0,,,,,16.0,18.0,16.0,22.0,16.0,18.0,17.0,21.0,,,-27.0,254.4,,0.7,1.0,4.998,,,0.653,0.817,0.0,14.8,,,,,,0.0,2025-11-22 13:05:14-08:00
17.06,1.0,10.0,2025-11-22 21:05:26,37.08155,-121.59961,311.0,0.0,136.4,-12.6,,,,,21:05:26,10.9,-0.8,49.6,0.0,180.0,0.0,-0.01,1.0,,-62.0,19.0,0.0,30.07,736.0,,,323.0,,,,,0.0,0.0,,,,,,,,,,,,,,,,,,,0.0,15.0,0.0,0.0,30.1,0.0,,0.0,0.7,,,40.0,0.0,0.0,-0.6,0.1,0.0,,,,,16.0,18.0,16.0,22.0,16.0,18.0,17.0,21.0,,,-27.0,254.4,,0.7,1.0,4.998,,,0.653,0.817,0.0,14.9,,,,,,0.0,2025-11-22 13:05:14-08:00
17.31,1.0,10.0,2025-11-22 21:05:26,37.08155,-121.59961,311.0,0.0,136.4,-12.6,,,,,21:05:26,10.9,-0.8,49.5,0.0,180.0,0.0,-0.01,1.0,,-72.0,19.0,0.0,30.07,736.0,,,323.0,,,,,0.0,0.0,,,,,,,,,,,,,,,,,,,0.0,15.0,0.0,0.0,30.1,0.0,,0.0,0.7,,,40.0,0.0,0.0,-0.6,0.1,0.0,,,,,16.0,18.0,16.0,22.0,16.0,18.0,17.0,21.0,,,-27.0,254.4,,0.7,1.0,4.998,,,0.653,0.817,0.0,14.9,,,,,,0.0,2025-11-22 13:05:14-08:00
17.56,1.0,10.0,2025-11-22 21:05:26,37.08155,-121.59961,310.0,0.0,136.4,-12.6,,,,,21:05:26,10.9,-0.8,49.5,0.0,180.0,0.0,-0.01,1.0,,-75.0,19.0,0.0,30.07,736.0,,,323.0,,,,,0.0,0.0,,,,,,,,,,,,,,,,,,,0.0,15.0,0.0,0.0,30.1,0.0,,0.0,0.7,,,40.0,0.0,0.0,-0.6,0.1,0.0,,,,,16.0,19.0,16.0,22.0,16.0,19.0,17.0,21.0,,,-28.0,254.4,,0.7,1.0,4.998,,,0.653,0.817,0.0,14.9,,,,,,0.0,2025-11-22 13:05:14-08:00
17.81,1.0,10.0,2025-11-22 21:05:27,37.08155,-121.59961,309.0,0.0,136.4,-12.6,,,,,21:05:26,10.9,-0.8,49.5,0.0,178.0,0.0,-0.01,1.0,,-95.0,19.0,0.0,30.07,736.0,,,323.0,,,,,0.0,0.0,,,,,,,,,,,,,,,,,,,0.0,15.0,0.0,0.0,30.1,0.0,,0.0,0.7,,,40.0,0.0,0.0,-0.6,0.1,0.0,,,,,16.0,19.0,16.0,22.0,16.0,19.0,17.0,21.0,,,-29.0,254.4,,0.7,1.0,4.998,,,0.653,0.817,0.0,14.9,,,,,,0.0,2025-11-22 13:05:14-08:00
18.06,1.0,10.0,2025-11-22 21:05:27,37.08155,-121.59961,308.0,0.0,136.4,-12.6,,,,,21:05:27,10.9,-0.8,49.5,0.0,178.0,0.0,-0.01,1.0,,-81.0,19.0,0.0,30.07,736.0,,,323.0,,,,,0.0,0.0,,,,,,,,,,,,,,,,,,,0.0,15.0,0.0,0.0,30.1,0.0,,0.0,0.7,,,40.0,0.0,0.0,-0.6,0.1,0.0,,,,,16.0,19.0,16.0,22.0,16.0,19.0,17.0,21.0,,,-30.0,254.4,,0.7,1.0,4.998,,,0.653,0.817,0.0,14.8,,,,,,0.0,2025-11-22 13:05:14-08:00
18.31,1.0,10.0,2025-11-22 21:05:27,37.08155,-121.59961,307.0,0.0,136.4,-12.6,,,,,21:05:27,10.9,-0.8,49.5,0.0,178.0,0.0,-0.01,1.0,,-73.0,19.0,0.0,30.07,736.0,,,323.0,,,,,0.0,0.0,,,,,,,,,,,,,,,,,,,0.0,15.0,0.0,0.0,30.1,0.0,,0.0,0.7,,,40.0,0.0,0.0,-0.6,0.1,0.0,,,,,16.0,19.0,16.0,22.0,16.0,19.0,17.0,21.0,,,-29.0,254.4,,0.7,1.0,4.998,,,0.653,0.817,0.0,14.8,,,,,,0.0,2025-11-22 13:05:14-08:00
18.56,1.0,10.0,2025-11-22 21:05:27,37.08156,-121.59961,306.0,0.0,136.4,-12.6,,,,,21:05:27,10.9,-0.8,49.5,0.0,178.0,0.0,-0.01,1.0,,-45.0,19.0,0.0,30.07,736.0,,,323.0,,,,,0.0,0.0,,,,,,,,,,,,,,,,,,,0.0,15.0,0.0,0.0,30.1,0.0,,0.0,0.7,,,40.0,0.0,0.0,-0.6,0.1,0.0,,,,,16.0,19.0,16.0,22.0,16.0,19.0,17.0,21.0,,,-28.0,254.4,,0.7,1.0,4.998,,,0.653,0.817,0.0,14.8,,,,,,0.0,2025-11-22 13:05:14-08:00
18.81,1.0,10.0,2025-11-22 21:05:28,37.08156,-121.59962,306.0,0.1,136.4,-12.6,,,,,21:05:27,10.9,-0.9,49.5,0.0,178.0,0.0,-0.01,1.0,,-47.0,19.0,0.0,30.07,736.0,,,323.0,,,,,0.0,0.0,,,,,,,,,,,,,,,,,,,0.0,15.0,0.0,0.0,30.1,0.0,,0.0,0.7,,,40.0,0.0,0.0,-0.6,0.1,0.0,,,,,16.0,19.0,16.0,22.0,16.0,19.0,17.0,21.0,,,-29.0,254.4,,0.7,2.0,4.998,,,0.653,0.817,0.0,14.8,,,,,,0.0,2025-11-22 13:05:14-08:00
19.06,1.0,10.0,2025-11-22 21:05:28,37.08156,-121.59962,305.0,0.0,136.4,-12.6,,,,,21:05:28,10.9,-0.9,49.5,0.0,178.0,0.0,-0.01,1.0,,-33.0,19.0,0.0,30.07,736.0,,,323.0,,,,,0.0,0.0,,,,,,,,,,,,,,,,,,,0.0,15.0,0.0,0.0,30.1,0.0,,0.0,0.7,,,40.0,0.0,0.0,-0.6,0.1,0.0,,,,,16.0,19.0,16.0,22.0,16.0,19.0,17.0,21.0,,,-28.0,254.4,,0.7,2.0,4.998,,,0.653,0.817,0.0,14.8,,,,,,0.0,2025-11-22 13:05:14-08:00
19.31,1.0,10.0,2025-11-22 21:05:28,37.08156,-121.59962,304.0,0.0,136.4,-12.6,,,,,21:05:28,10.9,-0.8,49.5,0.0,178.0,0.0,-0.01,1.0,,-62.0,19.0,0.0,30.07,734.0,,,323.0,,,,,0.0,0.0,,,,,,,,,,,,,,,,,,,0.0,15.0,0.0,0.0,30.1,0.0,,0.0,0.7,,,40.0,0.0,0.0,-0.6,0.1,0.0,,,,,16.0,19.0,16.0,22.0,16.0,19.0,17.0,21.0,,,-29.0,254.4,,0.7,2.0,4.998,,,0.653,0.817,0.0,14.9,,,,,,0.0,2025-11-22 13:05:14-08:00
19.56,1.0,10.0,2025-11-22 21:05:28,37.08156,-121.59962,303.0,0.0,136.4,-12.6,,,,,21:05:28,10.9,-0.8,49.5,0.0,178.0,0.0,-0.01,1.0,,-60.0,19.0,0.0,30.07,734.0,,,323.0,,,,,0.0,0.0,,,,,,,,,,,,,,,,,,,0.0,15.0,0.0,0.0,30.1,0.0,,0.0,0.7,,,40.0,0.0,0.0,-0.6,0.1,0.0,,,,,16.0,19.0,16.0,22.0,16.0,19.0,17.0,21.0,,,-29.0,254.4,,0.7,2.0,4.998,,,0.653,0.817,0.0,14.9,,,,,,0.0,2025-11-22 13:05:14-08:00
19.81,1.0,10.0,2025-11-22 21:05:29,37.08156,-121.59962,303.0,0.0,136.4,-12.6,,,,,21:05:28,10.9,-0.8,49.5,0.0,177.0,0.0,-0.01,1.0,,-74.0,19.0,0.0,30.07,734.0,,,323.0,,,,,0.0,0.0,,,,,,,,,,,,,,,,,,,0.0,15.0,0.0,0.0,30.1,0.0,,0.0,0.7,,,40.0,0.0,0.0,-0.6,0.1,0.0,,,,,16.0,19.0,16.0,22.0,16.0,19.0,17.0,21.0,,,-29.0,254.4,,0.7,2.0,4.998,,,0.653,0.817,0.0,14.9,,,,,,0.0,2025-11-22 13:05:14-08:00
20.06,1.0,10.0,2025-11-22 21:05:29,37.08156,-121.59962,302.0,0.0,136.4,-12.6,,,,,21:05:29,10.9,-0.8,49.5,0.0,176.0,0.0,-0.01,1.0,,-65.0,19.0,0.0,30.07,734.0,,,323.0,,,,,0.0,0.0,,,,,,,,,,,,,,,,,,,0.0,15.0,0.0,0.0,30.1,0.0,,0.0,0.7,,,40.0,0.0,0.0,-0.6,0.1,0.0,,,,,16.0,19.0,16.0,22.0,16.0,19.0,17.0,21.0,,,-28.0,254.4,,0.7,2.0,4.998,,,0.653,0.817,0.0,14.9,,,,,,0.0,2025-11-22 13:05:14-08:00
20.31,1.0,10.0,2025-11-22 21:05:29,37.08156,-121.59962,301.0,0.0,136.4,-12.6,,,,,21:05:29,10.9,-0.8,49.5,0.0,176.0,0.0,-0.02,1.0,,-49.0,19.0,0.0,30.07,734.0,,,323.0,,,,,0.0,0.0,,,,,,,,,,,,,,,,,,,0.0,15.0,0.0,0.0,30.1,0.0,,0.0,0.7,,,40.0,0.0,0.0,-0.6,0.1,0.0,,,,,16.0,19.0,16.0,22.0,16.0,19.0,17.0,21.0,,,-29.0,254.4,,0.7,2.0,4.998,,,0.653,0.817,0.0,14.9,,,,,,0.0,2025-11-22 13:05:14-08:00
20.56,1.0,10.0,2025-11-22 21:05:29,37.08156,-121.59962,301.0,0.1,136.4,-12.6,,,,,21:05:29,10.9,-0.8,49.5,0.0,176.0,0.0,-0.01,1.0,,-40.0,19.0,0.0,30.07,734.0,,,323.0,,,,,0.0,0.0,,,,,,,,,,,,,,,,,,,0.0,15.0,0.0,0.0,30.1,0.0,,0.0,0.7,,,40.0,0.0,0.0,-0.6,0.1,0.0,,,,,16.0,19.0,16.0,22.0,16.0,19.0,17.0,21.0,,,-28.0,254.4,,0.7,2.0,4.998,,,0.653,0.817,0.0,14.9,,,,,,0.0,2025-11-22 13:05:14-08:00
20.81,1.0,10.0,2025-11-22 21:05:30,37.08156,-121.59962,300.0,0.0,136.4,-12.6,,,,,21:05:29,10.9,-0.8,49.5,0.0,176.0,0.0,-0.01,1.0,,-59.0,19.0,0.0,30.07,734.0,,,323.0,,,,,0.0,0.0,,,,,,,,,,,,,,,,,,,0.0,15.0,0.0,0.0,30.1,0.0,,0.0,0.7,,,40.0,0.0,0.0,-0.6,0.1,0.0,,,,,16.0,19.0,16.0,22.0,16.0,19.0,17.0,21.0,,,-28.0,254.4,,0.7,2.0,4.998,,,0.653,0.817,0.0,14.9,,,,,,0.0,2025-11-22 13:05:14-08:00
21.06,1.0,10.0,2025-11-22 21:05:30,37.08156,-121.59962,300.0,0.0,136.4,-12.6,,,,,21:05:30,10.9,-0.8,49.5,0.0,176.0,0.0,-0.01,1.0,,-45.0,19.0,0.0,30.07,734.0,,,323.0,,,,,0.0,0.0,,,,,,,,,,,,,,,,,,,0.0,15.0,0.0,0.0,30.1,0.0,,0.0,0.7,,,40.0,0.0,0.0,-0.6,0.1,0.0,,,,,16.0,19.0,16.0,22.0,16.0,19.0,17.0,21.0,,,-28.0,254.4,,0.7,2.0,4.998,,,0.653,0.817,0.0,14.9,,,,,,0.0,2025-11-22 13:05:14-08:00
21.31,1.0,10.0,2025-11-22 21:05:30,37.08156,-121.59962,299.0,0.0,136.4,-12.6,,,,,21:05:30,10.9,-0.8,49.5,0.0,176.0,0.0,-0.01,1.0,,-42.0,19.0,0.0,30.07,734.0,,,323.0,,,,,0.0,0.0,,,,,,,,,,,,,,,,,,,0.0,15.0,0.0,0.0,30.1,0.0,,0.0,0.7,,,40.0,0.0,0.0,-0.6,0.1,0.0,,,,,16.0,19.0,16.0,22.0,16.0,19.0,17.0,21.0,,,-29.0,254.4,,0.7,2.0,4.998,,,0.653,0.817,0.0,14.9,,,,,,0.0,2025-11-22 13:05:14-08:00
21.56,1.0,10.0,2025-11-22 21:05:30,37.08157,-121.59962,299.0,0.0,136.4,-12.6,,,,,21:05:30,10.9,-0.8,49.5,0.0,176.0,0.1,-0.01,1.0,,-47.0,19.0,0.0,30.07,734.0,,,323.0,,,,,0.0,0.0,,,,,,,,,,,,,,,,,,,0.0,15.0,0.0,0.0,30.1,0.0,,0.0,0.7,,,40.0,0.0,0.0,-0.6,0.1,0.0,,,,,16.0,19.0,16.0,22.0,16.0,19.0,17.0,21.0,,,-28.0,254.4,,0.7,2.0,4.998,,,0.653,0.817,0.0,14.9,,,,,,0.0,2025-11-22 13:05:14-08:00
21.81,1.0,10.0,2025-11-22 21:05:31,37.08157,-121.59962,298.0,0.0,136.4,-12.6,,,,,21:05:30,10.9,-0.9,49.5,0.0,176.0,0.1,-0.01,1.0,,-58.0,19.0,0.0,30.07,734.0,,,323.0,,,,,0.0,0.0,,,,,,,,,,,,,,,,,,,0.0,15.0,0.0,0.0,30.1,0.0,,0.0,0.7,,,40.0,0.0,0.0,-0.6,0.1,0.0,,,,,16.0,19.0,16.0,22.0,16.0,19.0,17.0,21.0,,,-29.0,254.4,,0.7,2.0,4.998,,,0.653,0.817,0.0,14.9,,,,,,0.0,2025-11-22 13:05:14-08:00
22.06,1.0,10.0,2025-11-22 21:05:31,37.08157,-121.59962,298.0,0.0,136.4,-12.6,,,,,21:05:31,10.9,-0.9,49.6,0.0,176.0,0.1,-0.02,1.0,,-58.0,19.0,0.0,30.07,734.0,,,323.0,,,,,0.0,0.0,,,,,,,,,,,,,,,,,,,0.0,15.0,0.0,0.0,30.1,0.0,,0.0,0.7,,,40.0,0.0,0.0,-0.6,0.1,0.0,,,,,16.0,19.0,16.0,22.0,16.0,19.0,17.0,21.0,,,-29.0,254.4,,0.7,2.0,4.998,,,0.653,0.817,0.0,14.9,,,,,,0.0,2025-11-22 13:05:14-08:00
22.31,1.0,10.0,2025-11-22 21:05:31,37.08157,-121.59962,297.0,0.1,136.4,-12.6,,,,,21:05:31,10.9,-0.9,49.5,0.0,176.0,0.1,-0.01,1.0,,-56.0,19.0,0.0,30.07,740.0,,,323.0,,,,,0.0,0.0,,,,,,,,,,,,,,,,,,,0.0,15.0,0.0,0.0,30.1,0.0,,0.0,0.7,,,40.0,0.0,0.0,-0.7,0.1,0.0,,,,,16.0,19.0,16.0,22.0,16.0,19.0,17.0,21.0,,,-29.0,254.4,,0.7,2.0,4.998,,,0.653,0.817,0.0,14.9,,,,,,0.0,2025-11-22 13:05:14-08:00
22.56,1.0,10.0,2025-11-22 21:05:31,37.08157,-121.59962,297.0,0.0,136.4,-12.6,,,,,21:05:31,10.9,-0.8,49.5,0.0,176.0,0.1,-0.01,1.0,,-45.0,19.0,0.0,30.07,740.0,,,323.0,,,,,0.0,0.0,,,,,,,,,,,,,,,,,,,0.0,15.0,0.0,0.0,30.1,0.0,,0.0,0.7,,,40.0,0.0,0.0,-0.6,0.1,0.0,,,,,16.0,19.0,16.0,22.0,16.0,19.0,17.0,21.0,,,-28.0,254.4,,0.7,2.0,4.998,,,0.653,0.817,0.0,14.9,,,,,,0.0,2025-11-22 13:05:14-08:00
22.81,1.0,10.0,2025-11-22 21:05:32,37.08157,-121.59962,296.0,0.0,136.4,-12.6,,,,,21:05:31,10.9,-0.8,49.5,0.0,176.0,0.0,-0.02,1.0,,-28.0,19.0,0.0,30.07,740.0,,,323.0,,,,,0.0,0.0,,,,,,,,,,,,,,,,,,,0.0,15.0,0.0,0.0,30.1,0.0,,0.0,0.7,,,40.0,0.0,0.0,-0.7,0.1,0.0,,,,,16.0,19.0,16.0,22.0,16.0,19.0,17.0,21.0,,,-28.0,254.4,,0.7,2.0,4.998,,,0.653,0.817,0.0,14.9,,,,,,0.0,2025-11-22 13:05:14-08:00
23.06,1.0,10.0,2025-11-22 21:05:32,37.08157,-121.59962,296.0,0.0,136.4,-12.6,,,,,21:05:32,10.9,-0.8,49.6,0.0,176.0,0.1,-0.01,1.0,,-16.0,19.0,0.0,30.07,740.0,,,323.0,,,,,0.0,0.0,,,,,,,,,,,,,,,,,,,0.0,15.0,0.0,0.0,30.1,0.0,,0.0,0.7,,,40.0,0.0,0.0,-0.7,0.1,0.0,,,,,16.0,19.0,16.0,22.0,16.0,19.0,17.0,21.0,,,-28.0,254.4,,0.7,2.0,4.998,,,0.653,0.817,0.0,14.9,,,,,,0.0,2025-11-22 13:05:14-08:00
23.31,1.0,10.0,2025-11-22 21:05:32,37.08157,-121.59962,296.0,0.1,136.4,-12.6,,,,,21:05:32,10.9,-0.8,49.5,0.0,176.0,0.1,-0.02,1.0,,-22.0,19.0,0.0,30.07,740.0,,,323.0,,,,,0.0,0.0,,,,,,,,,,,,,,,,,,,0.0,15.0,0.0,0.0,30.1,0.0,,0.0,0.7,,,40.0,0.0,0.0,-0.7,0.1,0.0,,,,,16.0,19.0,16.0,22.0,16.0,19.0,17.0,21.0,,,-28.0,254.4,,0.7,2.0,4.998,,,0.653,0.817,0.0,14.9,,,,,,0.0,2025-11-22 13:05:14-08:00
23.56,1.0,10.0,2025-11-22 21:05:32,37.08157,-121.59962,295.0,0.0,136.4,-12.6,,,,,21:05:32,10.9,-0.8,49.6,0.0,176.0,0.1,-0.01,1.0,,-15.0,19.0,0.0,30.07,740.0,,,323.0,,,,,0.0,0.0,,,,,,,,,,,,,,,,,,,0.0,15.0,0.0,0.0,30.1,0.0,,0.0,0.7,,,40.0,0.0,0.0,-0.7,0.1,0.0,,,,,16.0,19.0,16.0,22.0,16.0,19.0,17.0,21.0,,,-28.0,254.4,,0.7,2.0,4.998,,,0.653,0.817,0.0,14.9,,,,,,0.0,2025-11-22 13:05:14-08:00
23.81,1.0,10.0,2025-11-22 21:05:33,37.08157,-121.59962,295.0,0.1,136.4,-12.6,,,,,21:05:32,10.9,-0.8,49.5,0.0,176.0,0.0,-0.01,1.0,,-9.0,19.0,0.0,30.07,740.0,,,323.0,,,,,0.0,0.0,,,,,,,,,,,,,,,,,,,0.0,15.0,0.0,0.0,30.1,0.0,,0.0,0.7,,,40.0,0.0,0.0,-0.7,0.1,0.0,,,,,16.0,19.0,16.0,22.0,16.0,19.0,17.0,21.0,,,-28.0,254.4,,0.7,2.0,4.998,,,0.653,0.817,0.0,14.9,,,,,,0.0,2025-11-22 13:05:14-08:00
24.06,1.0,10.0,2025-11-22 21:05:33,37.08157,-121.59962,295.0,0.1,136.4,-12.6,,,,,21:05:33,10.9,-0.8,49.5,0.0,176.0,0.0,-0.02,1.0,,-8.0,19.0,0.0,30.07,740.0,,,323.0,,,,,0.0,0.0,,,,,,,,,,,,,,,,,,,0.0,15.0,0.0,0.0,30.1,0.0,,0.0,0.7,,,40.0,0.0,0.0,-0.7,0.1,0.0,,,,,16.0,19.0,16.0,22.0,16.0,19.0,17.0,21.0,,,-28.0,254.4,,0.7,2.0,4.998,,,0.653,0.817,0.0,14.9,,,,,,0.0,2025-11-22 13:05:14-08:00
24.31,1.0,10.0,2025-11-22 21:05:33,37.08157,-121.59962,295.0,0.0,136.4,-12.6,,,,,21:05:33,10.9,-0.8,49.6,0.0,176.0,0.0,-0.02,1.0,,-37.0,19.0,0.0,30.07,740.0,,,323.0,,,,,0.0,0.0,,,,,,,,,,,,,,,,,,,0.0,15.0,0.0,0.0,30.1,0.0,,0.0,0.7,,,40.0,0.0,0.0,-0.7,0.1,0.0,,,,,16.0,19.0,16.0,22.0,16.0,19.0,17.0,21.0,,,-29.0,254.4,,0.7,2.0,4.998,,,0.653,0.817,0.0,14.9,,,,,,0.0,2025-11-22 13:05:14-08:00
24.56,1.0,10.0,2025-11-22 21:05:33,37.08157,-121.59962,294.0,0.0,136.4,-12.6,,,,,21:05:33,10.9,-0.8,49.5,0.0,176.0,0.0,-0.01,1.0,,-27.0,19.0,0.0,30.07,740.0,,,323.0,,,,,0.0,0.0,,,,,,,,,,,,,,,,,,,0.0,15.0,0.0,0.0,30.1,0.0,,0.0,0.7,,,40.0,0.0,0.0,-0.7,0.1,0.0,,,,,16.0,19.0,16.0,22.0,16.0,19.0,17.0,21.0,,,-29.0,254.4,,0.7,2.0,4.998,,,0.653,0.817,0.0,14.9,,,,,,0.0,2025-11-22 13:05:14-08:00
24.81,1.0,10.0,2025-11-22 21:05:34,37.08157,-121.59962,294.0,0.0,136.4,-12.6,,,,,21:05:33,10.9,-0.8,49.5,0.0,176.0,0.0,-0.01,1.0,,-32.0,19.0,0.0,30.07,740.0,,,323.0,,,,,0.0,0.0,,,,,,,,,,,,,,,,,,,0.0,15.0,0.0,0.0,30.1,0.0,,0.0,0.7,,,40.0,0.0,0.0,-0.7,0.1,0.0,,,,,16.0,19.0,16.0,22.0,16.0,19.0,17.0,21.0,,,-29.0,254.4,,0.7,2.0,4.998,,,0.653,0.817,0.0,14.9,,,,,,0.0,2025-11-22 13:05:14-08:00
25.06,1.0,10.0,2025-11-22 21:05:34,37.08157,-121.59962,294.0,0.0,136.4,-12.6,,,,,21:05:34,10.9,-0.8,49.5,0.0,175.0,0.0,-0.01,1.0,,-18.0,19.0,0.0,30.07,740.0,,,323.0,,,,,0.0,0.0,,,,,,,,,,,,,,,,,,,0.0,15.0,0.0,0.0,30.1,0.0,,0.0,0.7,,,40.0,0.0,0.0,-0.7,0.1,0.0,,,,,16.0,19.0,16.0,22.0,16.0,19.0,17.0,21.0,,,-28.0,254.4,,0.7,2.0,4.998,,,0.653,0.817,0.0,14.9,,,,,,0.0,2025-11-22 13:05:14-08:00
25.31,1.0,10.0,2025-11-22 21:05:34,37.08157,-121.59962,294.0,0.0,136.4,-12.6,,,,,21:05:34,10.9,-0.8,49.5,0.0,175.0,0.0,-0.01,1.0,,-42.0,19.0,0.0,30.07,739.0,,,323.0,,,,,0.0,0.0,,,,,,,,,,,,,,,,,,,0.0,15.0,0.0,0.0,30.1,0.0,,0.0,0.7,,,40.0,0.0,0.0,-0.7,0.1,0.0,,,,,16.0,19.0,16.0,22.0,16.0,19.0,17.0,21.0,,,-28.0,254.4,,0.7,2.0,4.998,,,0.653,0.817,0.0,14.9,,,,,,0.0,2025-11-22 13:05:14-08:00
25.56,1.0,10.0,2025-11-22 21:05:34,37.08157,-121.59962,293.0,0.0,136.4,-12.6,,,,,21:05:34,10.9,-0.8,49.5,0.0,175.0,0.0,-0.01,1.0,,-47.0,19.0,0.0,30.07,739.0,,,323.0,,,,,0.0,0.0,,,,,,,,,,,,,,,,,,,0.0,15.0,0.0,0.0,30.1,0.0,,0.0,0.7,,,40.0,0.0,0.0,-0.7,0.1,0.0,,,,,16.0,19.0,16.0,22.0,16.0,19.0,17.0,21.0,,,-29.0,254.4,,0.7,2.0,4.998,,,0.653,0.817,0.0,14.9,,,,,,0.0,2025-11-22 13:05:14-08:00
25.81,1.0,10.0,2025-11-22 21:05:35,37.08157,-121.59962,293.0,0.0,136.4,-12.6,,,,,21:05:34,10.9,-0.8,49.5,0.0,174.0,0.0,-0.01,1.0,,-48.0,19.0,0.0,30.07,739.0,,,323.0,,,,,0.0,0.0,,,,,,,,,,,,,,,,,,,0.0,15.0,0.0,0.0,30.1,0.0,,0.0,0.7,,,40.0,0.0,0.0,-0.7,0.1,0.0,,,,,16.0,19.0,16.0,22.0,16.0,19.0,17.0,21.0,,,-28.0,254.4,,0.7,2.0,4.998,,,0.653,0.817,0.0,14.9,,,,,,0.0,2025-11-22 13:05:14-08:00
26.06,1.0,10.0,2025-11-22 21:05:35,37.08157,-121.59962,293.0,0.0,136.4,-12.6,,,,,21:05:35,10.9,-0.8,49.5,0.0,174.0,0.0,-0.01,1.0,,-32.0,19.0,0.0,30.07,739.0,,,323.0,,,,,0.0,0.0,,,,,,,,,,,,,,,,,,,0.0,15.0,0.0,0.0,30.1,0.0,,0.0,0.7,,,40.0,0.0,0.0,-0.7,0.1,0.0,,,,,16.0,19.0,16.0,22.0,17.0,19.0,17.0,22.0,,,-28.0,254.4,,0.7,2.0,4.998,,,0.653,0.817,0.0,14.9,,,,,,0.0,2025-11-22 13:05:14-08:00
26.31,1.0,10.0,2025-11-22 21:05:35,37.08157,-121.59962,293.0,0.1,136.4,-12.6,,,,,21:05:35,10.9,-0.8,49.5,0.0,174.0,0.1,-0.01,1.0,,-4.0,19.0,0.0,30.07,739.0,,,323.0,,,,,0.0,0.0,,,,,,,,,,,,,,,,,,,0.0,15.0,0.0,0.0,30.1,0.0,,0.0,0.7,,,40.0,0.0,0.0,-0.7,0.1,0.0,,,,,16.0,19.0,16.0,22.0,17.0,19.0,17.0,22.0,,,-28.0,254.4,,0.7,2.0,4.998,,,0.653,0.817,0.0,14.9,,,,,,0.0,2025-11-22 13:05:14-08:00
26.56,1.0,10.0,2025-11-22 21:05:35,37.08157,-121.59962,293.0,0.0,136.4,-12.6,,,,,21:05:35,10.9,-0.8,49.6,0.0,174.0,0.1,-0.01,1.0,,-7.0,19.0,0.0,30.07,739.0,,,323.0,,,,,0.0,0.0,,,,,,,,,,,,,,,,,,,0.0,15.0,0.0,0.0,30.1,0.0,,0.0,0.7,,,40.0,0.0,0.0,-0.7,0.1,0.0,,,,,16.0,19.0,16.0,22.0,17.0,19.0,17.0,22.0,,,-28.0,254.4,,0.7,2.0,4.998,,,0.653,0.817,0.0,14.9,,,,,,0.0,2025-11-22 13:05:14-08:00
26.81,1.0,10.0,2025-11-22 21:05:36,37.08157,-121.59962,292.0,0.0,136.4,-12.6,,,,,21:05:35,10.9,-0.8,49.6,0.0,174.0,0.1,-0.01,1.0,,-15.0,20.0,0.0,30.07,739.0,,,323.0,,,,,0.0,0.0,,,,,,,,,,,,,,,,,,,0.0,15.0,0.0,0.0,30.1,0.0,,0.0,0.7,,,40.0,0.0,0.0,-0.7,0.1,0.0,,,,,16.0,19.0,16.0,22.0,17.0,19.0,17.0,22.0,,,-29.0,254.4,,0.7,2.0,4.998,,,0.653,0.817,0.0,14.9,,,,,,0.0,2025-11-22 13:05:14-08:00
27.06,1.0,10.0,2025-11-22 21:05:36,37.08157,-121.59962,292.0,0.0,136.4,-12.6,,,,,21:05:36,10.9,-0.8,49.6,0.0,174.0,0.1,-0.01,1.0,,-14.0,20.0,0.0,30.07,739.0,,,323.0,,,,,0.0,0.0,,,,,,,,,,,,,,,,,,,0.0,15.0,0.0,0.0,30.1,0.0,,0.0,0.7,,,40.0,0.0,0.0,-0.7,0.1,0.0,,,,,16.0,19.0,16.0,22.0,17.0,19.0,17.0,22.0,,,-28.0,254.4,,0.7,2.0,4.998,,,0.653,0.817,0.0,14.9,,,,,,0.0,2025-11-22 13:05:14-08:00
27.31,1.0,10.0,2025-11-22 21:05:36,37.08157,-121.59962,292.0,0.0,136.4,-12.6,,,,,21:05:36,10.9,-0.8,49.5,0.0,174.0,0.0,-0.01,1.0,,-8.0,20.0,0.0,30.07,739.0,,,323.0,,,,,0.0,0.0,,,,,,,,,,,,,,,,,,,0.0,15.0,0.0,0.0,30.1,0.0,,0.0,0.7,,,40.0,0.0,0.0,-0.7,0.1,0.0,,,,,16.0,19.0,16.0,22.0,17.0,19.0,17.0,22.0,,,-28.0,254.4,,0.7,2.0,4.998,,,0.653,0.817,0.0,14.9,,,,,,0.0,2025-11-22 13:05:14-08:00
27.56,1.0,10.0,2025-11-22 21:05:36,37.08157,-121.59962,292.0,0.0,136.4,-12.6,,,,,21:05:36,10.9,-0.8,49.5,0.0,174.0,0.0,-0.01,1.0,,-5.0,20.0,0.0,30.07,739.0,,,323.0,,,,,0.0,0.0,,,,,,,,,,,,,,,,,,,0.0,15.0,0.0,0.0,30.1,0.0,,0.0,0.7,,,40.0,0.0,0.0,-0.7,0.1,0.0,,,,,16.0,19.0,16.0,22.0,17.0,19.0,17.0,22.0,,,-29.0,254.4,,0.7,2.0,4.998,,,0.653,0.817,0.0,14.9,,,,,,0.0,2025-11-22 13:05:14-08:00
27.81,1.0,10.0,2025-11-22 21:05:37,37.08157,-121.59962,292.0,0.0,136.4,-12.6,,,,,21:05:36,10.9,-0.8,49.6,0.0,174.0,0.1,-0.01,1.0,,-33.0,20.0,0.0,30.07,739.0,,,323.0,,,,,0.0,0.0,,,,,,,,,,,,,,,,,,,0.0,15.0,0.0,0.0,30.1,0.0,,0.0,0.7,,,40.0,0.0,0.0,-0.7,0.1,0.0,,,,,16.0,19.0,16.0,22.0,17.0,19.0,17.0,22.0,,,-28.0,254.4,,0.7,2.0,4.998,,,0.653,0.817,0.0,14.9,,,,,,0.0,2025-11-22 13:05:14-08:00
28.06,1.0,10.0,2025-11-22 21:05:37,37.08158,-121.59962,292.0,0.0,136.4,-12.6,,,,,21:05:37,10.9,-0.8,49.5,0.0,174.0,0.0,-0.01,1.0,,-26.0,20.0,0.0,30.07,739.0,,,323.0,,,,,0.0,0.0,,,,,,,,,,,,,,,,,,,0.0,15.0,0.0,0.0,30.1,0.0,,0.0,0.7,,,40.0,0.0,0.0,-0.7,0.1,0.0,,,,,16.0,19.0,16.0,22.0,17.0,19.0,17.0,22.0,,,-28.0,254.4,,0.7,2.0,4.998,,,0.653,0.817,0.0,14.9,,,,,,0.0,2025-11-22 13:05:14-08:00
28.31,1.0,10.0,2025-11-22 21:05:37,37.08158,-121.59962,292.0,0.0,136.4,-12.6,,,,,21:05:37,10.9,-0.8,49.5,0.0,174.0,0.0,-0.01,1.0,,-19.0,20.0,0.0,30.07,749.0,,,323.0,,,,,0.0,0.0,,,,,,,,,,,,,,,,,,,0.0,15.0,0.0,0.0,30.1,0.0,,0.0,0.7,,,40.0,0.0,0.0,-0.7,0.1,0.0,,,,,16.0,19.0,16.0,22.0,17.0,19.0,17.0,22.0,,,-29.0,254.4,,0.7,2.0,4.998,,,0.653,0.817,0.0,14.9,,,,,,0.0,2025-11-22 13:05:14-08:00
28.56,1.0,10.0,2025-11-22 21:05:37,37.08158,-121.59962,292.0,0.0,136.4,-12.6,,,,,21:05:37,10.9,-0.8,49.5,0.0,174.0,0.0,-0.01,1.0,,-28.0,20.0,0.0,30.07,749.0,,,323.0,,,,,0.0,0.0,,,,,,,,,,,,,,,,,,,0.0,15.0,0.0,0.0,30.1,0.0,,0.0,0.7,,,40.0,0.0,0.0,-0.7,0.1,0.0,,,,,16.0,19.0,16.0,22.0,17.0,19.0,17.0,22.0,,,-29.0,254.4,,0.7,2.0,4.998,,,0.653,0.817,0.0,14.9,,,,,,0.0,2025-11-22 13:05:14-08:00
28.81,1.0,10.0,2025-11-22 21:05:38,37.08158,-121.59962,292.0,0.0,136.4,-12.6,,,,,21:05:37,10.9,-0.8,49.5,0.0,174.0,0.0,-0.01,1.0,,-35.0,20.0,0.0,30.07,749.0,,,323.0,,,,,0.0,0.0,,,,,,,,,,,,,,,,,,,0.0,15.0,0.0,0.0,30.1,0.0,,0.0,0.7,,,40.0,0.0,0.0,-0.7,0.1,0.0,,,,,16.0,19.0,16.0,22.0,17.0,19.0,17.0,22.0,,,-28.0,254.4,,0.7,2.0,4.998,,,0.653,0.817,0.0,14.9,,,,,,0.0,2025-11-22 13:05:14-08:00
29.06,1.0,10.0,2025-11-22 21:05:38,37.08158,-121.59962,292.0,0.0,136.4,-12.6,,,,,21:05:38,10.9,-0.8,49.5,0.0,173.0,0.0,-0.01,1.0,,-53.0,20.0,0.0,30.07,749.0,,,323.0,,,,,0.0,0.0,,,,,,,,,,,,,,,,,,,0.0,15.0,0.0,0.0,30.1,0.0,,0.0,0.7,,,40.0,0.0,0.0,-0.7,0.1,0.0,,,,,16.0,19.0,16.0,22.0,17.0,19.0,17.0,22.0,,,-28.0,254.4,,0.7,2.0,4.998,,,0.653,0.817,0.0,14.9,,,,,,0.0,2025-11-22 13:05:14-08:00
29.31,1.0,10.0,2025-11-22 21:05:38,37.08158,-121.59962,292.0,0.0,136.4,-12.6,,,,,21:05:38,10.9,-0.8,49.5,0.0,172.0,0.0,-0.01,1.0,,-56.0,20.0,0.0,30.07,749.0,,,323.0,,,,,0.0,0.0,,,,,,,,,,,,,,,,,,,0.0,15.0,0.0,0.0,30.1,0.0,,0.0,0.7,,,40.0,0.0,0.0,-0.7,0.1,0.0,,,,,16.0,19.0,16.0,22.0,17.0,19.0,17.0,22.0,,,-28.0,254.4,,0.7,2.0,4.998,,,0.653,0.817,0.0,14.9,,,,,,0.0,2025-11-22 13:05:14-08:00
29.56,1.0,10.0,2025-11-22 21:05:38,37.08158,-121.59962,292.0,0.0,136.4,-12.6,,,,,21:05:38,10.9,-0.9,49.4,0.0,172.0,0.0,-0.01,1.0,,-18.0,20.0,0.0,30.07,749.0,,,323.0,,,,,0.0,0.0,,,,,,,,,,,,,,,,,,,0.0,15.0,0.0,0.0,30.1,0.0,,0.0,0.7,,,40.0,0.0,0.0,-0.7,0.1,0.0,,,,,16.0,19.0,16.0,22.0,17.0,19.0,17.0,22.0,,,-28.0,254.4,,0.7,2.0,4.998,,,0.653,0.817,0.0,14.9,,,,,,0.0,2025-11-22 13:05:14-08:00
29.81,1.0,10.0,2025-11-22 21:05:39,37.08158,-121.59962,292.0,0.0,136.4,-12.6,,,,,21:05:38,10.9,-0.9,49.4,0.0,172.0,-0.0,-0.01,1.0,,-16.0,20.0,0.0,30.07,749.0,,,323.0,,,,,0.0,0.0,,,,,,,,,,,,,,,,,,,0.0,15.0,0.0,0.0,30.1,0.0,,0.0,0.7,,,40.0,0.0,0.0,-0.7,0.1,0.0,,,,,16.0,19.0,16.0,22.0,17.0,19.0,17.0,22.0,,,-28.0,254.4,,0.7,2.0,4.998,,,0.653,0.817,0.0,14.9,,,,,,0.0,2025-11-22 13:05:14-08:00
30.06,1.0,10.0,2025-11-22 21:05:39,37.08158,-121.59962,292.0,0.0,136.4,-12.6,,,,,21:05:39,10.9,-0.9,49.4,0.0,172.0,-0.0,-0.01,1.0,,-9.0,20.0,0.0,30.07,749.0,,,323.0,,,,,0.0,0.0,,,,,,,,,,,,,,,,,,,0.0,15.0,0.0,0.0,30.1,0.0,,0.0,0.7,,,40.0,0.0,0.0,-0.7,0.1,0.0,,,,,16.0,19.0,16.0,22.0,17.0,19.0,17.0,22.0,,,-28.0,254.4,,0.7,2.0,4.998,,,0.653,0.817,0.0,14.9,,,,,,0.0,2025-11-22 13:05:14-08:00
30.31,1.0,10.0,2025-11-22 21:05:39,37.08158,-121.59962,292.0,0.0,136.4,-12.6,,,,,21:05:39,10.9,-0.9,49.4,0.0,172.0,0.0,-0.01,1.0,,-35.0,20.0,0.0,30.07,749.0,,,323.0,,,,,0.0,0.0,,,,,,,,,,,,,,,,,,,0.0,15.0,0.0,0.0,30.1,0.0,,0.0,0.7,,,40.0,0.0,0.0,-0.7,0.1,0.0,,,,,16.0,19.0,16.0,22.0,17.0,19.0,17.0,22.0,,,-28.0,254.4,,0.7,2.0,4.998,,,0.653,0.817,0.0,14.9,,,,,,0.0,2025-11-22 13:05:14-08:00
30.56,1.0,10.0,2025-11-22 21:05:39,37.08158,-121.59962,292.0,0.0,136.4,-12.6,,,,,21:05:39,10.9,-0.8,49.4,0.0,172.0,0.0,-0.01,1.0,,-32.0,20.0,0.0,30.07,749.0,,,323.0,,,,,0.0,0.0,,,,,,,,,,,,,,,,,,,0.0,15.0,0.0,0.0,30.1,0.0,,0.0,0.7,,,40.0,0.0,0.0,-0.7,0.1,0.0,,,,,16.0,19.0,16.0,22.0,17.0,19.0,17.0,22.0,,,-29.0,254.4,,0.7,2.0,4.998,,,0.653,0.817,0.0,14.9,,,,,,0.0,2025-11-22 13:05:14-08:00
30.81,1.0,10.0,2025-11-22 21:05:40,37.08158,-121.59962,292.0,0.0,136.4,-12.6,,,,,21:05:39,10.9,-0.8,49.5,0.0,172.0,0.0,-0.01,1.0,,-36.0,20.0,0.0,30.07,749.0,,,323.0,,,,,0.0,0.0,,,,,,,,,,,,,,,,,,,0.0,15.0,0.0,0.0,30.1,0.0,,0.0,0.7,,,40.0,0.0,0.0,-0.7,0.1,0.0,,,,,16.0,19.0,16.0,22.0,17.0,19.0,17.0,22.0,,,-29.0,254.4,,0.7,2.0,4.998,,,0.653,0.817,0.0,14.9,,,,,,0.0,2025-11-22 13:05:14-08:00
31.06,1.0,10.0,2025-11-22 21:05:40,37.08158,-121.59962,292.0,0.0,136.4,-12.6,,,,,21:05:40,10.9,-0.8,49.5,0.0,172.0,0.0,-0.01,1.0,,-44.0,20.0,0.0,30.07,749.0,,,323.0,,,,,0.0,0.0,,,,,,,,,,,,,,,,,,,0.0,15.0,0.0,0.0,30.1,0.0,,0.0,0.7,,,40.0,0.0,0.0,-0.7,0.1,0.0,,,,,16.0,19.0,16.0,22.0,17.0,19.0,17.0,22.0,,,-28.0,254.4,,0.7,2.0,4.998,,,0.653,0.817,0.0,14.9,,,,,,0.0,2025-11-22 13:05:14-08:00
31.31,1.0,10.0,2025-11-22 21:05:40,37.08158,-121.59962,292.0,0.0,136.4,-12.6,,,,,21:05:40,10.9,-0.8,49.4,0.0,172.0,0.0,-0.01,1.0,,-48.0,20.0,0.0,30.07,747.0,,,323.0,,,,,0.0,0.0,,,,,,,,,,,,,,,,,,,0.0,15.0,0.0,0.0,30.1,0.0,,0.0,0.7,,,40.0,0.0,0.0,-0.7,0.1,0.0,,,,,16.0,19.0,16.0,22.0,17.0,19.0,17.0,22.0,,,-29.0,254.4,,0.7,2.0,4.998,,,0.653,0.817,0.0,14.9,,,,,,0.0,2025-11-22 13:05:14-08:00
31.56,1.0,10.0,2025-11-22 21:05:40,37.08158,-121.59962,293.0,0.0,136.4,-12.6,,,,,21:05:40,10.9,-0.9,49.4,0.0,171.0,0.0,-0.01,1.0,,-48.0,20.0,0.0,30.07,747.0,,,323.0,,,,,0.0,0.0,,,,,,,,,,,,,,,,,,,0.0,15.0,0.0,0.0,30.1,0.0,,0.0,0.7,,,40.0,0.0,0.0,-0.7,0.1,0.0,,,,,16.0,19.0,16.0,22.0,17.0,19.0,17.0,22.0,,,-29.0,254.4,,0.7,2.0,4.998,,,0.653,0.817,0.0,14.9,,,,,,0.0,2025-11-22 13:05:14-08:00
31.81,1.0,10.0,2025-11-22 21:05:41,37.08158,-121.59962,293.0,0.0,136.4,-12.6,,,,,21:05:40,10.9,-0.9,49.4,0.0,171.0,0.0,-0.01,1.0,,-57.0,20.0,0.0,30.07,747.0,,,323.0,,,,,0.0,0.0,,,,,,,,,,,,,,,,,,,0.0,15.0,0.0,0.0,30.1,0.0,,0.0,0.7,,,40.0,0.0,0.0,-0.7,0.1,0.0,,,,,16.0,19.0,16.0,22.0,17.0,19.0,17.0,22.0,,,-29.0,254.4,,0.7,2.0,4.998,,,0.653,0.817,0.0,14.9,,,,,,0.0,2025-11-22 13:05:14-08:00
32.06,1.0,10.0,2025-11-22 21:05:41,37.08158,-121.59962,293.0,0.0,136.4,-12.6,,,,,21:05:41,10.9,-0.9,49.5,0.0,171.0,0.0,-0.01,1.0,,-51.0,20.0,0.0,30.07,747.0,,,323.0,,,,,0.0,0.0,,,,,,,,,,,,,,,,,,,0.0,15.0,0.0,0.0,30.1,0.0,,0.0,0.7,,,40.0,0.0,0.0,-0.7,0.1,0.0,,,,,16.0,19.0,16.0,22.0,17.0,19.0,17.0,22.0,,,-29.0,254.4,,0.7,2.0,4.998,,,0.653,0.817,0.0,14.9,,,,,,0.0,2025-11-22 13:05:14-08:00
32.31,1.0,10.0,2025-11-22 21:05:41,37.08158,-121.59962,293.0,0.0,136.4,-12.6,,,,,21:05:41,10.9,-0.9,49.5,0.0,171.0,0.1,-0.01,1.0,,-48.0,20.0,0.0,30.07,747.0,,,323.0,,,,,0.0,0.0,,,,,,,,,,,,,,,,,,,0.0,15.0,0.0,0.0,30.1,0.0,,0.0,0.7,,,40.0,0.0,0.0,-0.7,0.1,0.0,,,,,16.0,19.0,16.0,22.0,17.0,19.0,17.0,22.0,,,-29.0,254.4,,0.7,2.0,4.998,,,0.653,0.817,0.0,14.9,,,,,,0.0,2025-11-22 13:05:14-08:00
32.56,1.0,10.0,2025-11-22 21:05:41,37.08158,-121.59962,293.0,0.0,136.4,-12.6,,,,,21:05:41,10.9,-0.9,49.4,0.0,171.0,0.1,-0.01,1.0,,-41.0,20.0,0.0,30.07,747.0,,,323.0,,,,,0.0,0.0,,,,,,,,,,,,,,,,,,,0.0,15.0,0.0,0.0,30.1,0.0,,0.0,0.7,,,40.0,0.0,0.0,-0.7,0.1,0.0,,,,,16.0,19.0,16.0,22.0,17.0,19.0,17.0,22.0,,,-29.0,254.4,,0.7,2.0,4.998,,,0.653,0.817,0.0,14.9,,,,,,0.0,2025-11-22 13:05:14-08:00
32.81,1.0,10.0,2025-11-22 21:05:42,37.08158,-121.59962,293.0,0.0,136.4,-12.6,,,,,21:05:41,11.0,-0.9,49.4,0.0,171.0,0.0,-0.01,1.0,,-62.0,20.0,0.0,30.07,747.0,,,323.0,,,,,0.0,0.0,,,,,,,,,,,,,,,,,,,0.0,15.0,0.0,0.0,30.1,0.0,,0.0,0.7,,,40.0,0.0,0.0,-0.7,0.1,0.0,,,,,16.0,19.0,16.0,22.0,17.0,19.0,17.0,22.0,,,-29.0,254.4,,0.7,2.0,4.998,,,0.653,0.817,0.0,14.9,,,,,,0.0,2025-11-22 13:05:14-08:00
33.06,1.0,10.0,2025-11-22 21:05:42,37.08158,-121.59962,293.0,0.0,136.4,-12.6,,,,,21:05:42,11.0,-0.9,49.4,0.0,171.0,0.0,-0.01,1.0,,-46.0,20.0,0.0,30.07,747.0,,,323.0,,,,,0.0,0.0,,,,,,,,,,,,,,,,,,,0.0,15.0,0.0,0.0,30.1,0.0,,0.0,0.7,,,40.0,0.0,0.0,-0.7,0.1,0.0,,,,,16.0,19.0,16.0,22.0,17.0,19.0,17.0,22.0,,,-29.0,254.4,,0.7,2.0,4.998,,,0.653,0.817,0.0,14.9,,,,,,0.0,2025-11-22 13:05:14-08:00
33.31,1.0,10.0,2025-11-22 21:05:42,37.08158,-121.59962,293.0,0.0,136.4,-12.6,,,,,21:05:42,11.0,-0.9,49.4,0.0,170.0,0.0,-0.01,1.0,,-69.0,20.0,0.0,30.07,747.0,,,323.0,,,,,0.0,0.0,,,,,,,,,,,,,,,,,,,0.0,15.0,0.0,0.0,30.1,0.0,,0.0,0.7,,,40.0,0.0,0.0,-0.7,0.1,0.0,,,,,16.0,19.0,16.0,22.0,17.0,19.0,17.0,22.0,,,-30.0,254.4,,0.7,2.0,4.998,,,0.653,0.817,0.0,14.9,,,,,,0.0,2025-11-22 13:05:14-08:00
33.56,1.0,10.0,2025-11-22 21:05:42,37.08158,-121.59962,292.0,0.0,136.4,-12.6,,,,,21:05:42,11.0,-0.9,49.4,0.0,169.0,0.0,-0.01,1.0,,-53.0,20.0,0.0,30.07,747.0,,,323.0,,,,,0.0,0.0,,,,,,,,,,,,,,,,,,,0.0,15.0,0.0,0.0,30.1,0.0,,0.0,0.7,,,40.0,0.0,0.0,-0.7,0.1,0.0,,,,,16.0,19.0,16.0,22.0,17.0,19.0,17.0,22.0,,,-30.0,254.4,,0.7,2.0,4.998,,,0.653,0.817,0.0,14.9,,,,,,0.0,2025-11-22 13:05:14-08:00
33.81,1.0,10.0,2025-11-22 21:05:43,37.08158,-121.59962,292.0,0.0,136.4,-12.6,,,,,21:05:42,10.9,-0.9,49.4,0.0,169.0,0.0,-0.01,1.0,,-77.0,20.0,0.0,30.07,747.0,,,323.0,,,,,0.0,0.0,,,,,,,,,,,,,,,,,,,0.0,15.0,0.0,0.0,30.1,0.0,,0.0,0.7,,,40.0,0.0,0.0,-0.7,0.1,0.0,,,,,16.0,19.0,16.0,22.0,17.0,19.0,17.0,22.0,,,-29.0,254.4,,0.7,2.0,4.998,,,0.653,0.817,0.0,14.9,,,,,,0.0,2025-11-22 13:05:14-08:00
34.06,1.0,10.0,2025-11-22 21:05:43,37.08158,-121.59962,293.0,0.0,136.4,-12.6,,,,,21:05:43,10.9,-0.8,49.4,0.0,168.0,0.0,-0.01,1.0,,-72.0,20.0,0.0,30.07,747.0,,,323.0,,,,,0.0,0.0,,,,,,,,,,,,,,,,,,,0.0,15.0,0.0,0.0,30.1,0.0,,0.0,0.7,,,40.0,0.0,0.0,-0.7,0.1,0.0,,,,,16.0,19.0,16.0,22.0,17.0,19.0,17.0,22.0,,,-31.0,254.4,,0.7,2.0,4.998,,,0.653,0.817,0.0,14.9,,,,,,0.0,2025-11-22 13:05:14-08:00
34.31,1.0,10.0,2025-11-22 21:05:43,37.08158,-121.59962,293.0,0.0,136.4,-12.6,,,,,21:05:43,10.9,-0.8,49.4,0.0,168.0,0.0,-0.01,1.0,,-75.0,20.0,0.0,30.07,752.0,,,323.0,,,,,0.0,0.0,,,,,,,,,,,,,,,,,,,0.0,15.0,0.0,0.0,30.1,0.0,,0.0,0.7,,,40.0,0.0,0.0,-0.7,0.1,0.0,,,,,16.0,19.0,16.0,22.0,17.0,19.0,17.0,22.0,,,-31.0,254.4,,0.7,2.0,4.998,,,0.653,0.817,0.0,14.9,,,,,,0.0,2025-11-22 13:05:14-08:00
34.56,1.0,10.0,2025-11-22 21:05:43,37.08158,-121.59962,294.0,0.0,136.4,-12.6,,,,,21:05:43,10.9,-0.8,49.4,0.0,167.0,0.0,-0.01,1.0,,-75.0,20.0,0.0,30.07,752.0,,,323.0,,,,,0.0,0.0,,,,,,,,,,,,,,,,,,,0.0,15.0,0.0,0.0,30.1,0.0,,0.0,0.7,,,40.0,0.0,0.0,-0.7,0.1,0.0,,,,,16.0,19.0,16.0,22.0,17.0,19.0,17.0,22.0,,,-31.0,254.4,,0.7,2.0,4.998,,,0.653,0.817,0.0,14.9,,,,,,0.0,2025-11-22 13:05:14-08:00
34.81,1.0,10.0,2025-11-22 21:05:44,37.08158,-121.59962,294.0,0.0,136.4,-12.6,,,,,21:05:43,10.9,-0.8,49.4,0.0,167.0,0.0,-0.01,1.0,,-65.0,20.0,0.0,30.07,750.0,,,323.0,,,,,0.0,0.0,,,,,,,,,,,,,,,,,,,0.0,15.0,0.0,0.0,30.1,0.0,,0.0,0.7,,,40.0,0.0,0.0,-0.7,0.1,0.0,,,,,16.0,19.0,16.0,22.0,17.0,19.0,17.0,22.0,,,-31.0,254.4,,0.7,2.0,4.998,,,0.653,0.817,0.0,14.9,,,,,,0.0,2025-11-22 13:05:14-08:00
35.06,1.0,10.0,2025-11-22 21:05:44,37.08158,-121.59962,295.0,0.0,136.4,-12.6,,,,,21:05:44,10.9,-0.8,49.4,0.0,167.0,0.0,-0.01,1.0,,-48.0,20.0,0.0,30.07,750.0,,,323.0,,,,,0.0,0.0,,,,,,,,,,,,,,,,,,,0.0,15.0,0.0,0.0,30.1,0.0,,0.0,0.7,,,40.0,0.0,0.0,-0.7,0.1,0.0,,,,,16.0,19.0,16.0,22.0,17.0,19.0,17.0,22.0,,,-30.0,254.4,,0.7,2.0,4.998,,,0.653,0.817,0.0,14.9,,,,,,0.0,2025-11-22 13:05:14-08:00
35.31,1.0,10.0,2025-11-22 21:05:44,37.08158,-121.59962,295.0,0.0,136.4,-12.6,,,,,21:05:44,10.9,-0.8,49.4,0.0,167.0,0.0,-0.01,1.0,,-75.0,20.0,0.0,30.07,750.0,,,323.0,,,,,0.0,0.0,,,,,,,,,,,,,,,,,,,0.0,15.0,0.0,0.0,30.1,0.0,,0.0,0.7,,,40.0,0.0,0.0,-0.7,0.1,0.0,,,,,16.0,19.0,16.0,22.0,17.0,19.0,17.0,22.0,,,-30.0,254.4,,0.7,2.0,4.998,,,0.653,0.817,0.0,14.9,,,,,,0.0,2025-11-22 13:05:14-08:00
35.56,1.0,10.0,2025-11-22 21:05:44,37.08158,-121.59962,295.0,0.0,136.4,-12.6,,,,,21:05:44,10.9,-0.9,49.4,0.0,167.0,0.0,-0.01,1.0,,-69.0,20.0,0.0,30.07,750.0,,,323.0,,,,,0.0,0.0,,,,,,,,,,,,,,,,,,,0.0,15.0,0.0,0.0,30.1,0.0,,0.0,0.7,,,40.0,0.0,0.0,-0.7,0.1,0.0,,,,,16.0,19.0,16.0,23.0,17.0,19.0,17.0,22.0,,,-30.0,254.4,,0.7,2.0,4.998,,,0.653,0.817,0.0,14.9,,,,,,0.0,2025-11-22 13:05:14-08:00
35.81,1.0,10.0,2025-11-22 21:05:45,37.08157,-121.59962,295.0,0.0,136.4,-12.6,,,,,21:05:44,10.9,-0.9,49.4,0.0,166.0,0.0,-0.01,1.0,,-98.0,20.0,0.0,30.07,750.0,,,323.0,,,,,0.0,0.0,,,,,,,,,,,,,,,,,,,0.0,15.0,0.0,0.0,30.1,0.0,,0.0,0.7,,,40.0,0.0,0.0,-0.7,0.1,0.0,,,,,16.0,19.0,16.0,23.0,17.0,19.0,17.0,22.0,,,-30.0,254.4,,0.7,2.0,4.998,,,0.653,0.817,0.0,14.9,,,,,,0.0,2025-11-22 13:05:14-08:00
36.06,1.0,10.0,2025-11-22 21:05:45,37.08157,-121.59962,295.0,0.0,136.4,-12.6,,,,,21:05:45,10.9,-0.8,49.4,0.0,165.0,0.0,-0.01,1.0,,-108.0,20.0,0.0,30.07,750.0,,,323.0,,,,,0.0,0.0,,,,,,,,,,,,,,,,,,,0.0,15.0,0.0,0.0,30.1,0.0,,0.0,0.7,,,40.0,0.0,0.0,-0.7,0.1,0.0,,,,,16.0,19.0,16.0,23.0,17.0,19.0,17.0,22.0,,,-30.0,254.4,,0.7,2.0,4.998,,,0.653,0.817,0.0,14.9,,,,,,0.0,2025-11-22 13:05:14-08:00
36.31,1.0,10.0,2025-11-22 21:05:45,37.08157,-121.59962,296.0,0.0,136.4,-12.6,,,,,21:05:45,10.9,-0.8,49.4,0.0,164.0,0.0,-0.01,1.0,,-117.0,20.0,0.0,30.07,750.0,,,323.0,,,,,0.0,0.0,,,,,,,,,,,,,,,,,,,0.0,15.0,0.0,0.0,30.1,0.0,,0.0,0.7,,,40.0,0.0,0.0,-0.7,0.1,0.0,,,,,16.0,19.0,16.0,23.0,17.0,19.0,17.0,22.0,,,-30.0,254.4,,0.7,2.0,4.998,,,0.653,0.817,0.0,14.9,,,,,,0.0,2025-11-22 13:05:14-08:00
36.56,1.0,10.0,2025-11-22 21:05:45,37.08157,-121.59962,296.0,0.0,136.4,-12.6,,,,,21:05:45,10.9,-0.8,49.4,0.0,164.0,0.0,-0.01,1.0,,-98.0,20.0,0.0,30.07,750.0,,,323.0,,,,,0.0,0.0,,,,,,,,,,,,,,,,,,,0.0,15.0,0.0,0.0,30.1,0.0,,0.0,0.7,,,40.0,0.0,0.0,-0.7,0.1,0.0,,,,,16.0,19.0,16.0,23.0,17.0,19.0,17.0,22.0,,,-29.0,254.4,,0.7,2.0,4.998,,,0.653,0.817,0.0,14.9,,,,,,0.0,2025-11-22 13:05:14-08:00
36.81,1.0,10.0,2025-11-22 21:05:46,37.08157,-121.59962,296.0,0.0,136.4,-12.6,,,,,21:05:45,11.0,-0.8,49.4,0.0,164.0,0.0,-0.01,1.0,,-95.0,20.0,0.0,30.07,750.0,,,323.0,,,,,0.0,0.0,,,,,,,,,,,,,,,,,,,0.0,15.0,0.0,0.0,30.1,0.0,,0.0,0.7,,,40.0,0.0,0.0,-0.7,0.1,0.0,,,,,16.0,19.0,16.0,23.0,17.0,19.0,17.0,22.0,,,-29.0,254.4,,0.7,2.0,4.998,,,0.653,0.817,0.0,14.9,,,,,,0.0,2025-11-22 13:05:14-08:00
37.06,1.0,10.0,2025-11-22 21:05:46,37.08157,-121.59962,296.0,0.0,136.4,-12.6,,,,,21:05:46,11.0,-0.9,49.4,0.0,164.0,0.0,-0.01,1.0,,-80.0,20.0,0.0,30.07,750.0,,,323.0,,,,,0.0,0.0,,,,,,,,,,,,,,,,,,,0.0,15.0,0.0,0.0,30.1,0.0,,0.0,0.7,,,40.0,0.0,0.0,-0.7,0.1,0.0,,,,,16.0,19.0,16.0,23.0,17.0,19.0,17.0,22.0,,,-29.0,254.4,,0.7,2.0,4.998,,,0.653,0.817,0.0,14.9,,,,,,0.0,2025-11-22 13:05:14-08:00
37.31,1.0,10.0,2025-11-22 21:05:46,37.08157,-121.59962,296.0,0.0,136.4,-12.6,,,,,21:05:46,11.0,-0.9,49.4,0.0,164.0,0.0,-0.01,1.0,,-88.0,20.0,0.0,30.07,750.0,,,323.0,,,,,0.0,0.0,,,,,,,,,,,,,,,,,,,0.0,15.0,0.0,0.0,30.1,0.0,,0.0,0.7,,,40.0,0.0,0.0,-0.7,0.1,0.0,,,,,16.0,19.0,16.0,23.0,17.0,19.0,17.0,22.0,,,-29.0,254.4,,0.7,2.0,4.998,,,0.653,0.817,0.0,14.9,,,,,,0.0,2025-11-22 13:05:14-08:00
37.56,1.0,10.0,2025-11-22 21:05:46,37.08157,-121.59962,296.0,0.0,136.4,-12.6,,,,,21:05:46,11.0,-0.9,49.4,0.0,163.0,0.0,-0.01,1.0,,-82.0,20.0,0.0,30.07,750.0,,,323.0,,,,,0.0,0.0,,,,,,,,,,,,,,,,,,,0.0,15.0,0.0,0.0,30.1,0.0,,0.0,0.7,,,40.0,0.0,0.0,-0.7,0.1,0.0,,,,,16.0,19.0,16.0,23.0,17.0,19.0,17.0,22.0,,,-29.0,254.4,,0.7,2.0,4.998,,,0.653,0.817,0.0,14.9,,,,,,0.0,2025-11-22 13:05:14-08:00
37.81,1.0,10.0,2025-11-22 21:05:47,37.08157,-121.59962,297.0,0.0,136.4,-12.6,,,,,21:05:46,11.0,-0.9,49.4,0.0,162.0,0.0,-0.01,1.0,,-102.0,20.0,0.0,30.07,746.0,,,323.0,,,,,0.0,0.0,,,,,,,,,,,,,,,,,,,0.0,15.0,0.0,0.0,30.1,0.0,,0.0,0.7,,,40.0,0.0,0.0,-0.7,0.1,0.0,,,,,16.0,19.0,16.0,23.0,17.0,19.0,17.0,22.0,,,-29.0,254.4,,0.7,2.0,4.998,,,0.653,0.817,0.0,14.9,,,,,,0.0,2025-11-22 13:05:14-08:00
38.06,1.0,10.0,2025-11-22 21:05:47,37.08157,-121.59962,297.0,0.0,136.4,-12.6,,,,,21:05:47,11.0,-0.8,49.4,0.0,162.0,0.0,-0.02,1.0,,-93.0,20.0,0.0,30.07,746.0,,,323.0,,,,,0.0,0.0,,,,,,,,,,,,,,,,,,,0.0,15.0,0.0,0.0,30.1,0.0,,0.0,0.7,,,40.0,0.0,0.0,-0.7,0.1,0.0,,,,,16.0,19.0,16.0,23.0,17.0,19.0,17.0,22.0,,,-29.0,254.4,,0.7,2.0,4.998,,,0.653,0.817,0.0,14.9,,,,,,0.0,2025-11-22 13:05:14-08:00
38.31,1.0,10.0,2025-11-22 21:05:47,37.08157,-121.59962,297.0,0.0,136.4,-12.6,,,,,21:05:47,11.0,-0.8,49.4,0.0,162.0,0.0,-0.01,1.0,,-92.0,20.0,0.0,30.07,746.0,,,323.0,,,,,0.0,0.0,,,,,,,,,,,,,,,,,,,0.0,15.0,0.0,0.0,30.1,0.0,,0.0,0.7,,,40.0,0.0,0.0,-0.7,0.1,0.0,,,,,16.0,19.0,16.0,23.0,17.0,19.0,17.0,22.0,,,-30.0,254.4,,0.7,2.0,4.998,,,0.653,0.817,0.0,14.9,,,,,,0.0,2025-11-22 13:05:14-08:00
38.56,1.0,10.0,2025-11-22 21:05:47,37.08157,-121.59962,297.0,0.0,136.4,-12.6,,,,,21:05:47,11.0,-0.8,49.4,0.0,162.0,0.0,-0.01,1.0,,-71.0,20.0,0.0,30.07,746.0,,,323.0,,,,,0.0,0.0,,,,,,,,,,,,,,,,,,,0.0,15.0,0.0,0.0,30.1,0.0,,0.0,0.7,,,40.0,0.0,0.0,-0.7,0.1,0.0,,,,,16.0,19.0,16.0,23.0,17.0,19.0,17.0,22.0,,,-31.0,254.4,,0.7,2.0,4.998,,,0.653,0.817,0.0,14.9,,,,,,0.0,2025-11-22 13:05:14-08:00
38.81,1.0,10.0,2025-11-22 21:05:48,37.08157,-121.59962,297.0,0.0,136.4,-12.6,,,,,21:05:47,11.0,-0.8,49.4,0.0,162.0,0.0,-0.01,1.0,,-49.0,20.0,0.0,30.07,746.0,,,323.0,,,,,0.0,0.0,,,,,,,,,,,,,,,,,,,0.0,15.0,0.0,0.0,30.1,0.0,,0.0,0.7,,,40.0,0.0,0.0,-0.7,0.1,0.0,,,,,16.0,19.0,16.0,23.0,17.0,19.0,17.0,22.0,,,-31.0,254.4,,0.7,2.0,4.998,,,0.653,0.817,0.0,14.9,,,,,,0.0,2025-11-22 13:05:14-08:00
39.06,1.0,10.0,2025-11-22 21:05:48,37.08157,-121.59962,297.0,0.0,136.4,-12.6,,,,,21:05:48,11.0,-0.8,49.4,0.0,162.0,0.0,-0.01,1.0,,-68.0,20.0,0.0,30.07,746.0,,,323.0,,,,,0.0,0.0,,,,,,,,,,,,,,,,,,,0.0,15.0,0.0,0.0,30.1,0.0,,0.0,0.7,,,40.0,0.0,0.0,-0.7,0.1,0.0,,,,,16.0,19.0,16.0,23.0,17.0,19.0,17.0,22.0,,,-32.0,254.4,,0.7,2.0,4.998,,,0.653,0.817,0.0,14.9,,,,,,0.0,2025-11-22 13:05:14-08:00
39.31,1.0,10.0,2025-11-22 21:05:48,37.08157,-121.59962,298.0,0.0,136.4,-12.6,,,,,21:05:48,11.0,-0.8,49.4,0.0,162.0,0.0,-0.01,1.0,,-52.0,20.0,0.0,30.07,746.0,,,323.0,,,,,0.0,0.0,,,,,,,,,,,,,,,,,,,0.0,15.0,0.0,0.0,30.1,0.0,,0.0,0.7,,,40.0,0.0,0.0,-0.7,0.1,0.0,,,,,16.0,19.0,16.0,23.0,17.0,19.0,17.0,22.0,,,-31.0,254.4,,0.7,2.0,4.998,,,0.653,0.817,0.0,14.9,,,,,,0.0,2025-11-22 13:05:14-08:00
39.56,1.0,10.0,2025-11-22 21:05:48,37.08157,-121.59962,298.0,0.0,136.4,-12.6,,,,,21:05:48,11.0,-0.8,49.4,0.0,161.0,0.0,-0.01,1.0,,-86.0,20.0,0.0,30.07,746.0,,,323.0,,,,,0.0,0.0,,,,,,,,,,,,,,,,,,,0.0,15.0,0.0,0.0,30.1,0.0,,0.0,0.7,,,40.0,0.0,0.0,-0.7,0.1,0.0,,,,,16.0,19.0,16.0,23.0,17.0,19.0,17.0,22.0,,,-32.0,254.2,,0.7,2.0,4.998,,,0.653,0.817,0.0,14.9,,,,,,0.0,2025-11-22 13:05:14-08:00
39.81,1.0,10.0,2025-11-22 21:05:49,37.08157,-121.59962,298.0,0.0,136.4,-12.6,,,,,21:05:48,10.9,-0.8,49.4,0.0,161.0,0.0,-0.01,1.0,,-65.0,20.0,0.0,30.07,746.0,,,323.0,,,,,0.0,0.0,,,,,,,,,,,,,,,,,,,0.0,15.0,0.0,0.0,30.1,0.0,,0.0,0.7,,,40.0,0.0,0.0,-0.7,0.1,0.0,,,,,16.0,19.0,16.0,23.0,17.0,19.0,17.0,22.0,,,-31.0,242.0,,0.7,2.0,4.998,,,0.653,0.817,0.0,14.9,,,,,,0.0,2025-11-22 13:05:14-08:00
40.06,1.0,10.0,2025-11-22 21:05:49,37.08157,-121.59962,298.0,0.0,136.4,-12.6,,,,,21:05:49,10.9,-0.8,49.4,0.0,161.0,0.0,-0.01,1.0,,-69.0,20.0,0.0,30.07,746.0,,,323.0,,,,,0.0,0.0,,,,,,,,,,,,,,,,,,,0.0,15.0,0.0,0.0,30.1,0.0,,0.0,0.7,,,40.0,0.0,0.0,-0.7,0.1,0.0,,,,,16.0,19.0,16.0,23.0,17.0,19.0,17.0,22.0,,,-31.0,227.3,,0.7,2.0,4.998,,,0.653,0.817,0.0,14.9,,,,,,0.0,2025-11-22 13:05:14-08:00
40.31,1.0,10.0,2025-11-22 21:05:49,37.08157,-121.59962,298.0,0.0,136.4,-12.6,,,,,21:05:49,11.0,-0.8,49.4,0.0,160.0,0.0,-0.01,1.0,,-82.0,20.0,0.0,30.07,746.0,,,323.0,,,,,0.0,0.0,,,,,,,,,,,,,,,,,,,0.0,15.0,0.0,0.0,30.1,0.0,,0.0,0.7,,,40.0,0.0,0.0,-0.7,0.1,0.0,,,,,16.0,19.0,16.0,23.0,17.0,19.0,17.0,22.0,,,-31.0,213.4,,0.7,2.0,4.998,,,0.653,0.817,0.0,14.9,,,,,,0.0,2025-11-22 13:05:14-08:00
40.56,1.0,10.0,2025-11-22 21:05:49,37.08157,-121.59962,298.0,0.0,136.4,-12.6,,,,,21:05:49,11.0,-0.8,49.5,0.0,160.0,0.1,-0.01,1.0,,-77.0,20.0,0.0,30.07,746.0,,,323.0,,,,,0.0,0.0,,,,,,,,,,,,,,,,,,,0.0,15.0,0.0,0.0,30.1,0.0,,0.0,0.7,,,40.0,0.0,0.0,-0.7,0.1,0.0,,,,,16.0,19.0,16.0,23.0,17.0,19.0,17.0,22.0,,,-32.0,200.5,,0.7,2.0,4.998,,,0.653,0.817,0.0,14.9,,,,,,0.0,2025-11-22 13:05:14-08:00
40.81,1.0,10.0,2025-11-22 21:05:50,37.08157,-121.59962,299.0,0.0,136.4,-12.6,,,,,21:05:49,11.0,-0.8,49.5,0.0,160.0,0.1,-0.01,1.0,,-65.0,20.0,0.0,30.07,742.0,,,323.0,,,,,0.0,0.0,,,,,,,,,,,,,,,,,,,0.0,15.0,0.0,0.0,30.1,0.0,,0.0,0.7,,,40.0,0.0,0.0,-0.7,0.1,0.0,,,,,16.0,19.0,16.0,23.0,17.0,19.0,17.0,22.0,,,-31.0,188.3,,0.7,2.0,4.998,,,0.653,0.817,0.0,14.9,,,,,,0.0,2025-11-22 13:05:14-08:00
41.06,1.0,10.0,2025-11-22 21:05:50,37.08157,-121.59962,299.0,0.0,136.4,-12.6,,,,,21:05:50,11.0,-0.8,49.5,0.0,159.0,0.1,-0.01,1.0,,-52.0,20.0,0.0,30.07,742.0,,,323.0,,,,,0.0,0.0,,,,,,,,,,,,,,,,,,,0.0,15.0,0.0,0.0,30.1,0.0,,0.0,0.7,,,40.0,0.0,0.0,-0.7,0.1,0.0,,,,,16.0,19.0,16.0,23.0,17.0,19.0,17.0,22.0,,,-31.0,176.9,,0.7,2.0,4.998,,,0.653,0.817,0.0,14.9,,,,,,0.0,2025-11-22 13:05:14-08:00
41.31,1.0,10.0,2025-11-22 21:05:50,37.08157,-121.59962,299.0,0.0,136.4,-12.6,,,,,21:05:50,11.0,-0.8,49.5,0.0,159.0,0.1,-0.01,1.0,,-62.0,20.0,0.0,30.07,742.0,,,323.0,,,,,0.0,0.0,,,,,,,,,,,,,,,,,,,0.0,15.0,0.0,0.0,30.1,0.0,,0.0,0.7,,,40.0,0.0,0.0,-0.7,0.1,0.0,,,,,16.0,19.0,16.0,23.0,17.0,19.0,17.0,22.0,,,-31.0,166.1,,0.7,2.0,4.998,,,0.653,0.817,0.0,14.9,,,,,,0.0,2025-11-22 13:05:14-08:00
41.56,1.0,10.0,2025-11-22 21:05:50,37.08157,-121.59962,299.0,0.0,136.4,-12.6,,,,,21:05:50,11.0,-0.8,49.5,0.0,159.0,0.1,-0.01,1.0,,-52.0,20.0,0.0,30.07,742.0,,,323.0,,,,,0.0,0.0,,,,,,,,,,,,,,,,,,,0.0,15.0,0.0,0.0,30.1,0.0,,0.0,0.7,,,40.0,0.0,0.0,-0.7,0.1,0.0,,,,,16.0,19.0,16.0,23.0,17.0,19.0,17.0,22.0,,,-31.0,156.1,,0.7,2.0,4.998,,,0.653,0.817,0.0,14.9,,,,,,0.0,2025-11-22 13:05:14-08:00
41.81,1.0,10.0,2025-11-22 21:05:51,37.08157,-121.59962,299.0,0.0,136.4,-12.6,,,,,21:05:50,11.0,-0.8,49.5,0.0,159.0,0.1,-0.01,1.0,,-55.0,20.0,0.0,30.07,742.0,,,323.0,,,,,0.0,0.0,,,,,,,,,,,,,,,,,,,0.0,15.0,0.0,0.0,30.1,0.0,,0.0,0.7,,,40.0,0.0,0.0,-0.7,0.1,0.0,,,,,16.0,19.0,16.0,23.0,17.0,19.0,17.0,22.0,,,-31.0,146.6,,0.7,2.0,4.998,,,0.653,0.817,0.0,14.9,,,,,,0.0,2025-11-22 13:05:14-08:00
42.06,1.0,10.0,2025-11-22 21:05:51,37.08157,-121.59961,299.0,0.0,136.4,-12.6,,,,,21:05:51,11.0,-0.8,49.5,0.0,159.0,0.1,-0.01,1.0,,-32.0,20.0,0.0,30.07,742.0,,,323.0,,,,,0.0,0.0,,,,,,,,,,,,,,,,,,,0.0,15.0,0.0,0.0,30.1,0.0,,0.0,0.7,,,40.0,0.0,0.0,-0.7,0.1,0.0,,,,,16.0,19.0,16.0,23.0,17.0,19.0,17.0,22.0,,,-32.0,137.7,,0.7,2.0,4.998,,,0.653,0.817,0.0,14.9,,,,,,0.0,2025-11-22 13:05:14-08:00
