Session Time,GPS Fix Quality,Number of Satellites,GPS Date & Time,Latitude (deg),Longitude (deg),GPS Altitude (feet),Ground Speed (knots),Ground Track (deg),Mag Var (deg),Cross Track Error (NM),Destination Waypoint ID,Range to Destination (NM),Bearing to Destination (deg),System Time,Pitch (deg),Roll (deg),Magnetic Heading (deg),Indicated Airspeed (knots),Pressure Altitude (ft),Turn Rate (deg/s),Lateral Accel (g),Vertical Accel(g),Angle of Attack (%),Vertical Speed (ft/min),OAT (deg C),True Airspeed (knots),Barometer Setting (inHg),Density Altitude (ft),Wind Direction (deg),Wind Speed (knots),Heading Bug (deg),Altitude Bug (ft),Airspeed Bug (knots),Vertical Speed Bug (ft/min),Course (deg),CDI Source Type,CDI Source Port,CDI Scale (NM),CDI Deflection (%),Glideslope (%),AP Engaged,AP Roll Mode,AP Roll Force,AP Roll Position (steps),AP Roll Slip (bool),AP Pitch Force,AP Pitch Position (steps),AP Pitch Slip (bool),AP Yaw Force,AP Yaw Position,AP Yaw Slip (bool),Transponder Status,Transponder Reply (bool),Transponder Identing (bool),Transponder Code (octal),Oil Pressure (PSI),Oil Temp (deg C),RPM L,RPM R,Manifold Pressure (inHg),Fuel Flow 1 (gal/hr),Fuel Flow 2 (gal/hr),Total Fuel Flow (gal/hr),Fuel Pressure (PSI),Fuel Level L (gal),Fuel Level R (gal),Fuel Remaining (gal),Volts 1,Volts 2,Amps,Hobbs Time,Tach Time,Thermocouple 1 (deg C),Thermocouple 2 (deg C),Thermocouple 3 (deg C),Thermocouple 4 (deg C),CHT 4 (deg C),EGT 4 (deg C),CHT 3 (deg C),EGT 3 (deg C),CHT 2 (deg C),EGT 2 (deg C),CHT 1 (deg C),EGT 1 (deg C),Thermocouple 13 (deg C),Thermocouple 14 (deg C),ELEV POSITION (%),CO PPM PRESSURE (PSI),GP Input 3,FUEL PRESSURE (PSI),AILERN POSITION (%),CANOPY CONTACT (V),GP Input 7,GP Input 8,LEFT LEVEL (Sensor V),RIGHT LEVEL (Sensor V),OIL PRESSURE (PSI),OIL TEMPERATURE (deg C),GP Input 13,Contacts,Percent Power,EGT Leaning State,Unnamed: 103,RPM,Flight ID
8.06,1.0,8.0,2026-05-01 22:48:46,37.08171,-121.59971,396.0,0.1,206.1,-12.6,,,,,22:48:46,10.6,-1.0,20.1,0.0,304.0,0.1,-0.02,1.0,99.0,-148.0,32.0,0.0,29.99,2341.0,,,144.0,,,,,0.0,0.0,,,,,,,,,,,,,,,,,,,0.0,24.0,0.0,0.0,29.9,0.0,,0.0,0.1,,,20.1,0.0,0.0,-0.1,13.3,10.9,,,,,25.0,27.0,25.0,27.0,25.0,27.0,26.0,27.0,,,15.0,254.1,,0.1,3.0,4.998,,,1.472,0.835,0.0,23.7,,,,,,0.0,2026-05-01 15:48:46-07:00
9.06,1.0,9.0,2026-05-01 22:48:47,37.08171,-121.59965,342.0,0.0,206.1,-12.6,,,,,22:48:47,10.7,-1.0,20.1,0.0,303.0,0.1,-0.02,1.0,99.0,-152.0,32.0,0.0,29.99,2342.0,,,144.0,,,,,0.0,0.0,,,,,,,,,,,,,,,,,,,0.0,24.0,0.0,0.0,29.9,0.0,,0.0,0.1,,,20.1,0.0,0.0,-0.1,13.3,10.9,,,,,25.0,27.0,25.0,27.0,25.0,27.0,26.0,27.0,,,15.0,254.1,,0.1,3.0,4.998,,,1.472,0.835,0.0,23.7,,,,,,0.0,2026-05-01 15:48:46-07:00
10.06,1.0,10.0,2026-05-01 22:48:48,37.08172,-121.59965,341.0,0.0,206.1,-12.6,,,,,22:48:48,10.6,-1.0,20.1,0.0,301.0,0.1,-0.02,1.0,99.0,-120.0,32.0,0.0,29.99,2342.0,,,144.0,,,,,0.0,0.0,,,,,,,,,,,,,,,,,,,0.0,24.0,0.0,0.0,29.9,0.0,,0.0,0.1,,,20.1,0.0,0.0,-0.1,13.3,10.9,,,,,25.0,27.0,25.0,27.0,26.0,27.0,26.0,27.0,,,15.0,254.1,,0.1,3.0,4.998,,,1.472,0.836,0.0,23.6,,,,,,0.0,2026-05-01 15:48:46-07:00
11.06,1.0,10.0,2026-05-01 22:48:49,37.08172,-121.59965,340.0,0.0,206.1,-12.6,,,,,22:48:49,10.6,-0.9,20.2,0.0,299.0,0.1,-0.01,1.0,99.0,-98.0,32.0,0.0,29.99,2342.0,,,144.0,,,,,0.0,0.0,,,,,,,,,,,,,,,,,,,0.0,24.0,0.0,0.0,29.9,0.0,,0.0,0.1,,,20.1,0.0,0.0,-0.1,13.3,10.9,,,,,25.0,27.0,25.0,27.0,26.0,27.0,26.0,27.0,,,15.0,254.1,,0.1,3.0,4.998,,,1.472,0.835,0.0,23.6,,,,,,0.0,2026-05-01 15:48:46-07:00
12.06,1.0,10.0,2026-05-01 22:48:50,37.08172,-121.59965,340.0,0.0,206.1,-12.6,,,,,22:48:50,10.7,-0.9,20.2,0.0,299.0,0.1,-0.02,1.0,99.0,-80.0,32.0,0.0,29.99,2337.0,,,144.0,,,,,0.0,0.0,,,,,,,,,,,,,,,,,,,0.0,24.0,0.0,0.0,30.0,0.0,,0.0,0.1,,,20.1,0.0,0.0,-0.1,13.3,10.9,,,,,25.0,27.0,25.0,27.0,26.0,27.0,26.0,27.0,,,15.0,254.1,,0.1,3.0,4.998,,,1.472,0.835,0.0,23.6,,,,,,0.0,2026-05-01 15:48:46-07:00
13.06,1.0,10.0,2026-05-01 22:48:51,37.08172,-121.59965,339.0,0.0,206.1,-12.6,,,,,22:48:51,10.7,-0.9,20.1,0.0,298.0,0.1,-0.02,1.0,99.0,-85.0,32.0,0.0,29.99,2338.0,,,144.0,,,,,0.0,0.0,,,,,,,,,,,,,,,,,,,0.0,24.0,0.0,0.0,30.0,0.0,,0.0,0.1,,,20.1,0.0,0.0,-0.1,13.3,10.9,,,,,25.0,27.0,25.0,27.0,26.0,27.0,26.0,27.0,,,15.0,254.1,,0.1,3.0,4.998,,,1.472,0.835,0.0,23.6,,,,,,0.0,2026-05-01 15:48:46-07:00
14.06,1.0,10.0,2026-05-01 22:48:52,37.08172,-121.59965,338.0,0.0,206.1,-12.6,,,,,22:48:52,10.7,-1.0,20.1,0.0,297.0,0.1,-0.02,1.0,99.0,-48.0,32.0,0.0,29.99,2338.0,,,144.0,,,,,0.0,0.0,,,,,,,,,,,,,,,,,,,0.0,24.0,0.0,0.0,29.9,0.0,,0.0,0.1,,,20.1,0.0,0.0,-0.1,13.3,10.9,,,,,25.0,27.0,25.0,27.0,26.0,27.0,26.0,27.0,,,15.0,254.1,,0.1,3.0,4.998,,,1.472,0.836,0.0,23.6,,,,,,0.0,2026-05-01 15:48:46-07:00
15.06,1.0,10.0,2026-05-01 22:48:53,37.08172,-121.59964,338.0,0.0,206.1,-12.6,,,,,22:48:53,10.7,-1.0,20.1,0.0,297.0,0.1,-0.02,1.0,99.0,-58.0,32.0,0.0,29.99,2338.0,,,144.0,,,,,0.0,0.0,,,,,,,,,,,,,,,,,,,0.0,24.0,0.0,0.0,29.9,0.0,,0.0,0.1,,,20.1,0.0,0.0,-0.1,13.3,10.9,,,,,25.0,27.0,25.0,27.0,26.0,27.0,26.0,27.0,,,15.0,254.1,,0.1,3.0,4.998,,,1.472,0.836,0.0,23.6,,,,,,0.0,2026-05-01 15:48:46-07:00
16.06,1.0,10.0,2026-05-01 22:48:54,37.08172,-121.59964,337.0,0.0,206.1,-12.6,,,,,22:48:54,10.7,-0.9,20.1,0.0,294.0,0.1,-0.02,1.0,99.0,-81.0,32.0,0.0,29.99,2344.0,,,144.0,,,,,0.0,0.0,,,,,,,,,,,,,,,,,,,0.0,24.0,0.0,0.0,30.0,0.0,,0.0,0.0,,,20.1,0.0,0.0,-0.1,13.3,10.9,,,,,25.0,27.0,25.0,27.0,26.0,27.0,26.0,27.0,,,15.0,254.1,,0.0,3.0,4.998,,,1.472,0.835,0.0,23.6,,,,,,0.0,2026-05-01 15:48:46-07:00
17.06,1.0,10.0,2026-05-01 22:48:55,37.08172,-121.59964,337.0,0.0,206.1,-12.6,,,,,22:48:55,10.7,-1.0,20.0,0.0,293.0,0.1,-0.02,1.0,99.0,-90.0,32.0,0.0,29.99,2344.0,,,144.0,,,,,0.0,0.0,,,,,,,,,,,,,,,,,,,0.0,24.0,0.0,0.0,30.0,0.0,,0.0,0.0,,,20.1,0.0,0.0,-0.1,13.3,10.9,,,,,25.0,27.0,25.0,27.0,26.0,27.0,26.0,27.0,,,15.0,254.1,,0.0,3.0,4.998,,,1.472,0.835,0.0,23.6,,,,,,0.0,2026-05-01 15:48:46-07:00
18.06,1.0,10.0,2026-05-01 22:48:56,37.08172,-121.59964,337.0,0.0,206.1,-12.6,,,,,22:48:56,10.7,-1.0,20.0,0.0,292.0,0.0,-0.02,1.0,99.0,-71.0,32.0,0.0,29.99,2344.0,,,144.0,,,,,0.0,0.0,,,,,,,,,,,,,,,,,,,0.0,24.0,0.0,0.0,30.0,0.0,,0.0,0.0,,,20.1,0.0,0.0,-0.1,13.3,10.9,,,,,25.0,27.0,25.0,27.0,26.0,27.0,26.0,27.0,,,15.0,254.1,,0.0,3.0,4.998,,,1.472,0.834,0.0,23.6,,,,,,0.0,2026-05-01 15:48:46-07:00
19.06,1.0,10.0,2026-05-01 22:48:57,37.08172,-121.59964,336.0,0.0,206.1,-12.6,,,,,22:48:57,10.6,-1.0,20.0,0.0,292.0,0.1,-0.01,1.0,99.0,-39.0,32.0,0.0,29.99,2339.0,,,144.0,,,,,0.0,0.0,,,,,,,,,,,,,,,,,,,0.0,24.0,0.0,0.0,29.9,0.0,,0.0,0.0,,,20.1,0.0,0.0,-0.1,13.3,10.9,,,,,25.0,27.0,25.0,27.0,26.0,27.0,26.0,27.0,,,15.0,254.1,,0.0,3.0,4.998,,,1.472,0.835,0.0,23.6,,,,,,0.0,2026-05-01 15:48:46-07:00
20.06,1.0,10.0,2026-05-01 22:48:58,37.08172,-121.59964,335.0,0.0,206.1,-12.6,,,,,22:48:58,10.7,-1.0,20.0,0.0,292.0,0.1,-0.02,1.0,99.0,-24.0,32.0,0.0,29.99,2341.0,,,144.0,,,,,0.0,0.0,,,,,,,,,,,,,,,,,,,0.0,24.0,0.0,0.0,30.0,0.0,,0.0,0.0,,,20.1,0.0,0.0,-0.1,13.3,10.9,,,,,25.0,27.0,25.0,27.0,26.0,27.0,26.0,27.0,,,15.0,254.1,,0.0,3.0,4.998,,,1.472,0.834,0.0,23.6,,,,,,0.0,2026-05-01 15:48:46-07:00
21.06,1.0,10.0,2026-05-01 22:48:59,37.08172,-121.59964,335.0,0.0,206.1,-12.6,,,,,22:48:59,10.6,-0.9,20.0,0.0,292.0,0.1,-0.01,1.0,99.0,-25.0,32.0,0.0,29.99,2341.0,,,144.0,,,,,0.0,0.0,,,,,,,,,,,,,,,,,,,0.0,24.0,0.0,0.0,30.0,0.0,,0.0,0.0,,,20.1,0.0,0.0,-0.1,13.3,10.9,,,,,25.0,27.0,25.0,27.0,26.0,27.0,26.0,27.0,,,15.0,254.2,,0.0,3.0,4.998,,,1.472,0.834,0.0,23.6,,,,,,0.0,2026-05-01 15:48:46-07:00
22.06,1.0,10.0,2026-05-01 22:49:00,37.08172,-121.59964,334.0,0.0,206.1,-12.6,,,,,22:49:00,10.6,-0.9,20.0,0.0,292.0,0.0,-0.02,1.0,99.0,-18.0,32.0,0.0,29.99,2341.0,,,144.0,,,,,0.0,0.0,,,,,,,,,,,,,,,,,,,0.0,24.0,0.0,0.0,30.0,0.0,,0.0,0.0,,,20.1,0.0,0.0,-0.1,13.3,10.9,,,,,25.0,27.0,25.0,27.0,26.0,27.0,26.0,27.0,,,15.0,254.2,,0.0,3.0,4.998,,,1.472,0.834,0.0,23.6,,,,,,0.0,2026-05-01 15:48:46-07:00
23.06,1.0,10.0,2026-05-01 22:49:01,37.08171,-121.59964,334.0,0.0,206.1,-12.6,,,,,22:49:01,10.7,-1.0,20.1,0.0,291.0,0.1,-0.02,1.0,99.0,-35.0,32.0,0.0,29.99,2350.0,,,144.0,,,,,0.0,0.0,,,,,,,,,,,,,,,,,,,0.0,24.0,0.0,0.0,30.0,0.0,,0.0,0.0,,,20.1,0.0,0.0,-0.1,13.3,10.9,,,,,25.0,27.0,25.0,27.0,26.0,27.0,26.0,27.0,,,15.0,254.2,,0.0,3.0,4.998,,,1.472,0.835,0.0,23.6,,,,,,0.0,2026-05-01 15:48:46-07:00
24.06,1.0,10.0,2026-05-01 22:49:02,37.08171,-121.59964,333.0,0.0,206.1,-12.6,,,,,22:49:02,10.7,-0.9,20.1,0.0,290.0,0.1,-0.02,1.0,99.0,-15.0,32.0,0.0,29.99,2350.0,,,144.0,,,,,0.0,0.0,,,,,,,,,,,,,,,,,,,0.0,24.0,0.0,0.0,30.0,0.0,,0.0,0.0,,,20.1,0.0,0.0,-0.1,13.3,10.9,,,,,25.0,27.0,26.0,27.0,26.0,27.0,26.0,27.0,,,15.0,254.2,,0.0,3.0,4.998,,,1.472,0.834,0.0,23.6,,,,,,0.0,2026-05-01 15:48:46-07:00
25.06,1.0,10.0,2026-05-01 22:49:03,37.08171,-121.59964,332.0,0.0,206.1,-12.6,,,,,22:49:03,10.7,-0.9,20.1,0.0,289.0,0.1,-0.01,1.0,99.0,-57.0,32.0,0.0,29.99,2350.0,,,144.0,,,,,0.0,0.0,,,,,,,,,,,,,,,,,,,0.0,24.0,0.0,0.0,29.9,0.0,,0.0,0.0,,,20.1,0.0,0.0,-0.1,13.3,10.9,,,,,26.0,27.0,26.0,27.0,26.0,27.0,26.0,27.0,,,15.0,254.2,,0.0,3.0,4.998,,,1.472,0.834,0.0,23.6,,,,,,0.0,2026-05-01 15:48:46-07:00
26.06,1.0,10.0,2026-05-01 22:49:04,37.08171,-121.59964,331.0,0.0,206.1,-12.6,,,,,22:49:04,10.7,-1.0,20.1,0.0,288.0,0.1,-0.02,1.0,99.0,-54.0,32.0,0.0,29.99,2346.0,,,144.0,,,,,0.0,0.0,,,,,,,,,,,,,,,,,,,0.0,24.0,0.0,0.0,30.0,0.0,,0.0,0.0,,,20.1,0.0,0.0,-0.1,13.3,10.9,,,,,26.0,27.0,26.0,27.0,26.0,27.0,26.0,27.0,,,15.0,254.2,,0.0,3.0,4.998,,,1.472,0.834,0.0,23.6,,,,,,0.0,2026-05-01 15:48:46-07:00
27.06,1.0,10.0,2026-05-01 22:49:05,37.08171,-121.59964,331.0,0.0,206.1,-12.6,,,,,22:49:05,10.7,-1.0,20.1,0.0,286.0,0.1,-0.02,1.0,99.0,-85.0,32.0,0.0,29.99,2346.0,,,144.0,,,,,0.0,0.0,,,,,,,,,,,,,,,,,,,0.0,24.0,0.0,0.0,30.0,0.0,,0.0,0.0,,,20.1,0.0,0.0,-0.1,13.3,10.9,,,,,25.0,27.0,26.0,27.0,26.0,27.0,26.0,27.0,,,15.0,254.2,,0.0,3.0,4.998,,,1.472,0.834,0.0,23.6,,,,,,0.0,2026-05-01 15:48:46-07:00
28.06,1.0,10.0,2026-05-01 22:49:06,37.08171,-121.59964,330.0,0.1,206.1,-12.6,,,,,22:49:06,10.7,-1.0,20.0,0.0,285.0,0.1,-0.02,1.0,99.0,-78.0,32.0,0.0,29.99,2346.0,,,144.0,,,,,0.0,0.0,,,,,,,,,,,,,,,,,,,0.0,24.0,0.0,0.0,29.9,0.0,,0.0,0.0,,,20.1,0.0,0.0,-0.1,13.3,10.9,,,,,25.0,27.0,26.0,27.0,26.0,27.0,26.0,27.0,,,15.0,254.2,,0.0,3.0,4.998,,,1.472,0.834,0.0,23.6,,,,,,0.0,2026-05-01 15:48:46-07:00
29.06,1.0,10.0,2026-05-01 22:49:07,37.08171,-121.59964,329.0,0.0,206.1,-12.6,,,,,22:49:07,10.7,-1.0,20.0,0.0,283.0,0.1,-0.02,1.0,99.0,-108.0,32.0,0.0,29.99,2351.0,,,144.0,,,,,0.0,0.0,,,,,,,,,,,,,,,,,,,0.0,24.0,0.0,0.0,30.0,0.0,,0.0,0.0,,,20.1,0.0,0.0,-0.1,13.3,10.9,,,,,25.0,27.0,26.0,27.0,26.0,27.0,26.0,27.0,,,15.0,254.2,,0.0,3.0,4.998,,,1.472,0.834,0.0,23.6,,,,,,0.0,2026-05-01 15:48:46-07:00
30.06,1.0,10.0,2026-05-01 22:49:08,37.08171,-121.59964,329.0,0.0,206.1,-12.6,,,,,22:49:08,10.7,-1.0,19.9,0.0,282.0,0.1,-0.02,1.0,99.0,-81.0,32.0,0.0,29.99,2351.0,,,144.0,,,,,0.0,0.0,,,,,,,,,,,,,,,,,,,0.0,24.0,0.0,0.0,29.9,0.0,,0.0,0.0,,,20.1,0.0,0.0,-0.1,13.3,10.9,,,,,25.0,27.0,26.0,27.0,26.0,27.0,26.0,27.0,,,15.0,254.2,,0.0,3.0,4.998,,,1.472,0.834,0.0,23.6,,,,,,0.0,2026-05-01 15:48:46-07:00
31.06,1.0,10.0,2026-05-01 22:49:09,37.08171,-121.59964,328.0,0.0,206.1,-12.6,,,,,22:49:09,10.7,-1.0,19.9,0.0,278.0,0.0,-0.02,1.0,99.0,-156.0,32.0,0.0,29.99,2351.0,,,144.0,,,,,0.0,0.0,,,,,,,,,,,,,,,,,,,0.0,24.0,0.0,0.0,29.9,0.0,,0.0,0.0,,,20.1,0.0,0.0,-0.1,13.3,10.9,,,,,25.0,27.0,26.0,27.0,26.0,27.0,26.0,27.0,,,15.0,254.1,,0.0,3.0,4.998,,,1.472,0.834,0.0,23.6,,,,,,0.0,2026-05-01 15:48:46-07:00
32.06,1.0,10.0,2026-05-01 22:49:10,37.08171,-121.59964,327.0,0.0,206.1,-12.6,,,,,22:49:10,10.7,-1.0,19.9,0.0,276.0,0.1,-0.01,1.0,99.0,-101.0,32.0,0.0,29.99,2343.0,,,144.0,,,,,0.0,0.0,,,,,,,,,,,,,,,,,,,0.0,24.0,0.0,0.0,29.9,0.0,,0.0,0.0,,,20.1,0.0,0.0,-0.1,13.3,10.9,,,,,25.0,27.0,25.0,27.0,26.0,27.0,26.0,27.0,,,15.0,254.1,,0.0,3.0,4.998,,,1.472,0.834,0.0,23.6,,,,,,0.0,2026-05-01 15:48:46-07:00
33.06,1.0,10.0,2026-05-01 22:49:11,37.08171,-121.59964,327.0,0.0,206.1,-12.6,,,,,22:49:11,10.7,-1.0,20.0,0.0,276.0,0.1,-0.02,1.0,99.0,-98.0,32.0,0.0,29.99,2343.0,,,144.0,,,,,0.0,0.0,,,,,,,,,,,,,,,,,,,0.0,24.0,0.0,0.0,29.9,0.0,,0.0,0.0,,,20.1,0.0,0.0,-0.1,13.3,10.9,,,,,25.0,27.0,25.0,27.0,26.0,27.0,26.0,27.0,,,15.0,254.1,,0.0,3.0,4.998,,,1.472,0.834,0.0,23.6,,,,,,0.0,2026-05-01 15:48:46-07:00
34.06,1.0,10.0,2026-05-01 22:49:12,37.08171,-121.59963,327.0,0.0,206.1,-12.6,,,,,22:49:12,10.7,-1.0,19.9,0.0,275.0,0.1,-0.02,1.0,99.0,-81.0,32.0,0.0,29.99,2343.0,,,144.0,,,,,0.0,0.0,,,,,,,,,,,,,,,,,,,0.0,24.0,0.0,0.0,29.9,0.0,,0.0,0.0,,,20.1,0.0,0.0,-0.1,13.3,10.9,,,,,25.0,27.0,25.0,27.0,26.0,27.0,26.0,27.0,,,15.0,254.1,,0.0,3.0,4.998,,,1.472,0.834,0.0,23.6,,,,,,0.0,2026-05-01 15:48:46-07:00
35.06,1.0,10.0,2026-05-01 22:49:13,37.08171,-121.59963,326.0,0.0,206.1,-12.6,,,,,22:49:13,10.7,-1.0,20.0,0.0,273.0,0.1,-0.02,1.0,99.0,-90.0,32.0,0.0,29.99,2340.0,,,144.0,,,,,0.0,0.0,,,,,,,,,,,,,,,,,,,0.0,24.0,0.0,0.0,30.0,0.0,,0.0,0.0,,,20.1,0.0,0.0,-0.1,13.3,10.9,,,,,25.0,27.0,25.0,27.0,26.0,27.0,26.0,27.0,,,15.0,254.1,,0.0,3.0,4.998,,,1.472,0.834,0.0,23.6,,,,,,0.0,2026-05-01 15:48:46-07:00
36.06,1.0,10.0,2026-05-01 22:49:14,37.08171,-121.59964,326.0,0.0,206.1,-12.6,,,,,22:49:14,10.7,-1.0,19.9,0.0,272.0,0.1,-0.02,1.0,99.0,-58.0,32.0,0.0,29.99,2340.0,,,144.0,,,,,0.0,0.0,,,,,,,,,,,,,,,,,,,0.0,24.0,0.0,0.0,29.9,0.0,,0.0,0.0,,,20.1,0.0,0.0,-0.1,13.3,10.9,,,,,25.0,27.0,25.0,27.0,26.0,27.0,26.0,27.0,,,15.0,254.1,,0.0,3.0,4.998,,,1.472,0.834,0.0,23.6,,,,,,0.0,2026-05-01 15:48:46-07:00
37.06,1.0,10.0,2026-05-01 22:49:15,37.08171,-121.59963,325.0,0.0,206.1,-12.6,,,,,22:49:15,10.7,-1.1,19.9,0.0,272.0,0.1,-0.02,1.0,99.0,-35.0,32.0,0.0,29.99,2340.0,,,144.0,,,,,0.0,0.0,,,,,,,,,,,,,,,,,,,0.0,24.0,0.0,0.0,29.9,0.0,,0.0,0.0,,,20.1,0.0,0.0,-0.1,13.3,10.9,,,,,25.0,27.0,25.0,27.0,26.0,27.0,26.0,27.0,,,15.0,254.1,,0.0,3.0,4.998,,,1.472,0.834,0.0,23.6,,,,,,0.0,2026-05-01 15:48:46-07:00
38.06,1.0,10.0,2026-05-01 22:49:16,37.08171,-121.59963,325.0,0.0,206.1,-12.6,,,,,22:49:16,10.7,-1.1,19.8,0.0,272.0,0.0,-0.02,1.0,99.0,-57.0,32.0,0.0,29.99,2348.0,,,144.0,,,,,0.0,0.0,,,,,,,,,,,,,,,,,,,0.0,24.0,0.0,0.0,29.9,0.0,,0.0,0.0,,,20.1,0.0,0.0,-0.1,13.3,10.9,,,,,25.0,27.0,25.0,27.0,26.0,27.0,26.0,27.0,,,15.0,254.1,,0.0,3.0,4.998,,,1.472,0.834,0.0,23.6,,,,,,0.0,2026-05-01 15:48:46-07:00
39.06,1.0,10.0,2026-05-01 22:49:17,37.08171,-121.59963,325.0,0.0,206.1,-12.6,,,,,22:49:17,10.7,-1.1,19.7,0.0,270.0,0.0,-0.02,1.0,99.0,-88.0,32.0,0.0,29.99,2348.0,,,144.0,,,,,0.0,0.0,,,,,,,,,,,,,,,,,,,0.0,24.0,0.0,0.0,29.9,0.0,,0.0,0.0,,,20.1,0.0,0.0,-0.1,13.3,10.9,,,,,25.0,27.0,25.0,27.0,26.0,27.0,26.0,27.0,,,15.0,254.1,,0.0,3.0,4.998,,,1.472,0.834,0.0,23.6,,,,,,0.0,2026-05-01 15:48:46-07:00
40.06,1.0,10.0,2026-05-01 22:49:18,37.08171,-121.59963,325.0,0.0,206.1,-12.6,,,,,22:49:18,10.7,-1.1,19.8,0.0,269.0,0.0,-0.02,1.0,99.0,-66.0,32.0,0.0,29.99,2348.0,,,144.0,,,,,0.0,0.0,,,,,,,,,,,,,,,,,,,0.0,24.0,0.0,0.0,29.9,0.0,,0.0,0.0,,,20.1,0.0,0.0,-0.1,13.3,10.9,,,,,25.0,27.0,25.0,27.0,26.0,27.0,26.0,27.0,,,15.0,254.1,,0.0,3.0,4.998,,,1.472,0.834,0.0,23.6,,,,,,0.0,2026-05-01 15:48:46-07:00
41.06,1.0,10.0,2026-05-01 22:49:19,37.08171,-121.59963,325.0,0.0,206.1,-12.6,,,,,22:49:19,10.7,-1.0,19.8,0.0,269.0,0.0,-0.02,1.0,99.0,-36.0,32.0,0.0,29.99,2344.0,,,144.0,,,,,0.0,0.0,,,,,,,,,,,,,,,,,,,0.0,24.0,0.0,0.0,29.9,0.0,,0.0,0.0,,,20.1,0.0,0.0,-0.1,13.3,10.9,,,,,25.0,27.0,25.0,27.0,26.0,27.0,26.0,27.0,,,15.0,254.2,,0.0,3.0,4.998,,,1.472,0.834,0.0,23.6,,,,,,0.0,2026-05-01 15:48:46-07:00
42.06,1.0,10.0,2026-05-01 22:49:20,37.08171,-121.59963,325.0,0.0,206.1,-12.6,,,,,22:49:20,10.7,-1.1,19.8,0.0,268.0,0.1,-0.02,1.0,99.0,-46.0,32.0,0.0,29.99,2344.0,,,144.0,,,,,0.0,0.0,,,,,,,,,,,,,,,,,,,0.0,24.0,0.0,0.0,29.9,0.0,,0.0,0.0,,,20.1,0.0,0.0,-0.1,13.3,10.9,,,,,25.0,27.0,25.0,27.0,26.0,27.0,26.0,27.0,,,16.0,226.4,,0.0,3.0,4.998,,,1.472,0.834,0.0,23.6,,,,,,0.0,2026-05-01 15:48:46-07:00
43.06,1.0,10.0,2026-05-01 22:49:21,37.08171,-121.59962,325.0,0.0,206.1,-12.6,,,,,22:49:21,10.7,-1.1,19.8,0.0,268.0,0.0,-0.02,1.0,99.0,-8.0,32.0,0.0,29.99,2344.0,,,144.0,,,,,0.0,0.0,,,,,,,,,,,,,,,,,,,0.0,24.0,0.0,0.0,29.9,0.0,,0.0,0.0,,,20.1,0.0,0.0,-0.1,13.3,10.9,,,,,25.0,27.0,25.0,27.0,26.0,27.0,26.0,27.0,,,15.0,176.2,,0.0,3.0,4.998,,,1.472,0.834,0.0,23.6,,,,,,0.0,2026-05-01 15:48:46-07:00
44.06,1.0,10.0,2026-05-01 22:49:22,37.08171,-121.59962,325.0,0.0,206.1,-12.6,,,,,22:49:22,10.7,-1.1,19.8,0.0,268.0,0.1,-0.02,1.0,99.0,-13.0,32.0,0.0,29.99,2344.0,,,144.0,,,,,0.0,0.0,,,,,,,,,,,,,,,,,,,0.0,24.0,0.0,0.0,29.9,0.0,,0.0,0.0,,,20.1,0.0,0.0,-0.1,13.3,10.9,,,,,25.0,27.0,25.0,27.0,26.0,27.0,26.0,27.0,,,16.0,137.2,,0.0,3.0,4.998,,,1.472,0.834,0.0,23.6,,,,,,0.0,2026-05-01 15:48:46-07:00
45.06,1.0,10.0,2026-05-01 22:49:23,37.08171,-121.59962,325.0,0.0,206.1,-12.6,,,,,22:49:23,10.7,-1.1,19.8,0.0,268.0,0.1,-0.02,1.0,99.0,-5.0,32.0,0.0,29.99,2344.0,,,144.0,,,,,0.0,0.0,,,,,,,,,,,,,,,,,,,0.0,24.0,0.0,0.0,29.9,0.0,,0.0,0.0,,,20.1,0.0,0.0,-0.1,13.3,10.9,,,,,26.0,27.0,26.0,27.0,26.0,27.0,26.0,27.0,,,16.0,106.8,,0.0,3.0,4.998,,,1.472,0.834,0.0,23.6,,,,,,0.0,2026-05-01 15:48:46-07:00
46.06,1.0,10.0,2026-05-01 22:49:24,37.08171,-121.59962,325.0,0.0,206.1,-12.6,,,,,22:49:24,10.7,-1.2,19.8,0.0,268.0,0.1,-0.02,1.0,99.0,-23.0,32.0,0.0,29.99,2344.0,,,144.0,,,,,0.0,0.0,,,,,,,,,,,,,,,,,,,0.0,24.0,0.0,0.0,29.9,0.0,,0.0,0.0,,,20.1,0.0,0.0,-0.1,13.3,10.9,,,,,26.0,27.0,26.0,27.0,26.0,27.0,26.0,27.0,,,16.0,83.3,,0.0,3.0,4.998,,,1.472,0.834,0.0,23.6,,,,,,0.0,2026-05-01 15:48:46-07:00
47.06,1.0,10.0,2026-05-01 22:49:25,37.08171,-121.59962,325.0,0.0,206.1,-12.6,,,,,22:49:25,10.7,-1.1,19.8,0.0,267.0,0.1,-0.02,1.0,99.0,-21.0,32.0,0.0,29.99,2354.0,,,144.0,,,,,0.0,0.0,,,,,,,,,,,,,,,,,,,0.0,24.0,0.0,0.0,29.9,0.0,,0.0,0.0,,,20.1,0.0,0.0,-0.1,13.3,10.9,,,,,26.0,27.0,26.0,27.0,26.0,27.0,26.0,27.0,,,15.0,64.9,,0.0,3.0,4.998,,,1.472,0.834,0.0,23.6,,,,,,0.0,2026-05-01 15:48:46-07:00
48.06,1.0,10.0,2026-05-01 22:49:26,37.08171,-121.59962,325.0,0.0,206.1,-12.6,,,,,22:49:26,10.7,-1.1,19.7,0.0,267.0,0.1,-0.02,1.0,99.0,1.0,32.0,0.0,29.99,2354.0,,,144.0,,,,,0.0,0.0,,,,,,,,,,,,,,,,,,,0.0,24.0,0.0,0.0,29.9,0.0,,0.0,0.0,,,20.1,0.0,0.0,-0.1,13.3,10.9,,,,,26.0,27.0,26.0,27.0,26.0,27.0,26.0,27.0,,,15.0,50.7,,0.0,3.0,4.998,,,1.472,0.834,0.0,23.6,,,,,,0.0,2026-05-01 15:48:46-07:00
49.06,1.0,10.0,2026-05-01 22:49:27,37.08171,-121.59962,325.0,0.0,206.1,-12.6,,,,,22:49:27,10.7,-1.1,19.8,0.0,267.0,0.1,-0.02,1.0,99.0,2.0,32.0,0.0,29.99,2354.0,,,144.0,,,,,0.0,0.0,,,,,,,,,,,,,,,,,,,0.0,24.0,0.0,0.0,29.9,0.0,,0.0,0.0,,,20.1,0.0,0.0,-0.1,13.3,10.9,,,,,26.0,27.0,26.0,27.0,26.0,27.0,26.0,27.0,,,15.0,39.6,,0.0,3.0,4.998,,,1.472,0.834,0.0,23.6,,,,,,0.0,2026-05-01 15:48:46-07:00
50.06,1.0,10.0,2026-05-01 22:49:28,37.0817,-121.59962,325.0,0.0,206.1,-12.6,,,,,22:49:28,10.7,-1.1,19.8,0.0,267.0,0.0,-0.02,1.0,99.0,22.0,32.0,0.0,29.99,2353.0,,,144.0,,,,,0.0,0.0,,,,,,,,,,,,,,,,,,,0.0,24.0,0.0,0.0,29.9,0.0,,0.0,0.0,,,20.1,0.0,0.0,-0.1,13.3,10.9,,,,,26.0,27.0,26.0,27.0,26.0,27.0,26.0,27.0,,,15.0,31.0,,0.0,3.0,4.998,,,1.472,0.834,0.0,23.6,,,,,,0.0,2026-05-01 15:48:46-07:00
51.06,1.0,10.0,2026-05-01 22:49:29,37.0817,-121.59962,325.0,0.0,206.1,-12.6,,,,,22:49:29,10.7,-1.0,19.8,0.0,267.0,0.1,-0.02,1.0,99.0,-5.0,32.0,0.0,29.99,2354.0,,,144.0,,,,,0.0,0.0,,,,,,,,,,,,,,,,,,,0.0,24.0,0.0,0.0,29.9,0.0,,0.0,0.0,,,20.1,0.0,0.0,-0.1,13.3,10.9,,,,,26.0,27.0,26.0,27.0,26.0,27.0,26.0,27.0,,,15.0,24.3,,0.0,3.0,4.998,,,1.472,0.834,0.0,23.6,,,,,,0.0,2026-05-01 15:48:46-07:00
52.06,1.0,10.0,2026-05-01 22:49:30,37.0817,-121.59962,326.0,0.0,206.1,-12.6,,,,,22:49:30,10.7,-1.0,19.8,0.0,267.0,0.0,-0.02,1.0,99.0,-16.0,32.0,0.0,29.99,2354.0,,,144.0,,,,,0.0,0.0,,,,,,,,,,,,,,,,,,,0.0,24.0,0.0,0.0,29.9,0.0,,0.0,0.0,,,20.1,0.0,0.0,-0.1,13.3,10.9,,,,,26.0,27.0,26.0,27.0,26.0,27.0,26.0,27.0,,,15.0,19.1,,0.0,3.0,4.998,,,1.472,0.834,0.0,23.6,,,,,,0.0,2026-05-01 15:48:46-07:00
53.06,1.0,10.0,2026-05-01 22:49:31,37.0817,-121.59962,326.0,0.0,206.1,-12.6,,,,,22:49:31,10.7,-1.0,19.8,0.0,267.0,0.1,-0.02,1.0,99.0,-26.0,32.0,0.0,29.99,2354.0,,,144.0,,,,,0.0,0.0,,,,,,,,,,,,,,,,,,,0.0,24.0,0.0,0.0,29.9,0.0,,0.0,0.0,,,20.1,0.0,0.0,-0.1,13.3,10.9,,,,,26.0,27.0,26.0,27.0,26.0,27.0,26.0,27.0,,,15.0,15.1,,0.0,3.0,4.998,,,1.472,0.834,0.0,23.6,,,,,,0.0,2026-05-01 15:48:46-07:00
54.06,1.0,10.0,2026-05-01 22:49:32,37.0817,-121.59962,326.0,0.0,206.1,-12.6,,,,,22:49:32,10.7,-1.0,19.9,0.0,266.0,0.1,-0.02,1.0,99.0,-29.0,32.0,0.0,29.99,2353.0,,,144.0,,,,,0.0,0.0,,,,,,,,,,,,,,,,,,,0.0,24.0,0.0,0.0,29.9,0.0,,0.0,0.0,,,20.1,0.0,0.0,-0.1,13.3,10.9,,,,,26.0,27.0,26.0,27.0,26.0,27.0,26.0,27.0,,,15.0,11.9,,0.0,3.0,4.998,,,1.472,0.834,0.0,23.6,,,,,,0.0,2026-05-01 15:48:46-07:00
55.06,1.0,10.0,2026-05-01 22:49:33,37.0817,-121.59962,326.0,0.0,206.1,-12.6,,,,,22:49:33,10.7,-1.0,19.9,0.0,265.0,0.1,-0.02,1.0,99.0,-36.0,32.0,0.0,29.99,2353.0,,,144.0,,,,,0.0,0.0,,,,,,,,,,,,,,,,,,,0.0,24.0,0.0,0.0,29.9,0.0,,0.0,0.0,,,20.1,0.0,0.0,-0.1,13.3,10.9,,,,,26.0,27.0,26.0,27.0,26.0,27.0,26.0,27.0,,,16.0,9.5,,0.0,3.0,4.998,,,1.472,0.834,0.0,23.6,,,,,,0.0,2026-05-01 15:48:46-07:00
56.06,1.0,10.0,2026-05-01 22:49:34,37.0817,-121.59962,326.0,0.0,206.1,-12.6,,,,,22:49:34,10.7,-1.0,19.9,0.0,265.0,0.1,-0.02,1.0,99.0,-13.0,32.0,0.0,29.99,2353.0,,,144.0,,,,,0.0,0.0,,,,,,,,,,,,,,,,,,,0.0,24.0,0.0,0.0,29.9,0.0,,0.0,0.0,,,20.1,0.0,0.0,-0.1,13.3,10.9,,,,,26.0,27.0,26.0,27.0,26.0,27.0,26.0,27.0,,,16.0,7.6,,0.0,3.0,4.998,,,1.472,0.834,0.0,23.6,,,,,,0.0,2026-05-01 15:48:46-07:00
57.06,1.0,10.0,2026-05-01 22:49:35,37.0817,-121.59962,327.0,0.0,206.1,-12.6,,,,,22:49:35,10.7,-1.0,19.9,0.0,264.0,0.0,-0.02,1.0,99.0,-20.0,32.0,0.0,29.99,2360.0,,,144.0,,,,,0.0,0.0,,,,,,,,,,,,,,,,,,,0.0,24.0,0.0,0.0,29.9,0.0,,0.0,0.0,,,20.1,0.0,0.0,-0.1,13.3,10.9,,,,,26.0,27.0,26.0,27.0,26.0,27.0,26.0,27.0,,,16.0,6.1,,0.0,3.0,4.998,,,1.472,0.834,0.0,23.6,,,,,,0.0,2026-05-01 15:48:46-07:00
58.06,1.0,10.0,2026-05-01 22:49:36,37.0817,-121.59962,327.0,0.0,206.1,-12.6,,,,,22:49:36,10.7,-1.0,19.9,0.0,263.0,0.0,-0.02,1.0,99.0,-35.0,32.0,0.0,29.99,2360.0,,,144.0,,,,,0.0,0.0,,,,,,,,,,,,,,,,,,,0.0,24.0,0.0,0.0,29.9,0.0,,0.0,0.0,,,20.1,0.0,0.0,-0.1,13.3,10.9,,,,,26.0,27.0,26.0,27.0,26.0,27.0,26.0,27.0,,,16.0,5.0,,0.0,3.0,4.998,,,1.472,0.834,0.0,23.6,,,,,,0.0,2026-05-01 15:48:46-07:00
59.06,1.0,10.0,2026-05-01 22:49:37,37.0817,-121.59962,327.0,0.0,206.1,-12.6,,,,,22:49:37,10.7,-1.0,19.9,0.0,262.0,0.1,-0.02,1.0,99.0,-56.0,32.0,0.0,29.99,2360.0,,,144.0,,,,,0.0,0.0,,,,,,,,,,,,,,,,,,,0.0,24.0,0.0,0.0,29.9,0.0,,0.0,0.0,,,20.1,0.0,0.0,-0.1,13.3,10.9,,,,,26.0,27.0,26.0,27.0,26.0,27.0,26.0,27.0,,,16.0,4.1,,0.0,3.0,4.998,,,1.472,0.834,0.0,23.6,,,,,,0.0,2026-05-01 15:48:46-07:00
60.06,1.0,10.0,2026-05-01 22:49:38,37.0817,-121.59962,327.0,0.0,206.1,-12.6,,,,,22:49:38,10.7,-1.1,19.8,0.0,261.0,0.0,-0.02,1.0,99.0,-36.0,32.0,0.0,29.99,2357.0,,,144.0,,,,,0.0,0.0,,,,,,,,,,,,,,,,,,,0.0,24.0,0.0,0.0,29.9,0.0,,0.0,0.0,,,20.1,0.0,0.0,-0.1,13.3,10.9,,,,,26.0,27.0,26.0,27.0,26.0,27.0,26.0,27.0,,,16.0,3.4,,0.0,3.0,4.998,,,1.472,0.834,0.0,23.6,,,,,,0.0,2026-05-01 15:48:46-07:00
61.06,1.0,10.0,2026-05-01 22:49:39,37.0817,-121.59962,327.0,0.0,206.1,-12.6,,,,,22:49:39,10.7,-1.1,19.8,0.0,261.0,0.0,-0.02,1.0,99.0,-27.0,32.0,0.0,29.99,2357.0,,,144.0,,,,,0.0,0.0,,,,,,,,,,,,,,,,,,,0.0,24.0,0.0,0.0,29.9,0.0,,0.0,0.0,,,20.1,0.0,0.0,-0.1,13.3,10.9,,,,,26.0,27.0,26.0,27.0,26.0,27.0,26.0,27.0,,,16.0,2.9,,0.0,3.0,4.998,,,1.472,0.834,0.0,23.6,,,,,,0.0,2026-05-01 15:48:46-07:00
62.06,1.0,10.0,2026-05-01 22:49:40,37.0817,-121.59962,327.0,0.0,206.1,-12.6,,,,,22:49:40,10.7,-1.1,19.7,0.0,261.0,0.0,-0.02,1.0,99.0,-43.0,32.0,0.0,29.99,2357.0,,,144.0,,,,,0.0,0.0,,,,,,,,,,,,,,,,,,,0.0,24.0,0.0,0.0,29.9,0.0,,0.0,0.0,,,20.1,0.0,0.0,-0.1,13.3,10.9,,,,,26.0,27.0,26.0,27.0,26.0,27.0,26.0,27.0,,,16.0,2.4,,0.0,3.0,4.998,,,1.472,0.834,0.0,23.6,,,,,,0.0,2026-05-01 15:48:46-07:00
63.06,1.0,10.0,2026-05-01 22:49:41,37.0817,-121.59962,327.0,0.0,206.1,-12.6,,,,,22:49:41,10.7,-1.1,19.7,0.0,260.0,0.0,-0.02,1.0,99.0,-36.0,32.0,0.0,29.99,2366.0,,,144.0,,,,,0.0,0.0,,,,,,,,,,,,,,,,,,,0.0,24.0,0.0,0.0,29.9,0.0,,0.0,0.0,,,20.1,0.0,0.0,-0.1,13.3,10.9,,,,,26.0,27.0,26.0,27.0,26.0,27.0,26.0,27.0,,,16.0,2.1,,0.0,3.0,4.998,,,1.472,0.834,0.0,23.6,,,,,,0.0,2026-05-01 15:48:46-07:00
64.06,1.0,10.0,2026-05-01 22:49:42,37.0817,-121.59962,327.0,0.0,206.1,-12.6,,,,,22:49:42,10.7,-1.1,19.7,0.0,260.0,0.0,-0.02,1.0,99.0,-20.0,32.0,0.0,29.99,2366.0,,,144.0,,,,,0.0,0.0,,,,,,,,,,,,,,,,,,,0.0,24.0,0.0,0.0,29.9,0.0,,0.0,0.0,,,20.1,0.0,0.0,-0.1,13.3,10.9,,,,,26.0,27.0,26.0,27.0,26.0,27.0,26.0,27.0,,,16.0,1.9,,0.0,3.0,4.998,,,1.472,0.834,0.0,23.6,,,,,,0.0,2026-05-01 15:48:46-07:00
65.06,1.0,10.0,2026-05-01 22:49:43,37.0817,-121.59962,327.0,0.0,206.1,-12.6,,,,,22:49:43,10.7,-1.1,19.8,0.0,260.0,0.1,-0.02,1.0,99.0,-7.0,32.0,0.0,29.99,2366.0,,,144.0,,,,,0.0,0.0,,,,,,,,,,,,,,,,,,,0.0,24.0,0.0,0.0,29.9,0.0,,0.0,0.0,,,20.1,0.0,0.0,-0.1,13.3,10.9,,,,,26.0,27.0,26.0,27.0,26.0,27.0,26.0,27.0,,,16.0,1.6,,0.0,3.0,4.998,,,1.472,0.834,0.0,23.6,,,,,,0.0,2026-05-01 15:48:46-07:00
66.06,1.0,10.0,2026-05-01 22:49:44,37.0817,-121.59962,327.0,0.1,206.1,-12.6,,,,,22:49:44,10.8,-1.1,19.7,0.0,260.0,0.0,-0.02,1.0,99.0,-8.0,32.0,0.0,29.99,2365.0,,,144.0,,,,,0.0,0.0,,,,,,,,,,,,,,,,,,,0.0,24.0,0.0,0.0,29.9,0.0,,0.0,0.0,,,20.1,0.0,0.0,-0.1,13.3,10.9,,,,,26.0,27.0,26.0,27.0,26.0,27.0,26.0,27.0,,,16.0,1.5,,0.0,3.0,4.998,,,1.472,0.834,0.0,23.6,,,,,,0.0,2026-05-01 15:48:46-07:00
67.06,1.0,10.0,2026-05-01 22:49:45,37.0817,-121.59962,327.0,0.0,206.1,-12.6,,,,,22:49:45,10.8,-1.1,19.7,0.0,260.0,0.1,-0.02,1.0,99.0,-4.0,32.0,0.0,29.99,2365.0,,,144.0,,,,,0.0,0.0,,,,,,,,,,,,,,,,,,,0.0,24.0,0.0,0.0,29.9,0.0,,0.0,0.0,,,20.1,0.0,0.0,-0.1,13.3,10.9,,,,,26.0,27.0,26.0,27.0,26.0,27.0,26.0,27.0,,,16.0,1.4,,0.0,3.0,4.998,,,1.472,0.834,0.0,23.6,,,,,,0.0,2026-05-01 15:48:46-07:00
68.06,1.0,10.0,2026-05-01 22:49:46,37.08168,-121.5996,326.0,0.0,206.1,-12.6,,,,,22:49:46,10.9,-1.0,19.7,0.0,260.0,0.1,-0.02,0.9,99.0,-8.0,32.0,0.0,29.99,2365.0,,,144.0,,,,,0.0,0.0,,,,,,,,,,,,,,,,,,,0.0,24.0,0.0,0.0,29.9,0.0,,0.0,0.0,,,20.1,0.0,0.0,-0.1,13.3,10.9,,,,,26.0,27.0,26.0,27.0,26.0,27.0,26.0,27.0,,,16.0,1.3,,0.0,3.0,4.998,,,1.472,0.834,0.0,23.6,,,,,,0.0,2026-05-01 15:48:46-07:00
69.06,1.0,10.0,2026-05-01 22:49:47,37.08168,-121.5996,328.0,0.0,206.1,-12.6,,,,,22:49:47,10.8,-1.0,19.7,0.0,259.0,0.0,-0.02,1.0,99.0,-5.0,32.0,0.0,29.99,2365.0,,,144.0,,,,,0.0,0.0,,,,,,,,,,,,,,,,,,,0.0,24.0,0.0,0.0,29.9,0.0,,0.0,0.0,,,20.1,0.0,0.0,-0.1,13.3,10.9,,,,,26.0,27.0,26.0,27.0,26.0,27.0,26.0,27.0,,,16.0,1.2,,0.0,3.0,4.998,,,1.472,0.834,0.0,23.6,,,,,,0.0,2026-05-01 15:48:46-07:00
70.06,1.0,10.0,2026-05-01 22:49:48,37.08168,-121.5996,328.0,0.1,206.1,-12.6,,,,,22:49:48,10.8,-1.0,19.8,0.0,259.0,0.1,-0.01,1.0,99.0,8.0,32.0,0.0,29.99,2365.0,,,144.0,,,,,0.0,0.0,,,,,,,,,,,,,,,,,,,0.0,24.0,0.0,0.0,29.9,0.0,,0.0,0.0,,,20.1,0.0,0.0,-0.1,13.3,10.9,,,,,26.0,27.0,26.0,27.0,26.0,27.0,26.0,27.0,,,16.0,1.2,,0.0,3.0,4.998,,,1.472,0.834,0.0,23.6,,,,,,0.0,2026-05-01 15:48:46-07:00
71.06,1.0,10.0,2026-05-01 22:49:49,37.08167,-121.5996,328.0,0.0,206.1,-12.6,,,,,22:49:49,10.8,-1.0,19.7,0.0,259.0,0.0,-0.02,1.0,99.0,46.0,32.0,0.0,29.99,2365.0,,,144.0,,,,,0.0,0.0,,,,,,,,,,,,,,,,,,,0.0,24.0,0.0,0.0,29.9,0.0,,0.0,0.0,,,20.1,0.0,0.0,-0.1,13.3,10.9,,,,,26.0,27.0,26.0,27.0,26.0,27.0,26.0,27.0,,,16.0,1.1,,0.0,3.0,4.998,,,1.472,0.834,0.0,23.6,,,,,,0.0,2026-05-01 15:48:46-07:00
72.06,1.0,10.0,2026-05-01 22:49:50,37.08167,-121.5996,328.0,0.0,206.1,-12.6,,,,,22:49:50,10.8,-1.1,19.7,0.0,259.0,0.0,-0.02,1.0,99.0,49.0,32.0,0.0,29.99,2375.0,,,144.0,,,,,0.0,0.0,,,,,,,,,,,,,,,,,,,0.0,24.0,0.0,0.0,29.9,0.0,,0.0,0.0,,,20.1,0.0,0.0,-0.1,13.3,10.9,,,,,26.0,27.0,26.0,27.0,26.0,27.0,26.0,27.0,,,16.0,1.1,,0.0,3.0,4.998,,,1.472,0.834,0.0,23.6,,,,,,0.0,2026-05-01 15:48:46-07:00
73.06,1.0,10.0,2026-05-01 22:49:51,37.08167,-121.5996,328.0,0.0,206.1,-12.6,,,,,22:49:51,10.8,-1.1,19.7,0.0,259.0,0.0,-0.02,1.0,99.0,52.0,32.0,0.0,29.99,2375.0,,,144.0,,,,,0.0,0.0,,,,,,,,,,,,,,,,,,,0.0,24.0,0.0,0.0,29.9,0.0,,0.0,0.0,,,20.1,0.0,0.0,-0.1,13.3,10.9,,,,,26.0,27.0,26.0,27.0,26.0,27.0,26.0,27.0,,,16.0,1.1,,0.0,3.0,4.998,,,1.472,0.834,0.0,23.6,,,,,,0.0,2026-05-01 15:48:46-07:00
74.06,1.0,10.0,2026-05-01 22:49:52,37.08167,-121.5996,327.0,0.0,206.1,-12.6,,,,,22:49:52,10.8,-1.1,19.7,0.0,259.0,0.0,-0.02,1.0,99.0,15.0,32.0,0.0,29.99,2375.0,,,144.0,,,,,0.0,0.0,,,,,,,,,,,,,,,,,,,0.0,24.0,0.0,0.0,29.9,0.0,,0.0,0.0,,,20.1,0.0,0.0,-0.1,13.3,10.9,,,,,26.0,27.0,26.0,27.0,26.0,27.0,26.0,27.0,,,16.0,1.0,,0.0,3.0,4.998,,,1.472,0.834,0.0,23.6,,,,,,0.0,2026-05-01 15:48:46-07:00
75.06,1.0,10.0,2026-05-01 22:49:53,37.08167,-121.5996,327.0,0.0,206.1,-12.6,,,,,22:49:53,10.8,-1.1,19.6,0.0,259.0,0.0,-0.02,1.0,99.0,34.0,32.0,0.0,29.99,2375.0,,,144.0,,,,,0.0,0.0,,,,,,,,,,,,,,,,,,,0.0,24.0,0.0,0.0,29.9,0.0,,0.0,0.0,,,20.1,0.0,0.0,-0.1,13.3,10.9,,,,,26.0,27.0,26.0,27.0,26.0,27.0,26.0,27.0,,,16.0,1.0,,0.0,3.0,4.998,,,1.472,0.834,0.0,23.6,,,,,,0.0,2026-05-01 15:48:46-07:00
76.06,1.0,10.0,2026-05-01 22:49:54,37.08167,-121.5996,327.0,0.0,206.1,-12.6,,,,,22:49:54,10.8,-1.0,19.7,0.0,259.0,0.0,-0.02,1.0,99.0,8.0,32.0,0.0,29.99,2375.0,,,144.0,,,,,0.0,0.0,,,,,,,,,,,,,,,,,,,0.0,24.0,0.0,0.0,29.9,0.0,,0.0,0.0,,,20.1,0.0,0.0,-0.1,13.3,10.9,,,,,26.0,27.0,26.0,27.0,26.0,27.0,27.0,27.0,,,16.0,1.0,,0.0,3.0,4.998,,,1.472,0.834,0.0,23.6,,,,,,0.0,2026-05-01 15:48:46-07:00
77.06,1.0,10.0,2026-05-01 22:49:55,37.08167,-121.59959,327.0,0.0,206.1,-12.6,,,,,22:49:55,10.8,-1.0,19.7,0.0,259.0,0.0,-0.02,1.0,99.0,8.0,32.0,0.0,29.99,2376.0,,,144.0,,,,,0.0,0.0,,,,,,,,,,,,,,,,,,,0.0,24.0,0.0,0.0,29.9,0.0,,0.0,0.0,,,20.1,0.0,0.0,-0.1,13.3,10.9,,,,,26.0,27.0,26.0,27.0,26.0,27.0,26.0,27.0,,,16.0,1.0,,0.0,3.0,4.998,,,1.472,0.834,0.0,23.6,,,,,,0.0,2026-05-01 15:48:46-07:00
78.06,1.0,10.0,2026-05-01 22:49:56,37.08167,-121.59959,327.0,0.0,206.1,-12.6,,,,,22:49:56,10.8,-1.0,19.8,0.0,259.0,0.1,-0.01,1.0,99.0,36.0,32.0,0.0,29.99,2376.0,,,144.0,,,,,0.0,0.0,,,,,,,,,,,,,,,,,,,0.0,24.0,0.0,0.0,29.9,0.0,,0.0,0.0,,,20.1,0.0,0.0,-0.1,13.3,10.9,,,,,26.0,27.0,26.0,27.0,26.0,27.0,27.0,27.0,,,16.0,1.0,,0.0,3.0,4.998,,,1.472,0.834,0.0,23.6,,,,,,0.0,2026-05-01 15:48:46-07:00
79.06,1.0,10.0,2026-05-01 22:49:57,37.08167,-121.59959,327.0,0.0,206.1,-12.6,,,,,22:49:57,10.8,-1.0,19.8,0.0,259.0,0.1,-0.02,1.0,99.0,34.0,32.0,0.0,29.99,2376.0,,,144.0,,,,,0.0,0.0,,,,,,,,,,,,,,,,,,,0.0,24.0,0.0,0.0,29.9,0.0,,0.0,0.0,,,20.1,0.0,0.0,-0.1,13.3,10.9,,,,,26.0,27.0,26.0,27.0,26.0,27.0,27.0,27.0,,,16.0,1.0,,0.0,3.0,4.998,,,1.472,0.834,0.0,23.6,,,,,,0.0,2026-05-01 15:48:46-07:00
80.06,2.0,10.0,2026-05-01 22:49:58,37.08167,-121.59959,325.0,0.0,206.1,-12.6,,,,,22:49:58,10.8,-1.0,19.9,0.0,259.0,0.1,-0.01,1.0,99.0,-5.0,32.0,0.0,29.99,2386.0,,,144.0,,,,,0.0,0.0,,,,,,,,,,,,,,,,,,,0.0,24.0,0.0,0.0,29.9,0.0,,0.0,0.0,,,20.1,0.0,0.0,-0.1,13.3,10.9,,,,,26.0,27.0,26.0,27.0,26.0,27.0,27.0,27.0,,,16.0,1.0,,0.0,3.0,4.998,,,1.472,0.834,0.0,23.6,,,,,,0.0,2026-05-01 15:48:46-07:00
81.06,2.0,10.0,2026-05-01 22:49:59,37.08167,-121.59959,325.0,0.0,206.1,-12.6,,,,,22:49:59,10.8,-1.0,19.9,0.0,259.0,0.1,-0.01,1.0,99.0,10.0,32.0,0.0,29.99,2386.0,,,144.0,,,,,0.0,0.0,,,,,,,,,,,,,,,,,,,0.0,24.0,0.0,0.0,29.9,0.0,,0.0,0.0,,,20.1,0.0,0.0,-0.1,13.3,10.9,,,,,26.0,27.0,26.0,27.0,26.0,27.0,26.0,27.0,,,16.0,1.0,,0.0,3.0,4.998,,,1.472,0.834,0.0,23.6,,,,,,0.0,2026-05-01 15:48:46-07:00
82.06,2.0,10.0,2026-05-01 22:50:00,37.08167,-121.59959,325.0,0.0,206.1,-12.6,,,,,22:50:00,10.8,-1.1,19.8,0.0,259.0,0.1,-0.02,1.0,99.0,35.0,32.0,0.0,29.99,2386.0,,,144.0,,,,,0.0,0.0,,,,,,,,,,,,,,,,,,,0.0,24.0,0.0,0.0,29.9,0.0,,0.0,0.0,,,20.1,0.0,0.0,-0.1,13.3,10.9,,,,,26.0,27.0,26.0,27.0,26.0,27.0,26.0,27.0,,,16.0,1.0,,0.0,3.0,4.998,,,1.472,0.834,0.0,23.6,,,,,,0.0,2026-05-01 15:48:46-07:00
83.06,2.0,10.0,2026-05-01 22:50:01,37.08167,-121.59959,324.0,0.0,206.1,-12.6,,,,,22:50:01,10.8,-1.1,19.7,0.0,259.0,0.0,-0.02,1.0,99.0,27.0,32.0,0.0,29.99,2387.0,,,144.0,,,,,0.0,0.0,,,,,,,,,,,,,,,,,,,0.0,24.0,0.0,0.0,30.0,0.0,,0.0,0.0,,,20.1,0.0,0.0,-0.1,13.3,10.9,,,,,26.0,27.0,26.0,27.0,26.0,27.0,26.0,27.0,,,16.0,1.0,,0.0,3.0,4.998,,,1.472,0.834,0.0,23.6,,,,,,0.0,2026-05-01 15:48:46-07:00
84.06,2.0,10.0,2026-05-01 22:50:02,37.08167,-121.59959,324.0,0.0,206.1,-12.6,,,,,22:50:02,10.9,-1.1,19.7,0.0,259.0,0.1,-0.02,1.0,99.0,23.0,32.0,0.0,29.99,2387.0,,,144.0,,,,,0.0,0.0,,,,,,,,,,,,,,,,,,,0.0,24.0,0.0,0.0,29.9,0.0,,0.0,0.0,,,20.1,0.0,0.0,-0.1,13.3,10.9,,,,,26.0,27.0,26.0,27.0,26.0,27.0,26.0,27.0,,,16.0,1.0,,0.0,3.0,4.998,,,1.472,0.834,0.0,23.6,,,,,,0.0,2026-05-01 15:48:46-07:00
85.06,2.0,10.0,2026-05-01 22:50:03,37.08167,-121.59959,324.0,0.1,206.1,-12.6,,,,,22:50:03,10.8,-1.1,19.7,0.0,259.0,0.0,-0.02,1.0,99.0,5.0,33.0,0.0,29.99,2387.0,,,144.0,,,,,0.0,0.0,,,,,,,,,,,,,,,,,,,0.0,24.0,0.0,0.0,29.9,0.0,,0.0,0.0,,,20.1,0.0,0.0,-0.1,13.3,10.9,,,,,26.0,27.0,26.0,27.0,26.0,27.0,26.0,27.0,,,16.0,1.0,,0.0,3.0,4.998,,,1.472,0.834,0.0,23.6,,,,,,0.0,2026-05-01 15:48:46-07:00
86.06,2.0,10.0,2026-05-01 22:50:04,37.08167,-121.59959,323.0,0.1,206.1,-12.6,,,,,22:50:04,10.9,-1.1,19.7,0.0,259.0,0.1,-0.02,1.0,99.0,11.0,33.0,0.0,29.99,2396.0,,,144.0,,,,,0.0,0.0,,,,,,,,,,,,,,,,,,,0.0,24.0,0.0,0.0,29.9,0.0,,0.0,0.0,,,20.1,0.0,0.0,-0.1,13.3,10.9,,,,,26.0,27.0,26.0,27.0,26.0,27.0,26.0,27.0,,,16.0,0.0,,0.0,3.0,4.998,,,1.472,0.834,0.0,23.6,,,,,,0.0,2026-05-01 15:48:46-07:00
87.06,2.0,10.0,2026-05-01 22:50:05,37.08167,-121.59959,323.0,0.0,206.1,-12.6,,,,,22:50:05,10.9,-1.0,19.7,0.0,259.0,0.1,-0.02,1.0,99.0,-5.0,33.0,0.0,29.99,2396.0,,,144.0,,,,,0.0,0.0,,,,,,,,,,,,,,,,,,,0.0,24.0,0.0,0.0,29.9,0.0,,0.0,0.0,,,20.1,0.0,0.0,-0.1,13.3,10.9,,,,,26.0,27.0,26.0,27.0,26.0,27.0,26.0,27.0,,,16.0,0.0,,0.0,3.0,4.998,,,1.472,0.834,0.0,23.6,,,,,,0.0,2026-05-01 15:48:46-07:00
88.06,2.0,10.0,2026-05-01 22:50:06,37.08167,-121.59959,323.0,0.0,206.1,-12.6,,,,,22:50:06,10.9,-1.1,19.7,0.0,259.0,0.1,-0.02,1.0,99.0,-10.0,33.0,0.0,29.99,2396.0,,,144.0,,,,,0.0,0.0,,,,,,,,,,,,,,,,,,,0.0,24.0,0.0,0.0,29.9,0.0,,0.0,0.0,,,20.1,0.0,0.0,-0.1,13.3,10.9,,,,,26.0,27.0,26.0,27.0,26.0,27.0,26.0,27.0,,,16.0,0.0,,0.0,3.0,4.998,,,1.472,0.834,0.0,23.6,,,,,,0.0,2026-05-01 15:48:46-07:00
89.06,2.0,10.0,2026-05-01 22:50:07,37.08167,-121.59959,323.0,0.0,206.1,-12.6,,,,,22:50:07,10.9,-1.0,19.7,0.0,259.0,0.1,-0.02,1.0,99.0,-16.0,33.0,0.0,29.99,2397.0,,,144.0,,,,,0.0,0.0,,,,,,,,,,,,,,,,,,,0.0,24.0,0.0,0.0,29.9,0.0,,0.0,0.0,,,20.1,0.0,0.0,-0.1,13.3,10.9,,,,,26.0,27.0,26.0,27.0,26.0,27.0,26.0,27.0,,,16.0,0.0,,0.0,3.0,4.998,,,1.472,0.834,0.0,23.6,,,,,,0.0,2026-05-01 15:48:46-07:00
90.06,2.0,10.0,2026-05-01 22:50:08,37.08167,-121.59959,322.0,0.0,206.1,-12.6,,,,,22:50:08,11.0,-1.0,19.7,0.0,259.0,0.1,-0.02,1.0,99.0,-9.0,33.0,0.0,29.99,2397.0,,,144.0,,,,,0.0,0.0,,,,,,,,,,,,,,,,,,,0.0,24.0,0.0,0.0,30.0,0.0,,0.0,0.0,,,20.1,0.0,0.0,-0.1,13.3,10.9,,,,,26.0,27.0,26.0,27.0,26.0,27.0,26.0,27.0,,,16.0,0.0,,0.0,3.0,4.998,,,1.472,0.834,0.0,23.6,,,,,,0.0,2026-05-01 15:48:46-07:00
91.06,2.0,10.0,2026-05-01 22:50:09,37.08167,-121.59959,323.0,0.0,206.1,-12.6,,,,,22:50:09,10.9,-1.1,19.7,0.0,259.0,0.0,-0.02,1.0,99.0,-5.0,33.0,0.0,29.99,2397.0,,,144.0,,,,,0.0,0.0,,,,,,,,,,,,,,,,,,,0.0,24.0,0.0,0.0,30.0,0.0,,0.0,0.0,,,20.1,0.0,0.0,-0.1,13.3,10.9,,,,,26.0,27.0,26.0,27.0,26.0,27.0,27.0,27.0,,,16.0,0.0,,0.0,3.0,4.998,,,1.472,0.834,0.0,23.6,,,,,,0.0,2026-05-01 15:48:46-07:00
92.06,2.0,10.0,2026-05-01 22:50:10,37.08167,-121.59959,323.0,0.0,206.1,-12.6,,,,,22:50:10,10.9,-1.1,19.6,0.0,259.0,0.0,-0.02,1.0,99.0,3.0,33.0,0.0,29.99,2397.0,,,144.0,,,,,0.0,0.0,,,,,,,,,,,,,,,,,,,0.0,24.0,0.0,0.0,30.0,0.0,,0.0,0.0,,,20.1,0.0,0.0,-0.1,13.3,10.9,,,,,26.0,27.0,26.0,27.0,26.0,27.0,26.0,27.0,,,16.0,0.0,,0.0,3.0,4.998,,,1.472,0.834,0.0,23.6,,,,,,0.0,2026-05-01 15:48:46-07:00
93.06,2.0,10.0,2026-05-01 22:50:11,37.08167,-121.59959,322.0,0.0,206.1,-12.6,,,,,22:50:11,10.9,-1.2,19.6,0.0,259.0,0.0,-0.02,1.0,99.0,40.0,33.0,0.0,29.99,2398.0,,,144.0,,,,,0.0,0.0,,,,,,,,,,,,,,,,,,,0.0,24.0,0.0,0.0,30.0,0.0,,0.0,0.0,,,20.1,0.0,0.0,-0.1,13.3,10.9,,,,,26.0,27.0,26.0,27.0,26.0,27.0,27.0,27.0,,,16.0,0.0,,0.0,3.0,4.998,,,1.472,0.834,0.0,23.6,,,,,,0.0,2026-05-01 15:48:46-07:00
94.06,2.0,10.0,2026-05-01 22:50:12,37.08167,-121.59959,322.0,0.0,206.1,-12.6,,,,,22:50:12,10.9,-1.2,19.5,0.0,259.0,0.0,-0.02,1.0,99.0,8.0,33.0,0.0,29.99,2398.0,,,144.0,,,,,0.0,0.0,,,,,,,,,,,,,,,,,,,0.0,24.0,0.0,0.0,29.9,0.0,,0.0,0.0,,,20.1,0.0,0.0,-0.1,13.3,10.9,,,,,26.0,27.0,26.0,27.0,26.0,27.0,26.0,27.0,,,16.0,0.0,,0.0,3.0,4.998,,,1.472,0.834,0.0,23.6,,,,,,0.0,2026-05-01 15:48:46-07:00
95.06,2.0,10.0,2026-05-01 22:50:13,37.08167,-121.59959,322.0,0.1,206.1,-12.6,,,,,22:50:13,10.9,-1.2,19.4,0.0,259.0,0.0,-0.02,1.0,99.0,37.0,33.0,0.0,29.99,2398.0,,,144.0,,,,,0.0,0.0,,,,,,,,,,,,,,,,,,,0.0,24.0,0.0,0.0,30.0,0.0,,0.0,0.0,,,20.1,0.0,0.0,-0.1,13.3,10.9,,,,,26.0,27.0,26.0,27.0,26.0,27.0,27.0,27.0,,,16.0,0.0,,0.0,3.0,4.998,,,1.472,0.834,0.0,23.6,,,,,,0.0,2026-05-01 15:48:46-07:00
96.06,2.0,10.0,2026-05-01 22:50:14,37.08167,-121.59959,322.0,0.0,206.1,-12.6,,,,,22:50:14,10.9,-1.2,19.4,0.0,259.0,0.0,-0.02,1.0,99.0,51.0,33.0,0.0,29.99,2407.0,,,144.0,,,,,0.0,0.0,,,,,,,,,,,,,,,,,,,0.0,24.0,0.0,0.0,29.9,0.0,,0.0,0.0,,,20.1,0.0,0.0,-0.1,13.3,10.9,,,,,26.0,27.0,26.0,27.0,26.0,27.0,27.0,27.0,,,16.0,0.0,,0.0,3.0,4.998,,,1.472,0.834,0.0,23.6,,,,,,0.0,2026-05-01 15:48:46-07:00
97.06,2.0,10.0,2026-05-01 22:50:15,37.08167,-121.59959,322.0,0.0,206.1,-12.6,,,,,22:50:15,10.9,-1.2,19.4,0.0,259.0,0.0,-0.02,1.0,99.0,28.0,33.0,0.0,29.99,2407.0,,,144.0,,,,,0.0,0.0,,,,,,,,,,,,,,,,,,,0.0,24.0,0.0,0.0,29.9,0.0,,0.0,0.0,,,20.1,0.0,0.0,-0.1,13.3,10.9,,,,,26.0,27.0,26.0,27.0,26.0,27.0,27.0,27.0,,,16.0,0.0,,0.0,3.0,4.998,,,1.472,0.834,0.0,23.6,,,,,,0.0,2026-05-01 15:48:46-07:00
98.06,2.0,10.0,2026-05-01 22:50:16,37.08165,-121.59959,313.0,0.0,206.1,-12.6,,,,,22:50:16,10.9,-1.2,19.4,0.0,260.0,0.1,-0.02,1.0,99.0,48.0,33.0,0.0,29.99,2407.0,,,144.0,,,,,0.0,0.0,,,,,,,,,,,,,,,,,,,0.0,24.0,0.0,0.0,29.9,0.0,,0.0,0.0,,,20.1,0.0,0.0,-0.1,13.3,10.9,,,,,26.0,27.0,26.0,27.0,26.0,27.0,26.0,27.0,,,16.0,0.0,,0.0,3.0,4.998,,,1.472,0.834,0.0,23.6,,,,,,0.0,2026-05-01 15:48:46-07:00
99.06,2.0,10.0,2026-05-01 22:50:17,37.08165,-121.59959,317.0,0.0,206.1,-12.6,,,,,22:50:17,11.0,-1.1,19.4,0.0,260.0,0.0,-0.02,1.0,99.0,33.0,33.0,0.0,29.99,2409.0,,,144.0,,,,,0.0,0.0,,,,,,,,,,,,,,,,,,,0.0,24.0,0.0,0.0,30.0,0.0,,0.0,0.0,,,20.1,0.0,0.0,-0.1,13.3,10.9,,,,,26.0,27.0,26.0,27.0,26.0,27.0,27.0,28.0,,,16.0,0.0,,0.0,3.0,4.998,,,1.472,0.834,0.0,23.6,,,,,,0.0,2026-05-01 15:48:46-07:00
100.06,2.0,10.0,2026-05-01 22:50:18,37.08165,-121.59959,317.0,0.0,206.1,-12.6,,,,,22:50:18,11.0,-1.2,19.4,0.0,260.0,0.0,-0.02,1.0,99.0,-3.0,33.0,0.0,29.99,2409.0,,,144.0,,,,,0.0,0.0,,,,,,,,,,,,,,,,,,,0.0,24.0,0.0,0.0,30.0,0.0,,0.0,19.5,,,20.1,0.0,0.0,-0.0,13.3,10.9,,,,,26.0,27.0,26.0,27.0,26.0,27.0,27.0,28.0,,,16.0,0.0,,19.5,3.0,4.998,,,1.472,0.834,0.0,23.6,,,,,,0.0,2026-05-01 15:48:46-07:00
101.06,2.0,10.0,2026-05-01 22:50:19,37.08165,-121.59959,317.0,0.0,206.1,-12.6,,,,,22:50:19,11.0,-1.2,19.4,0.0,260.0,0.0,-0.02,1.0,99.0,17.0,33.0,0.0,29.99,2409.0,,,144.0,,,,,0.0,0.0,,,,,,,,,,,,,,,,,,,0.0,24.0,0.0,0.0,30.0,0.0,,0.0,31.8,,,20.1,0.0,0.0,-0.1,13.3,10.9,,,,,26.0,28.0,26.0,27.0,26.0,27.0,27.0,28.0,,,16.0,0.0,,31.8,3.0,4.998,,,1.472,0.834,0.0,23.6,,,,,,0.0,2026-05-01 15:48:46-07:00
102.06,2.0,10.0,2026-05-01 22:50:20,37.08165,-121.59959,317.0,0.0,206.1,-12.6,,,,,22:50:20,11.0,-1.1,19.4,0.0,260.0,0.0,-0.02,1.0,99.0,16.0,33.0,0.0,29.99,2409.0,,,144.0,,,,,0.0,0.0,,,,,,,,,,,,,,,,,,,0.0,24.0,0.0,0.0,30.0,0.7,,0.7,32.0,,,20.1,0.0,0.0,-0.1,13.3,10.9,,,,,26.0,27.0,26.0,27.0,26.0,27.0,27.0,28.0,,,16.0,0.0,,32.0,3.0,4.998,,,1.472,0.834,0.0,23.6,,,,,,0.0,2026-05-01 15:48:46-07:00
103.06,2.0,10.0,2026-05-01 22:50:21,37.08165,-121.59959,317.0,0.0,206.1,-12.6,,,,,22:50:21,10.9,-1.1,19.5,0.0,260.0,0.1,-0.02,1.0,99.0,15.0,33.0,0.0,29.99,2409.0,,,144.0,,,,,0.0,0.0,,,,,,,,,,,,,,,,,,,0.0,24.0,0.0,0.0,30.0,1.5,,1.5,32.1,,,20.1,0.0,0.0,-0.1,13.3,10.9,,,,,26.0,27.0,26.0,27.0,26.0,27.0,27.0,28.0,,,16.0,0.0,,32.1,3.0,4.998,,,1.472,0.834,0.0,23.6,,,,,,0.0,2026-05-01 15:48:46-07:00
104.06,2.0,10.0,2026-05-01 22:50:22,37.08165,-121.59959,317.0,0.1,206.1,-12.6,,,,,22:50:22,10.9,-1.1,19.5,0.0,260.0,0.1,-0.02,1.0,99.0,18.0,33.0,0.0,29.99,2410.0,,,144.0,,,,,0.0,0.0,,,,,,,,,,,,,,,,,,,0.0,24.0,0.0,0.0,30.0,2.1,,2.1,32.1,,,20.1,0.0,0.0,-0.0,13.3,10.9,,,,,26.0,27.0,26.0,27.0,26.0,27.0,27.0,28.0,,,16.0,0.0,,32.1,3.0,4.998,,,1.472,0.834,0.0,23.6,,,,,,0.0,2026-05-01 15:48:46-07:00
105.06,2.0,10.0,2026-05-01 22:50:23,37.08165,-121.59959,316.0,0.0,206.1,-12.6,,,,,22:50:23,10.9,-1.2,19.5,0.0,262.0,0.1,-0.02,1.0,99.0,35.0,33.0,0.0,29.99,2411.0,,,144.0,,,,,0.0,0.0,,,,,,,,,,,,,,,,,,,0.0,24.0,0.0,0.0,30.0,2.5,,2.5,32.1,,,20.1,0.0,0.0,-0.0,13.3,10.9,,,,,26.0,27.0,26.0,27.0,26.0,27.0,27.0,28.0,,,16.0,0.0,,32.1,3.0,4.998,,,1.472,0.834,0.0,23.6,,,,,,0.0,2026-05-01 15:48:46-07:00
106.06,2.0,10.0,2026-05-01 22:50:24,37.08165,-121.59959,316.0,0.0,206.1,-12.6,,,,,22:50:24,10.9,-1.2,19.5,0.0,262.0,0.0,-0.02,1.0,99.0,40.0,33.0,0.0,29.99,2413.0,,,144.0,,,,,0.0,0.0,,,,,,,,,,,,,,,,,,,0.0,24.0,0.0,0.0,30.0,2.8,,2.8,33.6,,,20.1,0.0,0.0,-0.0,13.3,10.9,,,,,26.0,27.0,26.0,27.0,26.0,27.0,26.0,28.0,,,16.0,0.0,,33.6,3.0,4.998,,,1.472,0.834,0.0,23.6,,,,,,0.0,2026-05-01 15:48:46-07:00
107.06,2.0,10.0,2026-05-01 22:50:25,37.08165,-121.59959,316.0,0.0,206.1,-12.6,,,,,22:50:25,10.8,-1.2,19.4,0.0,264.0,-0.0,-0.02,1.0,99.0,83.0,33.0,0.0,29.99,2415.0,,,144.0,,,,,0.0,0.0,,,,,,,,,,,,,,,,,,,0.0,24.0,0.0,0.0,30.0,2.5,,2.5,32.8,,,20.1,0.0,0.0,-0.0,13.3,10.9,,,,,26.0,27.0,26.0,27.0,26.0,27.0,26.0,28.0,,,16.0,0.0,,32.8,3.0,4.998,,,1.472,0.834,0.0,23.6,,,,,,0.0,2026-05-01 15:48:46-07:00
108.06,2.0,10.0,2026-05-01 22:50:26,37.08165,-121.59959,316.0,0.0,206.1,-12.6,,,,,22:50:26,10.8,-1.1,19.5,0.0,265.0,0.0,-0.02,1.0,99.0,63.0,33.0,0.0,29.99,2416.0,,,144.0,,,,,0.0,0.0,,,,,,,,,,,,,,,,,,,0.0,24.0,0.0,0.0,29.9,2.0,,2.0,32.5,,,20.1,0.0,0.0,-0.0,13.3,10.9,,,,,26.0,27.0,26.0,27.0,26.0,27.0,26.0,28.0,,,16.0,0.0,,32.5,3.0,4.998,,,1.472,0.834,0.0,23.6,,,,,,0.0,2026-05-01 15:48:46-07:00
109.06,2.0,10.0,2026-05-01 22:50:27,37.08165,-121.59959,316.0,0.0,206.1,-12.6,,,,,22:50:27,10.8,-1.1,19.5,0.0,265.0,0.0,-0.02,1.0,99.0,49.0,33.0,0.0,29.99,2416.0,,,144.0,,,,,0.0,0.0,,,,,,,,,,,,,,,,,,,0.0,24.0,0.0,0.0,29.9,2.0,,2.0,32.2,,,20.1,0.0,0.0,-0.0,13.3,10.9,,,,,26.0,27.0,26.0,27.0,26.0,27.0,26.0,28.0,,,16.0,0.0,,32.2,3.0,4.998,,,1.472,0.833,0.0,23.6,,,,,,0.0,2026-05-01 15:48:46-07:00
110.06,2.0,10.0,2026-05-01 22:50:28,37.08165,-121.59959,316.0,0.0,206.1,-12.6,,,,,22:50:28,10.8,-1.1,19.5,0.0,266.0,0.0,-0.02,1.0,99.0,28.0,33.0,0.0,29.99,2417.0,,,144.0,,,,,0.0,0.0,,,,,,,,,,,,,,,,,,,0.0,24.0,0.0,0.0,29.9,2.0,,2.0,32.0,,,20.1,0.0,0.0,-0.0,13.3,10.9,,,,,26.0,27.0,26.0,27.0,26.0,27.0,26.0,28.0,,,16.0,0.0,,32.0,3.0,4.998,,,1.472,0.834,0.0,23.6,,,,,,0.0,2026-05-01 15:48:46-07:00
111.06,2.0,10.0,2026-05-01 22:50:29,37.08165,-121.59959,316.0,0.1,206.1,-12.6,,,,,22:50:29,10.9,-1.0,19.5,0.0,267.0,0.0,-0.02,1.0,99.0,52.0,33.0,0.0,29.99,2418.0,,,144.0,,,,,0.0,0.0,,,,,,,,,,,,,,,,,,,0.0,24.0,0.0,0.0,29.9,2.0,,2.0,31.8,,,20.1,0.0,0.0,-0.0,13.3,10.9,,,,,26.0,27.0,26.0,27.0,26.0,27.0,26.0,28.0,,,16.0,0.0,,31.8,3.0,4.998,,,1.472,0.834,0.0,23.6,,,,,,0.0,2026-05-01 15:48:46-07:00
112.06,2.0,10.0,2026-05-01 22:50:30,37.08165,-121.59959,315.0,0.0,206.1,-12.6,,,,,22:50:30,10.8,-1.1,19.6,0.0,267.0,0.1,-0.02,1.0,99.0,45.0,33.0,0.0,29.99,2418.0,,,144.0,,,,,0.0,0.0,,,,,,,,,,,,,,,,,,,0.0,24.0,0.0,0.0,29.9,2.0,,2.0,31.6,,,20.1,0.0,0.0,-0.0,13.3,10.9,,,,,26.0,27.0,26.0,27.0,26.0,27.0,26.0,28.0,,,16.0,0.0,,31.6,3.0,4.998,,,1.472,0.834,0.0,23.6,,,,,,0.0,2026-05-01 15:48:46-07:00
113.06,2.0,10.0,2026-05-01 22:50:31,37.08165,-121.59959,315.0,0.0,206.1,-12.6,,,,,22:50:31,10.8,-1.0,19.7,0.0,267.0,0.1,-0.02,1.0,99.0,37.0,33.0,0.0,29.99,2431.0,,,144.0,,,,,0.0,0.0,,,,,,,,,,,,,,,,,,,0.0,24.0,0.0,0.0,29.9,0.0,,0.0,31.4,,,20.1,0.0,0.0,-0.0,13.3,10.9,,,,,26.0,27.0,26.0,27.0,26.0,27.0,26.0,28.0,,,16.0,0.0,,31.4,3.0,4.998,,,1.472,0.834,0.0,23.6,,,,,,0.0,2026-05-01 15:48:46-07:00
114.06,2.0,10.0,2026-05-01 22:50:32,37.08165,-121.59959,315.0,0.1,206.1,-12.6,,,,,22:50:32,10.8,-1.0,19.7,0.0,268.0,0.1,-0.02,1.0,99.0,49.0,33.0,0.0,29.99,2432.0,,,144.0,,,,,0.0,0.0,,,,,,,,,,,,,,,,,,,0.0,24.0,0.0,0.0,29.9,0.0,,0.0,31.2,,,20.1,0.0,0.0,-0.0,13.3,10.9,,,,,26.0,27.0,26.0,27.0,26.0,27.0,27.0,28.0,,,16.0,0.0,,31.2,3.0,4.998,,,1.472,0.834,0.0,23.6,,,,,,0.0,2026-05-01 15:48:46-07:00
115.06,2.0,10.0,2026-05-01 22:50:33,37.08165,-121.59959,315.0,0.0,206.1,-12.6,,,,,22:50:33,10.8,-1.0,19.8,0.0,268.0,0.1,-0.02,1.0,99.0,18.0,33.0,0.0,29.99,2432.0,,,144.0,,,,,0.0,0.0,,,,,,,,,,,,,,,,,,,0.0,24.0,0.0,0.0,30.0,0.0,,0.0,31.0,,,20.1,0.0,0.0,-0.0,13.3,10.9,,,,,26.0,27.0,26.0,27.0,26.0,27.0,27.0,27.0,,,16.0,0.0,,31.0,3.0,4.998,,,1.472,0.833,0.0,23.6,,,,,,0.0,2026-05-01 15:48:46-07:00
116.06,2.0,10.0,2026-05-01 22:50:34,37.08165,-121.59959,315.0,0.0,206.1,-12.6,,,,,22:50:34,10.8,-1.0,19.9,0.0,268.0,0.1,-0.02,1.0,99.0,10.0,33.0,0.0,29.99,2432.0,,,144.0,,,,,0.0,0.0,,,,,,,,,,,,,,,,,,,0.0,24.0,0.0,0.0,29.9,0.0,,0.0,30.9,,,20.1,0.0,0.0,-0.0,13.3,10.9,,,,,26.0,27.0,26.0,27.0,26.0,27.0,27.0,28.0,,,16.0,0.0,,30.9,3.0,4.998,,,1.472,0.833,0.0,23.6,,,,,,0.0,2026-05-01 15:48:46-07:00
117.06,2.0,10.0,2026-05-01 22:50:35,37.08165,-121.59959,314.0,0.0,206.1,-12.6,,,,,22:50:35,10.8,-1.0,19.8,0.0,268.0,0.0,-0.02,1.0,99.0,-8.0,33.0,0.0,29.99,2441.0,,,144.0,,,,,0.0,0.0,,,,,,,,,,,,,,,,,,,0.0,24.0,0.0,0.0,29.9,0.0,,0.0,30.8,,,20.1,0.0,0.0,-0.0,13.3,10.9,,,,,26.0,27.0,26.0,27.0,26.0,27.0,27.0,27.0,,,16.0,0.0,,30.8,3.0,4.998,,,1.472,0.833,0.0,23.6,,,,,,0.0,2026-05-01 15:48:46-07:00
118.06,2.0,10.0,2026-05-01 22:50:36,37.08165,-121.5996,315.0,0.1,206.1,-12.6,,,,,22:50:36,10.8,-0.9,19.9,0.0,268.0,0.1,-0.02,1.0,99.0,23.0,33.0,0.0,29.99,2441.0,,,144.0,,,,,0.0,0.0,,,,,,,,,,,,,,,,,,,0.0,24.0,0.0,0.0,29.9,0.0,,0.0,30.6,,,20.1,0.0,0.0,-0.0,13.3,10.9,,,,,26.0,27.0,26.0,27.0,26.0,27.0,27.0,27.0,,,16.0,0.0,,30.6,3.0,4.998,,,1.472,0.833,0.0,23.6,,,,,,0.0,2026-05-01 15:48:46-07:00
119.06,2.0,10.0,2026-05-01 22:50:37,37.08165,-121.5996,315.0,0.1,206.1,-12.6,,,,,22:50:37,10.8,-0.9,19.9,0.0,268.0,0.0,-0.02,1.0,99.0,6.0,33.0,0.0,29.99,2441.0,,,144.0,,,,,0.0,0.0,,,,,,,,,,,,,,,,,,,0.0,24.0,0.0,0.0,29.9,0.0,,0.0,30.5,,,20.1,0.0,0.0,-0.0,13.3,10.9,,,,,26.0,27.0,26.0,27.0,26.0,27.0,27.0,27.0,,,16.0,0.0,,30.5,3.0,4.998,,,1.472,0.833,0.0,23.6,,,,,,0.0,2026-05-01 15:48:46-07:00
120.06,2.0,10.0,2026-05-01 22:50:38,37.08165,-121.5996,315.0,0.0,206.1,-12.6,,,,,22:50:38,10.8,-1.0,19.8,0.0,268.0,0.0,-0.02,1.0,99.0,-15.0,33.0,0.0,29.99,2441.0,,,144.0,,,,,0.0,0.0,,,,,,,,,,,,,,,,,,,0.0,24.0,0.0,0.0,29.9,0.0,,0.0,30.3,,,20.1,0.0,0.0,-0.0,13.3,10.9,,,,,26.0,27.0,26.0,27.0,26.0,27.0,27.0,27.0,,,16.0,0.0,,30.3,3.0,4.998,,,1.472,0.834,0.0,23.6,,,,,,0.0,2026-05-01 15:48:46-07:00
121.06,1.0,10.0,2026-05-01 22:50:39,37.08165,-121.5996,315.0,0.0,206.1,-12.6,,,,,22:50:39,10.8,-1.0,19.8,0.0,268.0,0.0,-0.02,1.0,99.0,-21.0,33.0,0.0,29.99,2441.0,,,144.0,,,,,0.0,0.0,,,,,,,,,,,,,,,,,,,0.0,24.0,0.0,0.0,29.9,0.0,,0.0,30.2,,,20.1,0.0,0.0,-0.0,13.3,10.9,,,,,26.0,27.0,26.0,27.0,26.0,27.0,27.0,27.0,,,16.0,0.0,,30.2,3.0,4.998,,,1.472,0.834,0.0,23.6,,,,,,0.0,2026-05-01 15:48:46-07:00
122.06,1.0,10.0,2026-05-01 22:50:40,37.08165,-121.5996,315.0,0.1,206.1,-12.6,,,,,22:50:40,10.8,-1.0,19.8,0.0,268.0,0.1,-0.02,1.0,99.0,-22.0,33.0,0.0,29.99,2443.0,,,144.0,,,,,0.0,0.0,,,,,,,,,,,,,,,,,,,0.0,24.0,0.0,0.0,29.9,0.0,,0.0,30.0,,,20.1,0.0,0.0,-0.0,13.3,10.9,,,,,26.0,27.0,26.0,27.0,26.0,27.0,27.0,27.0,,,16.0,0.0,,30.0,3.0,3.037,,,1.472,0.833,0.0,23.6,,,,,,0.0,2026-05-01 15:48:46-07:00
123.06,1.0,10.0,2026-05-01 22:50:41,37.08165,-121.5996,315.0,0.0,206.1,-12.6,,,,,22:50:41,10.8,-1.0,19.8,0.0,268.0,0.1,-0.02,1.0,99.0,-25.0,33.0,0.0,29.99,2443.0,,,144.0,,,,,0.0,0.0,,,,,,,,,,,,,,,,,,,0.0,24.0,0.0,0.0,29.9,0.0,,0.0,29.9,,,20.1,0.0,0.0,-0.0,13.3,10.9,,,,,26.0,27.0,26.0,27.0,26.0,27.0,27.0,27.0,,,16.0,0.0,,29.9,3.0,0.001,,,1.472,0.836,0.0,23.6,,,,,,0.0,2026-05-01 15:48:46-07:00
124.06,1.0,10.0,2026-05-01 22:50:42,37.08165,-121.5996,315.0,0.0,206.1,-12.6,,,,,22:50:42,10.8,-1.0,19.8,0.0,268.0,0.1,-0.02,1.0,99.0,-18.0,33.0,0.0,29.99,2443.0,,,144.0,,,,,0.0,0.0,,,,,,,,,,,,,,,,,,,0.0,24.0,0.0,0.0,29.9,0.0,,0.0,29.8,,,20.1,0.0,0.0,-0.0,13.3,10.9,,,,,26.0,28.0,26.0,27.0,26.0,28.0,27.0,28.0,,,16.0,0.0,,29.8,3.0,0.0,,,1.472,0.839,0.0,23.6,,,,,,0.0,2026-05-01 15:48:46-07:00
125.06,1.0,10.0,2026-05-01 22:50:43,37.08165,-121.5996,315.0,0.0,206.1,-12.6,,,,,22:50:43,10.9,-1.1,19.7,0.0,268.0,0.0,-0.01,1.0,99.0,-46.0,33.0,0.0,29.99,2451.0,,,144.0,,,,,0.0,0.0,,,,,,,,,,,,,,,,,,,0.0,24.0,0.0,0.0,29.9,0.0,,0.0,29.7,,,20.1,0.0,0.0,-0.0,13.3,10.9,,,,,26.0,28.0,26.0,27.0,26.0,28.0,27.0,28.0,,,16.0,0.0,,29.7,3.0,4.845,,,1.472,0.839,0.0,23.6,,,,,,0.0,2026-05-01 15:48:46-07:00
126.06,1.0,10.0,2026-05-01 22:50:44,37.08165,-121.5996,315.0,0.1,206.1,-12.6,,,,,22:50:44,10.8,-1.0,19.7,0.0,268.0,0.1,-0.02,1.0,99.0,-1.0,33.0,0.0,29.99,2451.0,,,144.0,,,,,0.0,0.0,,,,,,,,,,,,,,,,,,,0.0,24.0,0.0,0.0,29.9,0.0,,0.0,29.6,,,20.1,0.0,0.0,-0.0,13.3,10.9,,,,,26.0,28.0,26.0,27.0,26.0,28.0,27.0,28.0,,,16.0,0.0,,29.6,3.0,4.998,,,1.472,0.835,0.0,23.6,,,,,,0.0,2026-05-01 15:48:46-07:00
127.06,1.0,10.0,2026-05-01 22:50:45,37.08165,-121.5996,315.0,0.0,206.1,-12.6,,,,,22:50:45,10.8,-1.0,19.8,0.0,268.0,0.1,-0.02,1.0,99.0,-18.0,33.0,0.0,29.99,2451.0,,,144.0,,,,,0.0,0.0,,,,,,,,,,,,,,,,,,,0.0,24.0,0.0,0.0,29.9,0.0,,0.0,29.4,,,20.1,0.0,0.0,-0.0,13.3,10.9,,,,,26.0,28.0,26.0,27.0,26.0,28.0,27.0,28.0,,,16.0,0.0,,29.4,3.0,0.0,,,1.472,0.835,0.0,23.6,,,,,,0.0,2026-05-01 15:48:46-07:00
128.06,1.0,10.0,2026-05-01 22:50:46,37.08166,-121.59961,311.0,0.1,206.1,-12.6,,,,,22:50:46,10.9,-1.0,19.8,0.0,268.0,0.1,-0.02,1.0,99.0,12.0,33.0,0.0,29.99,2452.0,,,144.0,,,,,0.0,0.0,,,,,,,,,,,,,,,,,,,0.0,24.0,0.0,0.0,29.9,0.0,,0.0,29.3,,,20.1,0.0,0.0,-0.0,13.3,10.9,,,,,26.0,28.0,26.0,27.0,26.0,28.0,27.0,28.0,,,16.0,0.0,,29.3,3.0,0.0,,,1.472,0.836,0.0,23.6,,,,,,0.0,2026-05-01 15:48:46-07:00
129.06,1.0,10.0,2026-05-01 22:50:47,37.08165,-121.59961,314.0,0.0,206.1,-12.6,,,,,22:50:47,10.8,-1.0,19.8,0.0,268.0,0.1,-0.02,1.0,99.0,20.0,33.0,0.0,29.99,2452.0,,,144.0,,,,,0.0,0.0,,,,,,,,,,,,,,,,,,,0.0,24.0,0.0,0.0,30.0,0.0,,0.0,29.2,,,20.1,0.0,0.0,-0.0,13.3,10.9,,,,,26.0,28.0,26.0,27.0,26.0,28.0,27.0,28.0,,,16.0,0.0,,29.2,3.0,0.0,,,1.472,0.836,0.0,23.6,,,,,,0.0,2026-05-01 15:48:46-07:00
130.06,1.0,10.0,2026-05-01 22:50:48,37.08165,-121.59961,315.0,0.0,206.1,-12.6,,,,,22:50:48,10.8,-1.0,19.8,0.0,268.0,0.0,-0.02,1.0,99.0,-9.0,33.0,0.0,29.99,2452.0,,,144.0,,,,,0.0,0.0,,,,,,,,,,,,,,,,,,,0.0,24.0,0.0,0.0,29.9,0.0,,0.0,29.1,,,20.1,0.0,0.0,-0.0,13.3,10.9,,,,,26.0,28.0,26.0,27.0,26.0,28.0,27.0,28.0,,,16.0,0.0,,29.1,3.0,0.0,,,1.472,0.835,0.0,23.6,,,,,,0.0,2026-05-01 15:48:46-07:00
131.06,1.0,10.0,2026-05-01 22:50:49,37.08165,-121.59962,314.0,0.1,206.1,-12.6,,,,,22:50:49,10.9,-1.0,19.8,0.0,268.0,0.0,-0.02,1.0,99.0,-8.0,33.0,0.0,29.99,2452.0,,,144.0,,,,,0.0,0.0,,,,,,,,,,,,,,,,,,,0.0,24.0,0.0,0.0,29.9,0.0,,0.0,29.0,,,20.1,0.0,0.0,-0.0,13.3,10.9,,,,,26.0,28.0,26.0,27.0,26.0,28.0,27.0,28.0,,,16.0,0.0,,29.0,3.0,0.0,,,1.472,0.835,0.0,23.6,,,,,,0.0,2026-05-01 15:48:46-07:00
132.06,1.0,10.0,2026-05-01 22:50:50,37.08165,-121.59962,316.0,0.1,206.1,-12.6,,,,,22:50:50,10.9,-1.1,19.7,0.0,268.0,0.0,-0.02,1.0,99.0,33.0,33.0,0.0,29.99,2452.0,,,144.0,,,,,0.0,0.0,,,,,,,,,,,,,,,,,,,0.0,24.0,0.0,0.0,29.9,0.0,,0.0,28.9,,,20.1,0.0,0.0,-0.0,13.3,10.9,,,,,26.0,28.0,26.0,27.0,26.0,28.0,27.0,28.0,,,16.0,0.0,,28.9,3.0,0.0,,,1.472,0.835,0.0,23.6,,,,,,0.0,2026-05-01 15:48:46-07:00
133.06,1.0,10.0,2026-05-01 22:50:51,37.08165,-121.59962,316.0,0.0,206.1,-12.6,,,,,22:50:51,10.9,-1.1,19.8,0.0,268.0,0.1,-0.02,1.0,99.0,18.0,33.0,0.0,29.99,2452.0,,,144.0,,,,,0.0,0.0,,,,,,,,,,,,,,,,,,,0.0,24.0,0.0,0.0,29.9,0.0,,0.0,28.8,,,20.1,0.0,0.0,-0.0,13.3,10.9,,,,,26.0,28.0,26.0,27.0,26.0,28.0,27.0,28.0,,,16.0,0.0,,28.8,3.0,0.0,,,1.472,0.836,0.0,23.6,,,,,,0.0,2026-05-01 15:48:46-07:00
134.06,1.0,10.0,2026-05-01 22:50:52,37.08165,-121.59961,316.0,0.0,206.1,-12.6,,,,,22:50:52,10.9,-1.1,19.8,0.0,268.0,0.1,-0.02,1.0,99.0,52.0,33.0,0.0,29.99,2452.0,,,144.0,,,,,0.0,0.0,,,,,,,,,,,,,,,,,,,0.0,24.0,0.0,0.0,29.9,0.0,,0.0,28.7,,,20.1,0.0,0.0,-0.0,13.3,10.9,,,,,26.0,28.0,26.0,27.0,26.0,28.0,27.0,28.0,,,16.0,0.0,,28.7,3.0,0.0,,,1.472,0.835,0.0,23.6,,,,,,0.0,2026-05-01 15:48:46-07:00
135.06,1.0,10.0,2026-05-01 22:50:53,37.08165,-121.59961,317.0,0.0,206.1,-12.6,,,,,22:50:53,10.9,-1.1,19.7,0.0,268.0,0.0,-0.02,1.0,99.0,5.0,33.0,0.0,29.99,2452.0,,,144.0,,,,,0.0,0.0,,,,,,,,,,,,,,,,,,,0.0,24.0,0.0,0.0,29.9,0.0,,0.0,28.6,,,20.1,0.0,0.0,-0.0,13.3,10.9,,,,,26.0,28.0,26.0,27.0,26.0,27.0,27.0,28.0,,,16.0,0.0,,28.6,3.0,0.0,,,1.472,0.835,0.0,23.6,,,,,,0.0,2026-05-01 15:48:46-07:00
136.06,1.0,10.0,2026-05-01 22:50:54,37.08165,-121.59961,316.0,0.1,206.1,-12.6,,,,,22:50:54,10.9,-1.0,19.7,0.0,268.0,0.0,-0.02,1.0,99.0,-5.0,33.0,0.0,29.99,2452.0,,,144.0,,,,,0.0,0.0,,,,,,,,,,,,,,,,,,,0.0,24.0,0.0,0.0,29.9,0.0,,0.0,28.5,,,20.1,0.0,0.0,-0.0,13.3,10.9,,,,,26.0,28.0,26.0,27.0,26.0,27.0,27.0,28.0,,,16.0,0.0,,28.5,3.0,0.0,,,1.472,0.835,0.0,23.6,,,,,,0.0,2026-05-01 15:48:46-07:00
137.06,1.0,10.0,2026-05-01 22:50:55,37.08165,-121.59961,316.0,0.1,206.1,-12.6,,,,,22:50:55,10.9,-1.1,19.7,0.0,268.0,0.1,-0.02,1.0,99.0,11.0,33.0,0.0,29.99,2452.0,,,144.0,,,,,0.0,0.0,,,,,,,,,,,,,,,,,,,0.0,24.0,0.0,0.0,29.9,0.0,,0.0,28.4,,,20.1,0.0,0.0,-0.0,13.3,10.9,,,,,26.0,28.0,26.0,27.0,26.0,27.0,27.0,28.0,,,16.0,0.0,,28.4,3.0,0.0,,,1.472,0.835,0.0,23.6,,,,,,0.0,2026-05-01 15:48:46-07:00
138.06,1.0,10.0,2026-05-01 22:50:56,37.08165,-121.59961,316.0,0.0,206.1,-12.6,,,,,22:50:56,10.9,-1.0,19.7,0.0,268.0,0.1,-0.02,1.0,99.0,3.0,33.0,0.0,29.99,2452.0,,,144.0,,,,,0.0,0.0,,,,,,,,,,,,,,,,,,,0.0,24.0,0.0,0.0,29.9,0.0,,0.0,28.3,,,20.1,0.0,0.0,-0.0,13.3,10.9,,,,,26.0,28.0,26.0,27.0,26.0,27.0,27.0,28.0,,,16.0,0.0,,28.3,3.0,0.0,,,1.472,0.835,0.0,23.6,,,,,,0.0,2026-05-01 15:48:46-07:00
139.06,1.0,10.0,2026-05-01 22:50:57,37.08165,-121.59961,317.0,0.0,206.1,-12.6,,,,,22:50:57,10.9,-1.0,19.7,0.0,268.0,0.1,-0.02,1.0,99.0,5.0,33.0,0.0,29.99,2452.0,,,144.0,,,,,0.0,0.0,,,,,,,,,,,,,,,,,,,0.0,24.0,0.0,0.0,29.9,0.0,,0.0,28.2,,,20.1,0.0,0.0,-0.0,13.3,10.9,,,,,26.0,28.0,26.0,27.0,26.0,27.0,27.0,28.0,,,16.0,0.0,,28.2,3.0,0.0,,,1.472,0.835,0.0,23.6,,,,,,0.0,2026-05-01 15:48:46-07:00
140.06,1.0,10.0,2026-05-01 22:50:58,37.08165,-121.59961,317.0,0.1,206.1,-12.6,,,,,22:50:58,10.9,-1.0,19.8,0.0,268.0,0.1,-0.02,1.0,99.0,49.0,33.0,0.0,29.99,2454.0,,,144.0,,,,,0.0,0.0,,,,,,,,,,,,,,,,,,,0.0,24.0,0.0,0.0,29.9,0.0,,0.0,28.1,,,20.1,0.0,0.0,0.0,13.3,10.9,,,,,26.0,28.0,26.0,28.0,26.0,28.0,27.0,28.0,,,16.0,0.0,,28.1,3.0,0.0,,,1.472,0.835,0.0,23.6,,,,,,0.0,2026-05-01 15:48:46-07:00
141.06,1.0,10.0,2026-05-01 22:50:59,37.08165,-121.59961,316.0,0.0,206.1,-12.6,,,,,22:50:59,10.9,-1.0,19.8,0.0,269.0,0.1,-0.02,1.0,99.0,54.0,33.0,0.0,29.99,2455.0,,,144.0,,,,,0.0,0.0,,,,,,,,,,,,,,,,,,,0.0,24.0,0.0,0.0,29.9,0.0,,0.0,28.0,,,20.1,0.0,0.0,0.0,13.3,10.9,,,,,26.0,28.0,26.0,28.0,26.0,28.0,27.0,28.0,,,16.0,0.0,,28.0,3.0,0.0,,,1.472,0.835,0.0,23.6,,,,,,0.0,2026-05-01 15:48:46-07:00
142.06,1.0,10.0,2026-05-01 22:51:00,37.08165,-121.59961,317.0,0.0,206.1,-12.6,,,,,22:51:00,10.9,-0.9,19.9,0.0,269.0,0.1,-0.02,1.0,99.0,48.0,33.0,0.0,29.99,2455.0,,,144.0,,,,,0.0,0.0,,,,,,,,,,,,,,,,,,,0.0,24.0,0.0,0.0,29.9,0.0,,0.0,27.9,,,20.1,0.0,0.0,0.0,13.3,10.9,,,,,26.0,28.0,26.0,28.0,26.0,28.0,27.0,28.0,,,16.0,0.0,,27.9,3.0,0.0,,,1.472,0.835,0.0,23.6,,,,,,0.0,2026-05-01 15:48:46-07:00
143.06,1.0,10.0,2026-05-01 22:51:01,37.08165,-121.59961,316.0,0.0,206.1,-12.6,,,,,22:51:01,10.9,-0.9,19.9,0.0,271.0,0.1,-0.02,1.0,99.0,76.0,33.0,0.0,29.99,2458.0,,,144.0,,,,,0.0,0.0,,,,,,,,,,,,,,,,,,,0.0,24.0,0.0,0.0,29.9,0.0,,0.0,27.8,,,20.1,0.0,0.0,0.0,13.3,10.9,,,,,26.0,28.0,26.0,28.0,26.0,28.0,27.0,28.0,,,16.0,0.0,,27.8,3.0,0.0,,,1.472,0.835,0.0,23.6,,,,,,0.0,2026-05-01 15:48:46-07:00
144.06,1.0,10.0,2026-05-01 22:51:02,37.08165,-121.59961,316.0,0.0,206.1,-12.6,,,,,22:51:02,10.9,-0.9,20.0,0.0,271.0,0.1,-0.02,1.0,99.0,45.0,33.0,0.0,29.99,2458.0,,,144.0,,,,,0.0,0.0,,,,,,,,,,,,,,,,,,,0.0,24.0,0.0,0.0,29.9,0.0,,0.0,27.7,,,20.1,0.0,0.0,0.0,13.3,10.9,,,,,26.0,28.0,26.0,28.0,26.0,28.0,27.0,28.0,,,16.0,0.0,,27.7,3.0,0.0,,,1.472,0.835,0.0,23.6,,,,,,0.0,2026-05-01 15:48:46-07:00
145.06,1.0,10.0,2026-05-01 22:51:03,37.08165,-121.59961,316.0,0.0,206.1,-12.6,,,,,22:51:03,10.9,-1.0,19.9,0.0,271.0,0.1,-0.02,1.0,99.0,20.0,33.0,0.0,29.99,2458.0,,,144.0,,,,,0.0,0.0,,,,,,,,,,,,,,,,,,,0.0,24.0,0.0,0.0,29.9,0.0,,0.0,27.6,,,20.1,0.0,0.0,0.0,13.3,10.9,,,,,26.0,28.0,26.0,28.0,26.0,28.0,27.0,28.0,,,16.0,0.0,,27.6,3.0,0.0,,,1.472,0.835,0.0,23.6,,,,,,0.0,2026-05-01 15:48:46-07:00
146.06,1.0,10.0,2026-05-01 22:51:04,37.08165,-121.59961,315.0,0.0,206.1,-12.6,,,,,22:51:04,10.9,-1.0,19.9,0.0,271.0,0.0,-0.02,1.0,99.0,-14.0,33.0,0.0,29.99,2467.0,,,144.0,,,,,0.0,0.0,,,,,,,,,,,,,,,,,,,0.0,24.0,0.0,0.0,29.9,0.0,,0.0,27.5,,,20.1,0.0,0.0,0.0,13.3,10.9,,,,,26.0,28.0,26.0,28.0,26.0,28.0,27.0,28.0,,,16.0,0.0,,27.5,3.0,0.0,,,1.472,0.835,0.0,23.6,,,,,,0.0,2026-05-01 15:48:46-07:00
147.06,1.0,10.0,2026-05-01 22:51:05,37.08165,-121.59961,316.0,0.0,206.1,-12.6,,,,,22:51:05,10.8,-0.9,20.0,0.0,271.0,0.1,-0.02,1.0,99.0,22.0,33.0,0.0,29.99,2467.0,,,144.0,,,,,0.0,0.0,,,,,,,,,,,,,,,,,,,0.0,24.0,0.0,0.0,29.9,0.0,,0.0,27.4,,,20.1,0.0,0.0,0.0,13.3,10.9,,,,,26.0,28.0,26.0,28.0,26.0,28.0,27.0,28.0,,,16.0,0.0,,27.4,3.0,0.0,,,1.472,0.835,0.0,23.6,,,,,,0.0,2026-05-01 15:48:46-07:00
148.06,1.0,10.0,2026-05-01 22:51:06,37.08165,-121.59961,315.0,0.1,206.1,-12.6,,,,,22:51:06,10.8,-0.9,20.0,0.0,272.0,0.1,-0.02,1.0,99.0,24.0,33.0,0.0,29.99,2467.0,,,144.0,,,,,0.0,0.0,,,,,,,,,,,,,,,,,,,0.0,24.0,0.0,0.0,29.9,0.0,,0.0,27.3,,,20.1,0.0,0.0,0.0,13.3,10.9,,,,,26.0,27.0,26.0,27.0,26.0,27.0,27.0,28.0,,,16.0,0.0,,27.3,3.0,0.0,,,1.472,0.835,0.0,23.6,,,,,,0.0,2026-05-01 15:48:46-07:00
149.06,1.0,10.0,2026-05-01 22:51:07,37.08165,-121.59961,315.0,0.0,206.1,-12.6,,,,,22:51:07,10.8,-1.0,19.9,0.0,272.0,0.1,-0.02,1.0,99.0,24.0,33.0,0.0,29.99,2468.0,,,144.0,,,,,0.0,0.0,,,,,,,,,,,,,,,,,,,0.0,24.0,0.0,0.0,29.9,0.0,,0.0,27.3,,,20.1,0.0,0.0,0.1,13.3,10.9,,,,,26.0,28.0,26.0,28.0,26.0,28.0,27.0,28.0,,,16.0,0.0,,27.3,3.0,0.0,,,1.472,0.835,0.0,23.6,,,,,,0.0,2026-05-01 15:48:46-07:00
150.06,1.0,10.0,2026-05-01 22:51:08,37.08165,-121.59961,315.0,0.0,206.1,-12.6,,,,,22:51:08,10.8,-1.0,19.9,0.0,273.0,0.0,-0.02,1.0,99.0,11.0,33.0,0.0,29.99,2468.0,,,144.0,,,,,0.0,0.0,,,,,,,,,,,,,,,,,,,0.0,24.0,0.0,0.0,29.9,0.0,,0.0,27.1,,,20.1,0.0,0.0,0.1,13.3,10.9,,,,,26.0,28.0,26.0,28.0,27.0,28.0,27.0,28.0,,,16.0,0.0,,27.1,3.0,0.0,,,1.472,0.835,0.0,23.6,,,,,,0.0,2026-05-01 15:48:46-07:00
151.06,1.0,10.0,2026-05-01 22:51:09,37.08165,-121.59961,315.0,0.0,206.1,-12.6,,,,,22:51:09,10.8,-1.0,19.8,0.0,273.0,0.0,-0.02,1.0,99.0,42.0,33.0,0.0,29.99,2468.0,,,144.0,,,,,0.0,0.0,,,,,,,,,,,,,,,,,,,0.0,24.0,0.0,0.0,29.9,0.0,,0.0,27.1,,,20.1,0.0,0.0,0.1,13.3,10.9,,,,,26.0,28.0,26.0,28.0,26.0,28.0,27.0,28.0,,,16.0,0.0,,27.1,3.0,0.0,,,1.472,0.835,0.0,23.6,,,,,,0.0,2026-05-01 15:48:46-07:00
152.06,1.0,10.0,2026-05-01 22:51:10,37.08165,-121.59961,315.0,0.0,206.1,-12.6,,,,,22:51:10,10.8,-1.0,19.8,0.0,273.0,0.1,-0.02,1.0,99.0,28.0,33.0,0.0,29.99,2469.0,,,144.0,,,,,0.0,0.0,,,,,,,,,,,,,,,,,,,0.0,24.0,0.0,0.0,29.9,0.0,,0.0,27.0,,,20.1,0.0,0.0,0.0,13.3,10.9,,,,,26.0,28.0,26.0,28.0,26.0,28.0,27.0,28.0,,,16.0,0.0,,27.0,3.0,0.0,,,1.472,0.835,0.0,23.6,,,,,,0.0,2026-05-01 15:48:46-07:00
153.06,1.0,10.0,2026-05-01 22:51:11,37.08165,-121.59961,314.0,0.0,206.1,-12.6,,,,,22:51:11,10.8,-1.0,19.8,0.0,273.0,0.1,-0.02,1.0,99.0,-7.0,33.0,0.0,29.99,2469.0,,,144.0,,,,,0.0,0.0,,,,,,,,,,,,,,,,,,,0.0,24.0,0.0,0.0,29.9,0.0,,0.0,26.9,,,20.1,0.0,0.0,0.0,13.3,10.9,,,,,26.0,28.0,26.0,28.0,26.0,28.0,27.0,28.0,,,16.0,0.0,,26.9,3.0,0.0,,,1.472,0.835,0.0,23.6,,,,,,0.0,2026-05-01 15:48:46-07:00
154.06,1.0,10.0,2026-05-01 22:51:12,37.08165,-121.59961,315.0,0.0,206.1,-12.6,,,,,22:51:12,10.8,-1.0,19.9,0.0,273.0,0.1,-0.02,1.0,99.0,-31.0,33.0,0.0,29.99,2469.0,,,144.0,,,,,0.0,0.0,,,,,,,,,,,,,,,,,,,0.0,24.0,0.0,0.0,29.9,0.0,,0.0,26.8,,,20.1,0.0,0.0,0.0,13.3,10.9,,,,,26.0,28.0,26.0,28.0,26.0,28.0,27.0,28.0,,,16.0,0.0,,26.8,3.0,0.0,,,1.472,0.835,0.0,23.6,,,,,,0.0,2026-05-01 15:48:46-07:00
