Session Time,GPS Fix Quality,Number of Satellites,GPS Date & Time,Latitude (deg),Longitude (deg),GPS Altitude (feet),Ground Speed (knots),Ground Track (deg),Mag Var (deg),Cross Track Error (NM),Destination Waypoint ID,Range to Destination (NM),Bearing to Destination (deg),System Time,Pitch (deg),Roll (deg),Magnetic Heading (deg),Indicated Airspeed (knots),Pressure Altitude (ft),Turn Rate (deg/s),Lateral Accel (g),Vertical Accel(g),Angle of Attack (%),Vertical Speed (ft/min),OAT (deg C),True Airspeed (knots),Barometer Setting (inHg),Density Altitude (ft),Wind Direction (deg),Wind Speed (knots),Heading Bug (deg),Altitude Bug (ft),Airspeed Bug (knots),Vertical Speed Bug (ft/min),Course (deg),CDI Source Type,CDI Source Port,CDI Scale (NM),CDI Deflection (%),Glideslope (%),AP Engaged,AP Roll Mode,AP Roll Force,AP Roll Position (steps),AP Roll Slip (bool),AP Pitch Force,AP Pitch Position (steps),AP Pitch Slip (bool),AP Yaw Force,AP Yaw Position,AP Yaw Slip (bool),Transponder Status,Transponder Reply (bool),Transponder Identing (bool),Transponder Code (octal),Oil Pressure (PSI),Oil Temp (deg C),RPM L,RPM R,Manifold Pressure (inHg),Fuel Flow 1 (gal/hr),Fuel Flow 2 (gal/hr),Total Fuel Flow (gal/hr),Fuel Pressure (PSI),Fuel Level L (gal),Fuel Level R (gal),Fuel Remaining (gal),Volts 1,Volts 2,Amps,Hobbs Time,Tach Time,Thermocouple 1 (deg C),Thermocouple 2 (deg C),Thermocouple 3 (deg C),Thermocouple 4 (deg C),CHT 4 (deg C),EGT 4 (deg C),CHT 3 (deg C),EGT 3 (deg C),CHT 2 (deg C),EGT 2 (deg C),CHT 1 (deg C),EGT 1 (deg C),Thermocouple 13 (deg C),Thermocouple 14 (deg C),ELEV POSITION (%),CO PPM PRESSURE (PSI),GP Input 3,FUEL PRESSURE (PSI),AILERN POSITION (%),CANOPY CONTACT (V),GP Input 7,GP Input 8,LEFT LEVEL (Sensor V),RIGHT LEVEL (Sensor V),OIL PRESSURE (PSI),OIL TEMPERATURE (deg C),GP Input 13,Contacts,Percent Power,EGT Leaning State,Unnamed: 103,RPM,Flight ID
4.06,1.0,9.0,2026-02-28 17:33:49,37.08169,-121.59971,396.0,0.0,157.3,-12.6,,,,,17:33:48,10.7,-0.7,34.3,0.0,258.0,0.1,-0.01,1.0,,-138.0,19.0,0.0,30.24,831.0,,,336.0,,110.0,500.0,,0.0,0.0,,,,,,,,,,,,,,,,,,,,,0.0,0.0,,0.0,,0.0,,,,25.3,0.0,0.0,-0.4,2.9,1.8,,,,,15.0,16.0,15.0,17.0,15.0,16.0,16.0,17.0,,,13.0,254.4,,0.0,21.0,4.998,,,0.929,0.823,0.0,14.5,,,,,,0.0,2026-02-28 09:33:49-08:00
5.06,1.0,9.0,2026-02-28 17:33:50,37.08167,-121.59969,361.0,0.0,157.3,-12.6,,,,,17:33:49,10.7,-0.7,34.3,0.0,257.0,0.0,-0.01,1.0,,-116.0,19.0,0.0,30.24,831.0,,,336.0,,,,,0.0,0.0,,,,,,,,,,,,,,,,,,,0.0,14.0,0.0,0.0,30.1,0.0,,0.0,0.0,,,25.3,0.0,0.0,-0.4,2.9,1.8,,,,,15.0,16.0,15.0,17.0,15.0,16.0,16.0,17.0,,,13.0,254.4,,0.0,21.0,4.998,,,0.929,0.823,0.0,14.4,,,,,,0.0,2026-02-28 09:33:49-08:00
6.06,1.0,9.0,2026-02-28 17:33:51,37.08167,-121.59969,364.0,0.0,157.3,-12.6,,,,,17:33:50,10.8,-0.7,34.3,0.0,255.0,0.0,-0.01,1.0,,-92.0,19.0,0.0,30.24,831.0,,,336.0,,,,,0.0,0.0,,,,,,,,,,,,,,,,,,,0.0,14.0,0.0,0.0,30.1,0.0,,0.0,0.0,,,25.3,0.0,0.0,-0.4,2.9,1.8,,,,,15.0,16.0,15.0,17.0,15.0,16.0,16.0,17.0,,,12.0,254.4,,0.0,21.0,4.998,,,0.929,0.823,0.0,14.4,,,,,,0.0,2026-02-28 09:33:49-08:00
7.06,1.0,9.0,2026-02-28 17:33:52,37.08167,-121.59969,366.0,0.1,157.3,-12.6,,,,,17:33:51,10.8,-0.7,34.3,0.0,255.0,0.0,-0.01,1.0,,-52.0,19.0,0.0,30.24,828.0,,,336.0,,,,,0.0,0.0,,,,,,,,,,,,,,,,,,,0.0,14.0,0.0,0.0,30.1,0.0,,0.0,0.0,,,25.3,0.0,0.0,-0.4,2.9,1.8,,,,,15.0,16.0,15.0,17.0,15.0,16.0,16.0,17.0,,,12.0,254.4,,0.0,21.0,4.998,,,0.929,0.823,0.0,14.4,,,,,,0.0,2026-02-28 09:33:49-08:00
8.06,1.0,9.0,2026-02-28 17:33:53,37.08167,-121.59969,368.0,0.0,157.3,-12.6,,,,,17:33:52,10.8,-0.7,34.3,0.0,255.0,0.0,-0.01,1.0,,-45.0,19.0,0.0,30.24,829.0,,,336.0,,,,,0.0,0.0,,,,,,,,,,,,,,,,,,,0.0,14.0,0.0,0.0,30.1,0.0,,0.0,0.0,,,25.3,0.0,0.0,-0.4,2.9,1.8,,,,,15.0,16.0,15.0,17.0,15.0,16.0,16.0,17.0,,,12.0,254.4,,0.0,21.0,4.998,,,0.93,0.824,0.0,14.4,,,,,,0.0,2026-02-28 09:33:49-08:00
9.06,1.0,9.0,2026-02-28 17:33:54,37.08167,-121.59969,370.0,0.0,157.3,-12.6,,,,,17:33:53,10.7,-0.7,34.3,0.0,255.0,0.0,-0.01,1.0,,-26.0,19.0,0.0,30.24,829.0,,,336.0,,,,,0.0,0.0,,,,,,,,,,,,,,,,,,,0.0,14.0,0.0,0.0,30.1,0.0,,0.0,0.0,,,25.3,0.0,0.0,-0.4,2.9,1.8,,,,,15.0,16.0,15.0,17.0,15.0,16.0,16.0,17.0,,,12.0,254.4,,0.0,21.0,4.998,,,0.93,0.824,0.0,14.4,,,,,,0.0,2026-02-28 09:33:49-08:00
10.06,1.0,9.0,2026-02-28 17:33:55,37.08167,-121.59969,372.0,0.0,157.3,-12.6,,,,,17:33:54,10.7,-0.7,34.3,0.0,254.0,0.0,-0.01,1.0,,-51.0,19.0,0.0,30.24,829.0,,,336.0,,,,,0.0,0.0,,,,,,,,,,,,,,,,,,,0.0,14.0,0.0,0.0,30.1,0.0,,0.0,0.0,,,25.3,0.0,0.0,-0.4,2.9,1.8,,,,,15.0,16.0,15.0,17.0,15.0,16.0,16.0,17.0,,,14.0,254.4,,0.0,21.0,4.998,,,0.929,0.824,0.0,14.4,,,,,,0.0,2026-02-28 09:33:49-08:00
11.06,1.0,9.0,2026-02-28 17:33:56,37.08167,-121.59969,374.0,0.1,157.3,-12.6,,,,,17:33:55,10.8,-0.7,34.2,0.0,252.0,0.0,-0.02,1.0,,-80.0,19.0,0.0,30.24,835.0,,,336.0,,,,,0.0,0.0,,,,,,,,,,,,,,,,,,,0.0,14.0,0.0,0.0,30.1,0.0,,0.0,0.0,,,25.3,0.0,0.0,-0.5,2.9,1.8,,,,,15.0,16.0,15.0,17.0,15.0,16.0,16.0,17.0,,,13.0,254.4,,0.0,21.0,4.998,,,0.93,0.824,0.0,14.4,,,,,,0.0,2026-02-28 09:33:49-08:00
12.06,1.0,9.0,2026-02-28 17:33:57,37.08167,-121.59969,375.0,0.0,157.3,-12.6,,,,,17:33:56,10.8,-0.8,34.2,0.0,251.0,0.0,-0.01,1.0,,-79.0,19.0,0.0,30.24,835.0,,,336.0,,,,,0.0,0.0,,,,,,,,,,,,,,,,,,,0.0,14.0,0.0,0.0,30.1,0.0,,0.0,0.0,,,25.3,0.0,0.0,-0.5,2.9,1.8,,,,,15.0,16.0,15.0,17.0,15.0,16.0,16.0,17.0,,,11.0,254.4,,0.0,21.0,4.998,,,0.93,0.824,0.0,14.3,,,,,,0.0,2026-02-28 09:33:49-08:00
13.06,1.0,9.0,2026-02-28 17:33:58,37.08167,-121.59969,377.0,0.0,157.3,-12.6,,,,,17:33:57,10.7,-0.8,34.2,0.0,250.0,0.1,-0.01,1.0,,-75.0,19.0,0.0,30.24,835.0,,,336.0,,,,,0.0,0.0,,,,,,,,,,,,,,,,,,,0.0,14.0,0.0,0.0,30.1,0.0,,0.0,0.0,,,25.3,0.0,0.0,-0.5,2.9,1.8,,,,,15.0,16.0,15.0,17.0,15.0,16.0,16.0,17.0,,,11.0,254.4,,0.0,21.0,4.998,,,0.93,0.824,0.0,14.3,,,,,,0.0,2026-02-28 09:33:49-08:00
14.06,1.0,9.0,2026-02-28 17:33:59,37.08167,-121.59969,379.0,0.0,157.3,-12.6,,,,,17:33:58,10.7,-0.8,34.3,0.0,249.0,0.1,-0.01,1.0,,-47.0,19.0,0.0,30.24,832.0,,,336.0,,,,,0.0,0.0,,,,,,,,,,,,,,,,,,,0.0,14.0,0.0,0.0,30.1,0.0,,0.0,0.0,,,25.3,0.0,0.0,-0.5,2.9,1.8,,,,,15.0,16.0,15.0,17.0,15.0,16.0,16.0,17.0,,,12.0,254.4,,0.0,21.0,4.998,,,0.93,0.824,0.0,14.3,,,,,,0.0,2026-02-28 09:33:49-08:00
15.06,1.0,9.0,2026-02-28 17:34:00,37.08167,-121.59969,380.0,0.0,157.3,-12.6,,,,,17:33:59,10.7,-0.8,34.3,0.0,249.0,0.1,-0.01,1.0,,-22.0,19.0,0.0,30.24,832.0,,,336.0,,,,,0.0,0.0,,,,,,,,,,,,,,,,,,,0.0,14.0,0.0,0.0,30.1,0.0,,0.0,0.0,,,25.3,0.0,0.0,-0.5,2.9,1.8,,,,,15.0,16.0,15.0,17.0,15.0,16.0,16.0,17.0,,,11.0,254.4,,0.0,21.0,4.998,,,0.93,0.824,0.0,14.3,,,,,,0.0,2026-02-28 09:33:49-08:00
16.06,1.0,9.0,2026-02-28 17:34:01,37.08167,-121.59969,382.0,0.0,157.3,-12.6,,,,,17:34:00,10.7,-0.8,34.3,0.0,249.0,0.1,-0.01,1.0,,-14.0,20.0,0.0,30.24,832.0,,,336.0,,,,,0.0,0.0,,,,,,,,,,,,,,,,,,,0.0,14.0,0.0,0.0,30.1,0.0,,0.0,0.0,,,25.3,0.0,0.0,-0.5,2.9,1.8,,,,,15.0,16.0,15.0,17.0,15.0,16.0,16.0,17.0,,,12.0,254.4,,0.0,21.0,4.998,,,0.93,0.825,0.0,14.3,,,,,,0.0,2026-02-28 09:33:49-08:00
17.06,1.0,9.0,2026-02-28 17:34:02,37.08167,-121.59969,383.0,0.0,157.3,-12.6,,,,,17:34:01,10.7,-0.8,34.2,0.0,249.0,0.0,-0.01,1.0,,-20.0,20.0,0.0,30.24,841.0,,,336.0,,,,,0.0,0.0,,,,,,,,,,,,,,,,,,,0.0,14.0,0.0,0.0,30.1,0.0,,0.0,0.0,,,25.3,0.0,0.0,-0.5,2.9,1.8,,,,,15.0,16.0,15.0,17.0,15.0,16.0,16.0,17.0,,,12.0,254.4,,0.0,21.0,4.998,,,0.93,0.825,0.0,14.3,,,,,,0.0,2026-02-28 09:33:49-08:00
18.06,1.0,9.0,2026-02-28 17:34:03,37.08167,-121.59969,384.0,0.0,157.3,-12.6,,,,,17:34:02,10.7,-0.8,34.2,0.0,249.0,0.0,-0.01,1.0,,4.0,20.0,0.0,30.24,841.0,,,336.0,,,,,0.0,0.0,,,,,,,,,,,,,,,,,,,0.0,14.0,0.0,0.0,30.1,0.0,,0.0,0.0,,,25.3,0.0,0.0,-0.5,2.9,1.8,,,,,15.0,16.0,15.0,17.0,15.0,16.0,16.0,17.0,,,13.0,254.4,,0.0,21.0,4.998,,,0.93,0.825,0.0,14.3,,,,,,0.0,2026-02-28 09:33:49-08:00
19.06,1.0,9.0,2026-02-28 17:34:04,37.08167,-121.59969,385.0,0.0,157.3,-12.6,,,,,17:34:03,10.7,-0.8,34.2,0.0,249.0,0.0,-0.01,1.0,,-20.0,20.0,0.0,30.24,841.0,,,336.0,,,,,0.0,0.0,,,,,,,,,,,,,,,,,,,0.0,14.0,0.0,0.0,30.1,0.0,,0.0,0.0,,,25.3,0.0,0.0,-0.5,2.9,1.8,,,,,15.0,16.0,15.0,17.0,15.0,16.0,16.0,17.0,,,13.0,254.4,,0.0,21.0,4.998,,,0.93,0.825,0.0,14.3,,,,,,0.0,2026-02-28 09:33:49-08:00
20.06,1.0,9.0,2026-02-28 17:34:05,37.08167,-121.59969,386.0,0.0,157.3,-12.6,,,,,17:34:04,10.7,-0.7,34.3,0.0,249.0,0.0,-0.01,1.0,,-50.0,20.0,0.0,30.24,842.0,,,336.0,,,,,0.0,0.0,,,,,,,,,,,,,,,,,,,0.0,14.0,0.0,0.0,30.1,0.0,,0.0,0.0,,,25.3,0.0,0.0,-0.5,2.9,1.8,,,,,15.0,16.0,15.0,17.0,15.0,16.0,16.0,17.0,,,14.0,254.4,,0.0,21.0,4.998,,,0.93,0.825,0.0,14.3,,,,,,0.0,2026-02-28 09:33:49-08:00
21.06,1.0,9.0,2026-02-28 17:34:06,37.08167,-121.59969,387.0,0.0,157.3,-12.6,,,,,17:34:05,10.7,-0.7,34.3,0.0,247.0,0.1,-0.01,1.0,,-74.0,20.0,0.0,30.24,842.0,,,336.0,,,,,0.0,0.0,,,,,,,,,,,,,,,,,,,0.0,14.0,0.0,0.0,30.1,0.0,,0.0,0.0,,,25.3,0.0,0.0,-0.5,2.9,1.8,,,,,15.0,16.0,15.0,17.0,15.0,16.0,16.0,17.0,,,14.0,254.4,,0.0,21.0,4.998,,,0.93,0.825,0.0,14.3,,,,,,0.0,2026-02-28 09:33:49-08:00
22.06,1.0,9.0,2026-02-28 17:34:07,37.08167,-121.59969,388.0,0.0,157.3,-12.6,,,,,17:34:06,10.7,-0.8,34.2,0.0,245.0,0.0,-0.01,1.0,,-86.0,20.0,0.0,30.24,842.0,,,336.0,,,,,0.0,0.0,,,,,,,,,,,,,,,,,,,0.0,14.0,0.0,0.0,30.1,0.0,,0.0,0.0,,,25.3,0.0,0.0,-0.5,2.9,1.8,,,,,15.0,16.0,15.0,17.0,15.0,16.0,16.0,17.0,,,12.0,254.4,,0.0,21.0,4.998,,,0.93,0.825,0.0,14.3,,,,,,0.0,2026-02-28 09:33:49-08:00
23.06,1.0,9.0,2026-02-28 17:34:08,37.08167,-121.59969,388.0,0.0,157.3,-12.6,,,,,17:34:07,10.7,-0.8,34.2,0.0,244.0,0.0,-0.01,1.0,,-77.0,20.0,0.0,30.24,847.0,,,336.0,,,,,0.0,0.0,,,,,,,,,,,,,,,,,,,0.0,14.0,0.0,0.0,30.1,0.0,,0.0,0.0,,,25.3,0.0,0.0,-0.5,2.9,1.8,,,,,15.0,16.0,15.0,17.0,15.0,16.0,16.0,17.0,,,13.0,254.4,,0.0,21.0,4.998,,,0.93,0.825,0.0,14.3,,,,,,0.0,2026-02-28 09:33:49-08:00
24.06,1.0,9.0,2026-02-28 17:34:09,37.08167,-121.59969,389.0,0.0,157.3,-12.6,,,,,17:34:08,10.7,-0.8,34.2,0.0,243.0,0.0,-0.01,1.0,,-92.0,20.0,0.0,30.24,847.0,,,336.0,,,,,0.0,0.0,,,,,,,,,,,,,,,,,,,0.0,14.0,0.0,0.0,30.1,0.0,,0.0,0.0,,,25.3,0.0,0.0,-0.5,2.9,1.8,,,,,15.0,16.0,15.0,17.0,15.0,16.0,16.0,17.0,,,12.0,254.4,,0.0,21.0,4.998,,,0.93,0.825,0.0,14.3,,,,,,0.0,2026-02-28 09:33:49-08:00
25.06,1.0,9.0,2026-02-28 17:34:10,37.08167,-121.59969,389.0,0.0,157.3,-12.6,,,,,17:34:09,10.8,-0.8,34.2,0.0,241.0,0.0,-0.01,1.0,,-80.0,20.0,0.0,30.24,847.0,,,336.0,,,,,0.0,0.0,,,,,,,,,,,,,,,,,,,0.0,14.0,0.0,0.0,30.1,0.0,,0.0,0.0,,,25.3,0.0,0.0,-0.5,2.9,1.8,,,,,15.0,16.0,15.0,17.0,15.0,16.0,16.0,17.0,,,13.0,254.4,,0.0,21.0,4.998,,,0.93,0.825,0.0,14.3,,,,,,0.0,2026-02-28 09:33:49-08:00
26.06,1.0,9.0,2026-02-28 17:34:11,37.08168,-121.59969,389.0,0.0,157.3,-12.6,,,,,17:34:10,10.8,-0.8,34.2,0.0,239.0,0.1,-0.01,1.0,,-106.0,20.0,0.0,30.24,841.0,,,336.0,,,,,0.0,0.0,,,,,,,,,,,,,,,,,,,0.0,14.0,0.0,0.0,30.1,0.0,,0.0,0.0,,,25.3,0.0,0.0,-0.5,2.9,1.8,,,,,15.0,16.0,15.0,17.0,15.0,16.0,16.0,17.0,,,14.0,254.4,,0.0,21.0,4.998,,,0.93,0.825,0.0,14.3,,,,,,0.0,2026-02-28 09:33:49-08:00
27.06,1.0,9.0,2026-02-28 17:34:12,37.08168,-121.59969,389.0,0.0,157.3,-12.6,,,,,17:34:11,10.8,-0.8,34.2,0.0,236.0,0.0,-0.01,1.0,,-151.0,20.0,0.0,30.24,841.0,,,336.0,,,,,0.0,0.0,,,,,,,,,,,,,,,,,,,0.0,14.0,0.0,0.0,30.1,0.0,,0.0,0.0,,,25.3,0.0,0.0,-0.5,2.9,1.8,,,,,15.0,16.0,15.0,17.0,15.0,16.0,16.0,17.0,,,15.0,254.4,,0.0,21.0,4.998,,,0.93,0.825,0.0,14.3,,,,,,0.0,2026-02-28 09:33:49-08:00
28.06,1.0,9.0,2026-02-28 17:34:13,37.08168,-121.5997,389.0,0.0,157.3,-12.6,,,,,17:34:12,10.8,-0.8,34.2,0.0,234.0,0.0,-0.01,1.0,,-161.0,20.0,0.0,30.24,841.0,,,336.0,,,,,0.0,0.0,,,,,,,,,,,,,,,,,,,0.0,14.0,0.0,0.0,30.1,0.0,,0.0,0.0,,,25.3,0.0,0.0,-0.5,2.9,1.8,,,,,15.0,16.0,15.0,17.0,15.0,16.0,16.0,17.0,,,15.0,254.4,,0.0,21.0,4.998,,,0.93,0.825,0.0,14.3,,,,,,0.0,2026-02-28 09:33:49-08:00
29.06,1.0,9.0,2026-02-28 17:34:14,37.08168,-121.5997,389.0,0.0,157.3,-12.6,,,,,17:34:13,10.8,-0.8,34.2,0.0,229.0,0.0,-0.01,1.0,,-203.0,20.0,0.0,30.24,837.0,,,336.0,,,,,0.0,0.0,,,,,,,,,,,,,,,,,,,0.0,14.0,0.0,0.0,30.1,0.0,,0.0,0.0,,,25.3,0.0,0.0,-0.5,2.9,1.8,,,,,15.0,16.0,15.0,17.0,15.0,16.0,16.0,17.0,,,14.0,254.4,,0.0,21.0,4.998,,,0.93,0.825,0.0,14.3,,,,,,0.0,2026-02-28 09:33:49-08:00
30.06,1.0,9.0,2026-02-28 17:34:15,37.08168,-121.5997,389.0,0.1,157.3,-12.6,,,,,17:34:14,10.8,-0.7,34.2,0.0,226.0,0.1,-0.01,1.0,,-189.0,20.0,0.0,30.24,834.0,,,336.0,,,,,0.0,0.0,,,,,,,,,,,,,,,,,,,0.0,14.0,0.0,0.0,30.1,0.0,,0.0,0.0,,,25.3,0.0,0.0,-0.5,2.9,1.8,,,,,15.0,16.0,15.0,17.0,15.0,16.0,16.0,17.0,,,15.0,254.4,,0.0,21.0,4.998,,,0.93,0.826,0.0,14.3,,,,,,0.0,2026-02-28 09:33:49-08:00
31.06,1.0,9.0,2026-02-28 17:34:16,37.08168,-121.5997,389.0,0.0,157.3,-12.6,,,,,17:34:15,10.8,-0.7,34.3,0.0,225.0,0.1,-0.01,1.0,,-149.0,20.0,0.0,30.24,834.0,,,336.0,,,,,0.0,0.0,,,,,,,,,,,,,,,,,,,0.0,14.0,0.0,0.0,30.1,0.0,,0.0,0.0,,,25.3,0.0,0.0,-0.5,2.9,1.8,,,,,15.0,16.0,15.0,17.0,15.0,16.0,16.0,17.0,,,14.0,254.4,,0.0,21.0,4.998,,,0.93,0.825,0.0,14.3,,,,,,0.0,2026-02-28 09:33:49-08:00
32.06,1.0,9.0,2026-02-28 17:34:17,37.08168,-121.5997,389.0,0.0,157.3,-12.6,,,,,17:34:16,10.8,-0.8,34.2,0.0,224.0,0.1,-0.01,1.0,,-108.0,20.0,0.0,30.24,834.0,,,336.0,,,,,0.0,0.0,,,,,,,,,,,,,,,,,,,0.0,14.0,0.0,0.0,30.1,0.0,,0.0,0.0,,,25.3,0.0,0.0,-0.5,2.9,1.8,,,,,15.0,16.0,15.0,17.0,15.0,16.0,16.0,17.0,,,14.0,254.4,,0.0,21.0,4.998,,,0.93,0.826,0.0,14.3,,,,,,0.0,2026-02-28 09:33:49-08:00
33.06,1.0,9.0,2026-02-28 17:34:18,37.08169,-121.5997,390.0,0.0,157.3,-12.6,,,,,17:34:17,10.8,-0.8,34.2,0.0,223.0,0.1,-0.01,1.0,,-91.0,20.0,0.0,30.24,831.0,,,336.0,,,,,0.0,0.0,,,,,,,,,,,,,,,,,,,0.0,14.0,0.0,0.0,30.1,0.0,,0.0,0.0,,,25.3,0.0,0.0,-0.5,2.9,1.8,,,,,15.0,16.0,15.0,17.0,15.0,16.0,16.0,17.0,,,15.0,254.4,,0.0,21.0,4.998,,,0.93,0.826,0.0,14.3,,,,,,0.0,2026-02-28 09:33:49-08:00
34.06,1.0,9.0,2026-02-28 17:34:19,37.08169,-121.5997,390.0,0.0,157.3,-12.6,,,,,17:34:18,10.8,-0.8,34.2,0.0,223.0,0.1,-0.01,1.0,,-55.0,20.0,0.0,30.24,831.0,,,336.0,,,,,0.0,0.0,,,,,,,,,,,,,,,,,,,0.0,14.0,0.0,0.0,30.1,0.0,,0.0,0.0,,,25.3,0.0,0.0,-0.5,2.9,1.8,,,,,15.0,16.0,15.0,17.0,15.0,16.0,16.0,17.0,,,15.0,254.4,,0.0,21.0,4.998,,,0.93,0.826,0.0,14.3,,,,,,0.0,2026-02-28 09:33:49-08:00
35.06,1.0,9.0,2026-02-28 17:34:20,37.08169,-121.5997,390.0,0.1,157.3,-12.6,,,,,17:34:19,10.7,-0.8,34.2,0.0,221.0,0.1,-0.01,1.0,,-101.0,20.0,0.0,30.24,831.0,,,336.0,,,,,0.0,0.0,,,,,,,,,,,,,,,,,,,0.0,14.0,0.0,0.0,30.1,0.0,,0.0,0.0,,,25.3,0.0,0.0,-0.5,2.9,1.8,,,,,15.0,16.0,15.0,17.0,15.0,16.0,16.0,17.0,,,15.0,254.4,,0.0,21.0,4.998,,,0.93,0.826,0.0,14.3,,,,,,0.0,2026-02-28 09:33:49-08:00
36.06,1.0,9.0,2026-02-28 17:34:21,37.08168,-121.5997,389.0,0.0,157.3,-12.6,,,,,17:34:20,10.7,-0.8,34.2,0.0,220.0,0.0,-0.01,1.0,,-88.0,20.0,0.0,30.24,836.0,,,336.0,,,,,0.0,0.0,,,,,,,,,,,,,,,,,,,0.0,14.0,0.0,0.0,30.1,0.0,,0.0,0.0,,,25.3,0.0,0.0,-0.5,2.9,1.8,,,,,15.0,16.0,15.0,17.0,15.0,16.0,16.0,17.0,,,15.0,254.4,,0.0,21.0,4.998,,,0.93,0.826,0.0,14.3,,,,,,0.0,2026-02-28 09:33:49-08:00
37.06,1.0,9.0,2026-02-28 17:34:22,37.08168,-121.5997,389.0,0.0,157.3,-12.6,,,,,17:34:21,10.7,-0.8,34.2,0.0,219.0,0.0,-0.01,1.0,,-73.0,20.0,0.0,30.24,835.0,,,336.0,,,,,0.0,0.0,,,,,,,,,,,,,,,,,,,0.0,14.0,0.0,0.0,30.1,0.0,,0.0,0.0,,,25.3,0.0,0.0,-0.5,2.9,1.8,,,,,15.0,16.0,15.0,17.0,16.0,16.0,16.0,17.0,,,15.0,254.4,,0.0,21.0,4.998,,,0.93,0.826,0.0,14.3,,,,,,0.0,2026-02-28 09:33:49-08:00
38.06,1.0,9.0,2026-02-28 17:34:23,37.08168,-121.5997,390.0,0.0,157.3,-12.6,,,,,17:34:22,10.8,-0.8,34.2,0.0,219.0,0.1,-0.01,1.0,,-41.0,20.0,0.0,30.24,835.0,,,336.0,,,,,0.0,0.0,,,,,,,,,,,,,,,,,,,0.0,14.0,0.0,0.0,30.1,0.0,,0.0,0.0,,,25.3,0.0,0.0,-0.5,2.9,1.8,,,,,15.0,16.0,15.0,17.0,16.0,16.0,16.0,17.0,,,15.0,254.4,,0.0,21.0,4.998,,,0.93,0.826,0.0,14.3,,,,,,0.0,2026-02-28 09:33:49-08:00
39.06,1.0,9.0,2026-02-28 17:34:24,37.08168,-121.5997,390.0,0.0,157.3,-12.6,,,,,17:34:23,10.8,-0.8,34.1,0.0,219.0,0.0,-0.01,1.0,,-10.0,20.0,0.0,30.24,835.0,,,336.0,,,,,0.0,0.0,,,,,,,,,,,,,,,,,,,0.0,14.0,0.0,0.0,30.1,0.0,,0.0,0.0,,,25.3,0.0,0.0,-0.5,2.9,1.8,,,,,15.0,16.0,15.0,17.0,15.0,16.0,16.0,17.0,,,14.0,254.4,,0.0,21.0,4.998,,,0.93,0.826,0.0,14.3,,,,,,0.0,2026-02-28 09:33:49-08:00
40.06,1.0,9.0,2026-02-28 17:34:25,37.08169,-121.5997,388.0,0.0,157.3,-12.6,,,,,17:34:24,10.7,-0.8,34.1,0.0,219.0,0.0,-0.01,1.0,,16.0,20.0,0.0,30.24,836.0,,,336.0,,,,,0.0,0.0,,,,,,,,,,,,,,,,,,,0.0,14.0,0.0,0.0,30.1,0.0,,0.0,0.0,,,25.3,0.0,0.0,-0.5,2.9,1.8,,,,,15.0,16.0,15.0,17.0,15.0,16.0,16.0,17.0,,,14.0,254.4,,0.0,21.0,4.998,,,0.93,0.826,0.0,14.3,,,,,,0.0,2026-02-28 09:33:49-08:00
41.06,1.0,9.0,2026-02-28 17:34:26,37.0817,-121.5997,391.0,0.0,157.3,-12.6,,,,,17:34:25,10.7,-0.8,34.1,0.0,219.0,0.0,-0.01,1.0,,42.0,20.0,0.0,30.24,836.0,,,336.0,,,,,0.0,0.0,,,,,,,,,,,,,,,,,,,0.0,14.0,0.0,0.0,30.1,0.0,,0.0,0.0,,,25.3,0.0,0.0,-0.5,2.9,1.8,,,,,15.0,16.0,15.0,17.0,15.0,16.0,16.0,17.0,,,14.0,254.4,,0.0,21.0,4.998,,,0.93,0.826,0.0,14.3,,,,,,0.0,2026-02-28 09:33:49-08:00
42.06,1.0,9.0,2026-02-28 17:34:27,37.0817,-121.5997,391.0,0.0,157.3,-12.6,,,,,17:34:26,10.8,-0.8,34.1,0.0,219.0,0.1,-0.01,1.0,,18.0,20.0,0.0,30.24,836.0,,,336.0,,,,,0.0,0.0,,,,,,,,,,,,,,,,,,,0.0,14.0,0.0,0.0,30.1,0.0,,0.0,0.0,,,25.3,0.0,0.0,-0.5,2.9,1.8,,,,,15.0,16.0,15.0,17.0,15.0,16.0,16.0,17.0,,,14.0,224.9,,0.0,21.0,4.998,,,0.93,0.826,0.0,14.3,,,,,,0.0,2026-02-28 09:33:49-08:00
43.06,1.0,9.0,2026-02-28 17:34:28,37.0817,-121.5997,391.0,0.0,157.3,-12.6,,,,,17:34:27,10.8,-0.8,34.1,0.0,219.0,0.1,-0.01,1.0,,20.0,20.0,0.0,30.24,837.0,,,336.0,,,,,0.0,0.0,,,,,,,,,,,,,,,,,,,0.0,14.0,0.0,0.0,30.1,0.0,,0.0,0.0,,,25.3,0.0,0.0,-0.5,2.9,1.8,,,,,15.0,16.0,15.0,17.0,15.0,17.0,16.0,17.0,,,17.0,175.1,,0.0,21.0,4.998,,,0.93,0.826,0.0,14.3,,,,,,0.0,2026-02-28 09:33:49-08:00
44.06,1.0,9.0,2026-02-28 17:34:29,37.0817,-121.5997,391.0,0.1,157.3,-12.6,,,,,17:34:28,10.8,-0.8,34.2,0.0,219.0,0.1,-0.01,1.0,,32.0,20.0,0.0,30.24,837.0,,,336.0,,,,,0.0,0.0,,,,,,,,,,,,,,,,,,,0.0,14.0,0.0,0.0,30.1,0.0,,0.0,0.0,,,25.3,0.0,0.0,-0.5,2.9,1.8,,,,,15.0,16.0,15.0,17.0,15.0,17.0,16.0,17.0,,,17.0,136.3,,0.0,21.0,4.998,,,0.93,0.826,0.0,14.3,,,,,,0.0,2026-02-28 09:33:49-08:00
45.06,1.0,9.0,2026-02-28 17:34:30,37.0817,-121.5997,390.0,0.0,157.3,-12.6,,,,,17:34:29,10.8,-0.8,34.2,0.0,219.0,0.1,-0.01,1.0,,65.0,20.0,0.0,30.24,837.0,,,336.0,,,,,0.0,0.0,,,,,,,,,,,,,,,,,,,0.0,14.0,0.0,0.0,30.1,0.0,,0.0,0.0,,,25.3,0.0,0.0,-0.5,2.9,1.8,,,,,15.0,16.0,15.0,17.0,15.0,17.0,16.0,17.0,,,17.0,106.1,,0.0,21.0,4.998,,,0.93,0.826,0.0,14.3,,,,,,0.0,2026-02-28 09:33:49-08:00
46.06,1.0,9.0,2026-02-28 17:34:31,37.0817,-121.5997,390.0,0.0,157.3,-12.6,,,,,17:34:30,10.8,-0.7,34.2,0.0,219.0,0.1,-0.01,1.0,,47.0,20.0,0.0,30.24,847.0,,,336.0,,,,,0.0,0.0,,,,,,,,,,,,,,,,,,,0.0,14.0,0.0,0.0,30.1,0.0,,0.0,0.0,,,25.3,0.0,0.0,-0.5,2.9,1.8,,,,,15.0,16.0,15.0,17.0,15.0,17.0,16.0,17.0,,,17.0,82.7,,0.0,21.0,4.998,,,0.93,0.826,0.0,14.3,,,,,,0.0,2026-02-28 09:33:49-08:00
47.06,1.0,9.0,2026-02-28 17:34:32,37.0817,-121.5997,390.0,0.0,157.3,-12.6,,,,,17:34:31,10.8,-0.8,34.2,0.0,219.0,0.1,-0.01,1.0,,43.0,20.0,0.0,30.24,847.0,,,336.0,,,,,0.0,0.0,,,,,,,,,,,,,,,,,,,0.0,14.0,0.0,0.0,30.1,0.0,,0.0,0.0,,,25.3,0.0,0.0,-0.5,2.9,1.8,,,,,15.0,16.0,15.0,17.0,15.0,17.0,16.0,17.0,,,17.0,64.5,,0.0,21.0,4.998,,,0.93,0.826,0.0,14.3,,,,,,0.0,2026-02-28 09:33:49-08:00
48.06,1.0,9.0,2026-02-28 17:34:33,37.0817,-121.5997,390.0,0.0,157.3,-12.6,,,,,17:34:32,10.8,-0.8,34.1,0.0,219.0,0.0,-0.01,1.0,,18.0,20.0,0.0,30.24,847.0,,,336.0,,,,,0.0,0.0,,,,,,,,,,,,,,,,,,,0.0,14.0,0.0,0.0,30.1,0.0,,0.0,0.0,,,25.3,0.0,0.0,-0.5,2.9,1.8,,,,,15.0,16.0,15.0,17.0,15.0,17.0,16.0,17.0,,,17.0,50.4,,0.0,21.0,4.998,,,0.93,0.828,0.0,14.3,,,,,,0.0,2026-02-28 09:33:49-08:00
49.06,1.0,9.0,2026-02-28 17:34:34,37.0817,-121.5997,390.0,0.0,157.3,-12.6,,,,,17:34:33,10.8,-0.9,34.1,0.0,219.0,0.0,-0.01,1.0,,-32.0,20.0,0.0,30.24,847.0,,,336.0,,,,,0.0,0.0,,,,,,,,,,,,,,,,,,,0.0,14.0,0.0,0.0,30.1,0.0,,0.0,0.0,,,25.3,0.0,0.0,-0.5,2.9,1.8,,,,,15.0,16.0,15.0,17.0,15.0,17.0,16.0,17.0,,,17.0,39.3,,0.0,21.0,4.998,,,0.93,0.828,0.0,14.3,,,,,,0.0,2026-02-28 09:33:49-08:00
50.06,1.0,9.0,2026-02-28 17:34:35,37.0817,-121.5997,390.0,0.0,157.3,-12.6,,,,,17:34:34,10.8,-0.8,34.1,0.0,219.0,0.0,-0.01,1.0,,-49.0,20.0,0.0,30.24,847.0,,,336.0,,,,,0.0,0.0,,,,,,,,,,,,,,,,,,,0.0,14.0,0.0,0.0,30.1,0.0,,0.0,0.0,,,25.3,0.0,0.0,-0.5,2.9,1.8,,,,,15.0,16.0,16.0,17.0,16.0,17.0,16.0,17.0,,,17.0,30.8,,0.0,21.0,4.998,,,0.93,0.828,0.0,14.3,,,,,,0.0,2026-02-28 09:33:49-08:00
51.06,1.0,9.0,2026-02-28 17:34:36,37.0817,-121.5997,390.0,0.0,157.3,-12.6,,,,,17:34:35,10.8,-0.8,34.1,0.0,219.0,0.0,-0.01,1.0,,-50.0,20.0,0.0,30.24,848.0,,,336.0,,,,,0.0,0.0,,,,,,,,,,,,,,,,,,,0.0,14.0,0.0,0.0,30.1,0.0,,0.0,0.0,,,25.3,0.0,0.0,-0.5,2.9,1.8,,,,,15.0,16.0,16.0,17.0,16.0,17.0,16.0,17.0,,,16.0,24.2,,0.0,21.0,4.998,,,0.93,0.828,0.0,14.3,,,,,,0.0,2026-02-28 09:33:49-08:00
52.06,1.0,9.0,2026-02-28 17:34:37,37.0817,-121.5997,390.0,0.0,157.3,-12.6,,,,,17:34:36,10.8,-0.8,34.1,0.0,219.0,0.0,-0.01,1.0,,-79.0,20.0,0.0,30.24,848.0,,,336.0,,,,,0.0,0.0,,,,,,,,,,,,,,,,,,,0.0,14.0,0.0,0.0,30.1,0.0,,0.0,0.0,,,25.3,0.0,0.0,-0.5,2.9,1.8,,,,,15.0,16.0,16.0,17.0,16.0,17.0,16.0,17.0,,,16.0,19.0,,0.0,21.0,4.998,,,0.93,0.828,0.0,14.3,,,,,,0.0,2026-02-28 09:33:49-08:00
53.06,1.0,9.0,2026-02-28 17:34:38,37.0817,-121.5997,390.0,0.0,157.3,-12.6,,,,,17:34:37,10.8,-0.8,34.2,0.0,219.0,0.1,-0.01,1.0,,-102.0,20.0,0.0,30.24,848.0,,,336.0,,,,,0.0,0.0,,,,,,,,,,,,,,,,,,,0.0,14.0,0.0,0.0,30.1,0.0,,0.0,0.0,,,25.3,0.0,0.0,-0.5,2.9,1.8,,,,,15.0,16.0,16.0,17.0,16.0,17.0,16.0,17.0,,,16.0,15.0,,0.0,21.0,4.998,,,0.93,0.828,0.0,14.3,,,,,,0.0,2026-02-28 09:33:49-08:00
54.06,1.0,9.0,2026-02-28 17:34:39,37.0817,-121.5997,390.0,0.0,157.3,-12.6,,,,,17:34:38,10.8,-0.7,34.2,0.0,219.0,0.1,-0.01,1.0,,-54.0,20.0,0.0,30.24,858.0,,,336.0,,,,,0.0,0.0,,,,,,,,,,,,,,,,,,,0.0,14.0,0.0,0.0,30.1,0.0,,0.0,0.0,,,25.3,0.0,0.0,-0.5,2.9,1.8,,,,,15.0,16.0,16.0,17.0,16.0,17.0,16.0,17.0,,,15.0,11.9,,0.0,21.0,4.998,,,0.93,0.828,0.0,14.3,,,,,,0.0,2026-02-28 09:33:49-08:00
55.06,1.0,9.0,2026-02-28 17:34:40,37.0817,-121.5997,390.0,0.1,157.3,-12.6,,,,,17:34:39,10.8,-0.8,34.2,0.0,217.0,0.1,-0.01,1.0,,-98.0,20.0,0.0,30.24,858.0,,,336.0,,,,,0.0,0.0,,,,,,,,,,,,,,,,,,,0.0,14.0,0.0,0.0,30.1,0.0,,0.0,0.0,,,25.3,0.0,0.0,-0.5,2.9,1.8,,,,,15.0,16.0,16.0,17.0,16.0,17.0,16.0,17.0,,,15.0,9.4,,0.0,21.0,4.998,,,0.93,0.828,0.0,14.3,,,,,,0.0,2026-02-28 09:33:49-08:00
56.06,1.0,9.0,2026-02-28 17:34:41,37.0817,-121.5997,389.0,0.0,157.3,-12.6,,,,,17:34:40,10.8,-0.8,34.2,0.0,216.0,0.0,-0.01,1.0,,-101.0,20.0,0.0,30.24,858.0,,,336.0,,,,,0.0,0.0,,,,,,,,,,,,,,,,,,,0.0,14.0,0.0,0.0,30.1,0.0,,0.0,0.0,,,25.3,0.0,0.0,-0.5,2.9,1.8,,,,,15.0,16.0,16.0,17.0,16.0,16.0,16.0,17.0,,,15.0,7.5,,0.0,21.0,4.998,,,0.93,0.828,0.0,14.3,,,,,,0.0,2026-02-28 09:33:49-08:00
57.06,1.0,9.0,2026-02-28 17:34:42,37.0817,-121.5997,389.0,0.0,157.3,-12.6,0.14,C83,44.8,358.4,17:34:41,10.8,-0.9,34.1,0.0,215.0,0.0,-0.01,1.0,,-75.0,20.0,0.0,30.24,852.0,,,336.0,,,,346.0,0.0,0.0,5.0,3.0,,,,,,,,,,,,,,,,,0.0,14.0,0.0,0.0,30.1,0.0,,0.0,0.0,,,25.3,0.0,0.0,-0.5,2.9,1.8,,,,,15.0,16.0,16.0,17.0,16.0,16.0,16.0,17.0,,,14.0,6.1,,0.0,21.0,4.998,,,0.93,0.829,0.0,14.3,,,,,,0.0,2026-02-28 09:33:49-08:00
58.06,1.0,9.0,2026-02-28 17:34:43,37.0817,-121.5997,389.0,0.0,157.3,-12.6,0.14,C83,44.8,358.4,17:34:42,10.8,-0.9,34.0,0.0,215.0,0.0,-0.01,1.0,,-65.0,20.0,0.0,30.24,853.0,,,336.0,,,,346.0,0.0,0.0,5.0,3.0,,,,,,,,,,,,,,,,,0.0,14.0,0.0,0.0,30.1,0.0,,0.0,0.0,,,25.3,0.0,0.0,-0.5,2.9,1.8,,,,,15.0,16.0,16.0,17.0,16.0,16.0,16.0,17.0,,,13.0,4.9,,0.0,21.0,4.998,,,0.93,0.829,0.0,14.3,,,,,,0.0,2026-02-28 09:33:49-08:00
59.06,1.0,9.0,2026-02-28 17:34:44,37.0817,-121.5997,389.0,0.0,157.3,-12.6,0.14,C83,44.8,358.4,17:34:43,10.8,-0.9,34.0,0.0,213.0,0.0,-0.01,1.0,,-62.0,20.0,0.0,30.24,853.0,,,336.0,,,,346.0,0.0,0.0,5.0,3.0,,,,,,,,,,,,,,,,,0.0,14.0,0.0,0.0,30.1,0.0,,0.0,0.0,,,25.3,0.0,0.0,-0.5,2.9,1.8,,,,,15.0,16.0,16.0,17.0,16.0,16.0,16.0,17.0,,,14.0,4.0,,0.0,21.0,4.998,,,0.93,0.829,0.0,14.3,,,,,,0.0,2026-02-28 09:33:49-08:00
60.06,1.0,9.0,2026-02-28 17:34:45,37.0817,-121.5997,389.0,0.1,157.3,-12.6,0.14,C83,44.8,358.4,17:34:44,10.8,-0.9,34.0,0.0,213.0,0.1,-0.01,1.0,,-23.0,20.0,0.0,30.24,853.0,,,336.0,,,,346.0,0.0,0.0,5.0,3.0,,,,,,,,,,,,,,,,,0.0,14.0,0.0,0.0,30.1,0.0,,0.0,0.0,,,25.3,0.0,0.0,-0.5,2.9,1.8,,,,,15.0,16.0,16.0,17.0,16.0,16.0,16.0,17.0,,,13.0,3.4,,0.0,21.0,4.998,,,0.93,0.829,0.0,14.3,,,,,,0.0,2026-02-28 09:33:49-08:00
61.06,1.0,9.0,2026-02-28 17:34:46,37.0817,-121.5997,389.0,0.0,157.3,-12.6,0.14,C83,44.8,358.4,17:34:45,10.8,-0.9,34.0,0.0,213.0,0.1,-0.01,1.0,,2.0,20.0,0.0,30.24,861.0,,,336.0,,,,346.0,0.0,0.0,5.0,3.0,,,,,,,,,,,,,,,,,0.0,14.0,0.0,0.0,30.1,0.0,,0.0,0.0,,,25.3,0.0,0.0,-0.5,2.9,1.8,,,,,15.0,16.0,16.0,17.0,16.0,16.0,16.0,17.0,,,14.0,2.8,,0.0,21.0,4.998,,,0.93,0.829,0.0,14.3,,,,,,0.0,2026-02-28 09:33:49-08:00
62.06,1.0,9.0,2026-02-28 17:34:47,37.0817,-121.5997,388.0,0.0,157.3,-12.6,0.14,C83,44.8,358.4,17:34:46,10.8,-0.8,34.0,0.0,213.0,0.1,-0.01,1.0,,2.0,20.0,0.0,30.24,861.0,,,336.0,,,,346.0,0.0,0.0,5.0,3.0,,,,,,,,,,,,,,,,,0.0,14.0,0.0,0.0,30.1,0.0,,0.0,0.0,,,25.3,0.0,0.0,-0.5,2.9,1.8,,,,,15.0,16.0,16.0,17.0,16.0,16.0,16.0,17.0,,,14.0,2.4,,0.0,21.0,4.998,,,0.93,0.829,0.0,14.3,,,,,,0.0,2026-02-28 09:33:49-08:00
63.06,1.0,9.0,2026-02-28 17:34:48,37.0817,-121.5997,388.0,0.0,157.3,-12.6,0.14,C83,44.8,358.4,17:34:47,10.8,-0.8,34.0,0.0,213.0,0.1,-0.01,1.0,,23.0,20.0,0.0,30.24,862.0,,,336.0,,,,346.0,0.0,0.0,5.0,3.0,,,,,,,,,,,,,,,,,0.0,14.0,0.0,0.0,30.1,0.0,,0.0,0.0,,,25.3,0.0,0.0,-0.5,2.9,1.8,,,,,15.0,16.0,16.0,17.0,16.0,16.0,16.0,17.0,,,13.0,2.1,,0.0,21.0,4.998,,,0.93,0.829,0.0,14.3,,,,,,0.0,2026-02-28 09:33:49-08:00
64.06,2.0,9.0,2026-02-28 17:34:49,37.08172,-121.59969,386.0,0.0,157.3,-12.6,0.14,C83,44.8,358.4,17:34:48,10.8,-0.9,34.1,0.0,213.0,0.1,-0.01,1.0,,-23.0,20.0,0.0,30.24,862.0,,,336.0,,,,346.0,0.0,0.0,5.0,3.0,,,,,,,,,,,,,,,,,0.0,14.0,0.0,0.0,30.1,0.0,,0.0,0.0,,,25.3,0.0,0.0,-0.5,2.9,1.8,,,,,15.0,16.0,16.0,17.0,16.0,16.0,16.0,17.0,,,16.0,1.8,,0.0,21.0,4.998,,,0.93,0.83,0.0,14.3,,,,,,0.0,2026-02-28 09:33:49-08:00
65.06,2.0,9.0,2026-02-28 17:34:50,37.08172,-121.59969,386.0,0.0,157.3,-12.6,0.14,C83,44.8,358.4,17:34:49,10.8,-0.9,34.0,0.0,213.0,0.0,-0.01,1.0,,-37.0,20.0,0.0,30.24,862.0,,,336.0,,,,346.0,0.0,0.0,5.0,3.0,,,,,,,,,,,,,,,,,0.0,14.0,0.0,0.0,30.1,0.0,,0.0,0.0,,,25.3,0.0,0.0,-0.5,2.9,1.8,,,,,15.0,16.0,16.0,17.0,16.0,17.0,16.0,17.0,,,16.0,1.7,,0.0,21.0,4.998,,,0.93,0.83,0.0,14.3,,,,,,0.0,2026-02-28 09:33:49-08:00
66.06,2.0,9.0,2026-02-28 17:34:51,37.08172,-121.59969,386.0,0.0,157.3,-12.6,0.14,C83,44.8,358.4,17:34:50,10.8,-0.9,34.0,0.0,213.0,0.0,-0.01,1.0,,-23.0,20.0,0.0,30.24,872.0,,,336.0,,,,346.0,0.0,0.0,5.0,3.0,,,,,,,,,,,,,,,,,0.0,14.0,0.0,0.0,30.1,0.0,,0.0,0.0,,,25.3,0.0,0.0,-0.5,2.9,1.8,,,,,15.0,16.0,16.0,17.0,16.0,17.0,16.0,17.0,,,16.0,1.5,,0.0,21.0,4.998,,,0.93,0.83,0.0,14.3,,,,,,0.0,2026-02-28 09:33:49-08:00
67.06,2.0,9.0,2026-02-28 17:34:52,37.08172,-121.59969,385.0,0.0,157.3,-12.6,0.14,C83,44.8,358.4,17:34:51,10.9,-0.9,34.0,0.0,213.0,0.0,-0.01,1.0,,-7.0,20.0,0.0,30.24,872.0,,,336.0,,,,346.0,0.0,0.0,5.0,3.0,,,,,,,,,,,,,,,,,0.0,14.0,0.0,0.0,30.1,0.0,,0.0,0.0,,,25.3,0.0,0.0,-0.5,2.9,1.8,,,,,15.0,16.0,16.0,17.0,16.0,17.0,16.0,17.0,,,16.0,1.4,,0.0,21.0,4.998,,,0.93,0.83,0.0,14.3,,,,,,0.0,2026-02-28 09:33:49-08:00
68.06,2.0,9.0,2026-02-28 17:34:53,37.08172,-121.59969,385.0,0.0,157.3,-12.6,0.14,C83,44.8,358.4,17:34:52,10.8,-0.9,34.0,0.0,213.0,0.1,-0.01,1.0,,-7.0,20.0,0.0,30.2,872.0,,,336.0,,,,346.0,0.0,0.0,5.0,3.0,,,,,,,,,,,,,,,,,0.0,14.0,0.0,0.0,30.1,0.0,,0.0,0.0,,,25.3,0.0,0.0,-0.5,2.9,1.8,,,,,15.0,16.0,16.0,17.0,16.0,17.0,16.0,17.0,,,15.0,1.3,,0.0,21.0,4.998,,,0.93,0.83,0.0,14.3,,,,,,0.0,2026-02-28 09:33:49-08:00
69.06,2.0,9.0,2026-02-28 17:34:54,37.08172,-121.59969,385.0,0.0,157.3,-12.6,0.14,C83,44.8,358.4,17:34:53,10.8,-0.9,34.0,0.0,213.0,0.1,-0.01,1.0,,35.0,20.0,0.0,30.11,872.0,,,336.0,,,,346.0,0.0,0.0,5.0,3.0,,,,,,,,,,,,,,,,,0.0,14.0,0.0,0.0,30.1,0.0,,0.0,0.0,,,25.3,0.0,0.0,-0.5,2.9,1.8,,,,,15.0,16.0,16.0,17.0,16.0,17.0,16.0,17.0,,,14.0,1.2,,0.0,21.0,4.998,,,0.93,0.83,0.0,14.4,,,,,,0.0,2026-02-28 09:33:49-08:00
70.06,2.0,9.0,2026-02-28 17:34:55,37.08172,-121.59969,385.0,0.0,157.3,-12.6,0.14,C83,44.8,358.4,17:34:54,10.9,-0.9,34.0,0.0,213.0,0.0,-0.01,1.0,,38.0,20.0,0.0,29.93,872.0,,,336.0,,,,346.0,0.0,0.0,5.0,3.0,,,,,,,,,,,,,,,,,0.0,14.0,0.0,0.0,30.1,0.0,,0.0,0.0,,,25.3,0.0,0.0,-0.5,2.9,1.8,,,,,15.0,16.0,16.0,17.0,16.0,17.0,16.0,17.0,,,13.0,1.2,,0.0,21.0,4.998,,,0.93,0.83,0.0,14.3,,,,,,0.0,2026-02-28 09:33:49-08:00
71.06,2.0,9.0,2026-02-28 17:34:56,37.08172,-121.59969,384.0,0.1,157.3,-12.6,0.14,C83,44.8,358.4,17:34:55,10.9,-0.9,34.0,0.0,213.0,0.0,-0.01,1.0,,51.0,20.0,0.0,29.95,873.0,,,336.0,,,,346.0,0.0,0.0,5.0,3.0,,,,,,,,,,,,,,,,,0.0,14.0,0.0,0.0,30.1,0.0,,0.0,0.0,,,25.3,0.0,0.0,-0.5,2.9,1.8,,,,,15.0,16.0,16.0,17.0,16.0,17.0,16.0,17.0,,,12.0,1.1,,0.0,21.0,4.998,,,0.93,0.83,0.0,14.4,,,,,,0.0,2026-02-28 09:33:49-08:00
72.06,2.0,9.0,2026-02-28 17:34:57,37.08172,-121.59969,384.0,0.0,157.3,-12.6,0.14,C83,44.8,358.4,17:34:56,10.8,-0.8,34.0,0.0,213.0,0.1,-0.01,1.0,,48.0,20.0,0.0,29.98,873.0,,,336.0,,,,346.0,0.0,0.0,5.0,3.0,,,,,,,,,,,,,,,,,0.0,14.0,0.0,0.0,30.1,0.0,,0.0,0.0,,,25.3,0.0,0.0,-0.5,2.9,1.8,,,,,15.0,16.0,16.0,17.0,16.0,17.0,16.0,17.0,,,13.0,1.1,,0.0,21.0,4.998,,,0.93,0.83,0.0,14.3,,,,,,0.0,2026-02-28 09:33:49-08:00
73.06,2.0,9.0,2026-02-28 17:34:58,37.08172,-121.5997,385.0,0.0,157.3,-12.6,0.14,C83,44.8,358.4,17:34:57,10.9,-0.8,34.0,0.0,213.0,0.1,-0.01,1.0,,8.0,20.0,0.0,29.99,873.0,,,336.0,,,,346.0,0.0,0.0,5.0,3.0,,,,,,,,,,,,,,,,,0.0,14.0,0.0,0.0,30.1,0.0,,0.0,0.0,,,25.3,0.0,0.0,-0.5,2.9,1.8,,,,,15.0,16.0,16.0,17.0,16.0,17.0,16.0,17.0,,,12.0,1.1,,0.0,21.0,4.998,,,0.93,0.83,0.0,14.4,,,,,,0.0,2026-02-28 09:33:49-08:00
74.06,2.0,9.0,2026-02-28 17:34:59,37.08172,-121.5997,385.0,0.0,157.3,-12.6,0.14,C83,44.8,358.4,17:34:58,10.8,-0.8,34.1,0.0,213.0,0.1,-0.01,1.0,,13.0,20.0,0.0,29.99,882.0,,,336.0,,,,346.0,0.0,0.0,5.0,3.0,,,,,,,,,,,,,,,,,0.0,14.0,0.0,0.0,30.1,0.0,,0.0,0.0,,,25.3,0.0,0.0,-0.5,2.9,1.8,,,,,15.0,16.0,16.0,17.0,16.0,17.0,16.0,17.0,,,11.0,1.0,,0.0,21.0,4.998,,,0.93,0.83,0.0,14.4,,,,,,0.0,2026-02-28 09:33:49-08:00
75.06,2.0,9.0,2026-02-28 17:35:00,37.08171,-121.5997,389.0,0.0,157.3,-12.6,0.14,C83,44.8,358.4,17:34:59,10.8,-0.8,34.1,0.0,213.0,0.0,-0.01,1.0,,-18.0,20.0,0.0,29.99,882.0,,,336.0,,,,346.0,0.0,0.0,5.0,3.0,,,,,,,,,,,,,,,,,0.0,14.0,0.0,0.0,30.1,0.0,,0.0,0.0,,,25.3,0.0,0.0,-0.5,2.9,1.8,,,,,15.0,16.0,16.0,17.0,16.0,17.0,16.0,17.0,,,11.0,1.0,,0.0,21.0,4.998,,,0.93,0.83,0.0,14.4,,,,,,0.0,2026-02-28 09:33:49-08:00
76.06,2.0,9.0,2026-02-28 17:35:01,37.08171,-121.5997,389.0,0.0,157.3,-12.6,0.14,C83,44.8,358.4,17:35:00,10.8,-0.8,34.1,0.0,213.0,0.0,-0.01,1.0,,-20.0,20.0,0.0,29.99,882.0,,,336.0,,,,346.0,0.0,0.0,5.0,3.0,,,,,,,,,,,,,,,,,0.0,14.0,0.0,0.0,30.1,0.0,,0.0,0.0,,,25.3,0.0,0.0,-0.5,2.9,1.8,,,,,15.0,16.0,16.0,17.0,16.0,17.0,16.0,17.0,,,11.0,1.0,,0.0,21.0,4.998,,,0.93,0.83,0.0,14.4,,,,,,0.0,2026-02-28 09:33:49-08:00
77.06,2.0,9.0,2026-02-28 17:35:02,37.08171,-121.5997,389.0,0.1,157.3,-12.6,0.14,C83,44.8,358.4,17:35:01,10.8,-0.9,34.1,0.0,213.0,0.0,-0.01,1.0,,-11.0,20.0,0.0,29.99,882.0,,,336.0,,,,346.0,0.0,0.0,5.0,3.0,,,,,,,,,,,,,,,,,0.0,14.0,0.0,0.0,30.1,0.0,,0.0,0.0,,,25.3,0.0,0.0,-0.5,2.9,1.8,,,,,15.0,16.0,16.0,17.0,16.0,17.0,16.0,17.0,,,12.0,1.0,,0.0,21.0,4.998,,,0.93,0.83,0.0,14.4,,,,,,0.0,2026-02-28 09:33:49-08:00
78.06,2.0,9.0,2026-02-28 17:35:03,37.08171,-121.5997,389.0,0.0,157.3,-12.6,0.14,C83,44.8,358.4,17:35:02,10.8,-0.9,34.0,0.0,213.0,0.0,-0.01,1.0,,-21.0,20.0,0.0,29.99,882.0,,,336.0,,,,346.0,0.0,0.0,5.0,3.0,,,,,,,,,,,,,,,,,0.0,14.0,0.0,0.0,30.1,0.0,,0.0,0.0,,,25.3,0.0,0.0,-0.5,2.9,1.8,,,,,15.0,16.0,16.0,17.0,16.0,17.0,16.0,17.0,,,12.0,1.0,,0.0,21.0,4.998,,,0.93,0.83,0.0,14.4,,,,,,0.0,2026-02-28 09:33:49-08:00
79.06,2.0,9.0,2026-02-28 17:35:04,37.08171,-121.5997,387.0,0.1,157.3,-12.6,0.14,C83,44.8,358.4,17:35:03,10.9,-0.9,34.0,0.0,213.0,0.0,-0.01,1.0,,-12.0,20.0,0.0,29.99,882.0,,,336.0,,,,346.0,0.0,0.0,5.0,3.0,,,,,,,,,,,,,,,,,0.0,14.0,0.0,0.0,30.1,0.0,,0.0,0.0,,,25.3,0.0,0.0,-0.5,2.9,1.8,,,,,15.0,17.0,16.0,17.0,16.0,17.0,16.0,17.0,,,13.0,1.0,,0.0,21.0,4.998,,,0.93,0.831,0.0,14.4,,,,,,0.0,2026-02-28 09:33:49-08:00
80.06,2.0,9.0,2026-02-28 17:35:05,37.08171,-121.5997,387.0,0.0,157.3,-12.6,0.14,C83,44.8,358.4,17:35:04,10.9,-0.9,34.0,0.0,213.0,0.0,-0.01,1.0,,-44.0,20.0,0.0,29.99,883.0,,,336.0,,,,346.0,0.0,0.0,5.0,3.0,,,,,,,,,,,,,,,,,0.0,14.0,0.0,0.0,30.1,0.0,,0.0,0.0,,,25.3,0.0,0.0,-0.5,2.9,1.8,,,,,15.0,17.0,16.0,17.0,16.0,17.0,16.0,17.0,,,12.0,1.0,,0.0,21.0,4.998,,,0.93,0.83,0.0,14.4,,,,,,0.0,2026-02-28 09:33:49-08:00
81.06,2.0,9.0,2026-02-28 17:35:06,37.08171,-121.5997,387.0,0.0,157.3,-12.6,0.14,C83,44.8,358.4,17:35:05,10.9,-0.9,33.9,0.0,213.0,0.0,-0.01,1.0,,-84.0,20.0,0.0,29.99,883.0,,,336.0,,,,346.0,0.0,0.0,5.0,3.0,,,,,,,,,,,,,,,,,0.0,14.0,0.0,0.0,30.1,0.0,,0.0,0.0,,,25.3,0.0,0.0,-0.5,2.9,1.8,,,,,15.0,17.0,16.0,17.0,16.0,17.0,16.0,17.0,,,12.0,1.0,,0.0,21.0,4.998,,,0.93,0.831,0.0,14.4,,,,,,0.0,2026-02-28 09:33:49-08:00
82.06,2.0,9.0,2026-02-28 17:35:07,37.08171,-121.5997,386.0,0.1,157.3,-12.6,0.14,C83,44.8,358.4,17:35:06,10.9,-0.9,33.9,0.0,212.0,0.0,-0.01,1.0,,-67.0,20.0,0.0,29.99,883.0,,,336.0,,,,346.0,0.0,0.0,5.0,3.0,,,,,,,,,,,,,,,,,0.0,14.0,0.0,0.0,30.1,0.0,,0.0,0.0,,,25.3,0.0,0.0,-0.5,2.9,1.8,,,,,15.0,17.0,16.0,17.0,16.0,17.0,16.0,17.0,,,11.0,1.0,,0.0,21.0,4.998,,,0.93,0.83,0.0,14.4,,,,,,0.0,2026-02-28 09:33:49-08:00
83.06,2.0,9.0,2026-02-28 17:35:08,37.08171,-121.5997,386.0,0.0,157.3,-12.6,0.14,C83,44.8,358.4,17:35:07,10.9,-0.9,33.9,0.0,211.0,0.0,-0.01,1.0,,-100.0,20.0,0.0,29.99,892.0,,,336.0,,,,346.0,0.0,0.0,5.0,3.0,,,,,,,,,,,,,,,,,0.0,14.0,0.0,0.0,30.1,0.0,,0.0,0.0,,,25.3,0.0,0.0,-0.5,2.9,1.8,,,,,15.0,16.0,16.0,17.0,16.0,17.0,16.0,17.0,,,11.0,1.0,,0.0,21.0,4.998,,,0.93,0.83,0.0,14.4,,,,,,0.0,2026-02-28 09:33:49-08:00
84.06,2.0,9.0,2026-02-28 17:35:09,37.08171,-121.5997,386.0,0.0,157.3,-12.6,0.14,C83,44.8,358.4,17:35:08,10.9,-0.9,34.0,0.0,210.0,0.0,-0.01,1.0,,-80.0,20.0,0.0,29.99,892.0,,,336.0,,,,346.0,0.0,0.0,5.0,3.0,,,,,,,,,,,,,,,,,0.0,14.0,0.0,0.0,30.1,0.0,,0.0,0.0,,,25.3,0.0,0.0,-0.5,2.9,1.8,,,,,15.0,16.0,16.0,17.0,16.0,17.0,16.0,17.0,,,11.0,1.0,,0.0,21.0,4.998,,,0.93,0.831,0.0,14.4,,,,,,0.0,2026-02-28 09:33:49-08:00
85.06,2.0,9.0,2026-02-28 17:35:10,37.08171,-121.5997,387.0,0.1,157.3,-12.6,0.14,C83,44.8,358.4,17:35:09,10.9,-0.9,34.0,0.0,209.0,0.0,-0.01,1.0,,-69.0,20.0,0.0,29.99,892.0,,,336.0,,,,346.0,0.0,0.0,5.0,3.0,,,,,,,,,,,,,,,,,0.0,14.0,0.0,0.0,30.1,0.0,,0.0,0.0,,,25.3,0.0,0.0,-0.5,2.9,1.8,,,,,15.0,16.0,16.0,17.0,16.0,17.0,16.0,17.0,,,10.0,1.0,,0.0,21.0,4.998,,,0.93,0.831,0.0,14.4,,,,,,0.0,2026-02-28 09:33:49-08:00
86.06,2.0,9.0,2026-02-28 17:35:11,37.08171,-121.5997,387.0,0.1,157.3,-12.6,0.14,C83,44.8,358.4,17:35:10,10.9,-0.8,34.0,0.0,209.0,0.1,-0.01,1.0,,-56.0,20.0,0.0,29.99,888.0,,,336.0,,,,346.0,0.0,0.0,5.0,3.0,,,,,,,,,,,,,,,,,0.0,14.0,0.0,0.0,30.1,0.0,,0.0,0.0,,,25.3,0.0,0.0,-0.5,2.9,1.8,,,,,15.0,16.0,16.0,17.0,16.0,17.0,16.0,17.0,,,10.0,0.0,,0.0,21.0,4.998,,,0.93,0.831,0.0,14.4,,,,,,0.0,2026-02-28 09:33:49-08:00
87.06,2.0,9.0,2026-02-28 17:35:12,37.08168,-121.59972,404.0,0.0,157.3,-12.6,0.14,C83,44.8,358.4,17:35:11,10.9,-0.8,34.0,0.0,209.0,0.1,-0.01,1.0,,-25.0,20.0,0.0,29.99,888.0,,,336.0,,,,346.0,0.0,0.0,5.0,3.0,,,,,,,,,,,,,,,,,0.0,14.0,0.0,0.0,30.1,0.0,,0.0,0.0,,,25.3,0.0,0.0,-0.5,2.9,1.8,,,,,15.0,16.0,16.0,17.0,16.0,17.0,16.0,17.0,,,9.0,0.0,,0.0,21.0,4.998,,,0.93,0.831,0.0,14.4,,,,,,0.0,2026-02-28 09:33:49-08:00
88.06,2.0,9.0,2026-02-28 17:35:13,37.08168,-121.59972,404.0,0.0,157.3,-12.6,0.14,C83,44.8,358.4,17:35:12,10.9,-0.9,34.0,0.0,209.0,0.1,-0.01,1.0,,-6.0,20.0,0.0,29.99,889.0,,,336.0,,,,346.0,0.0,0.0,5.0,3.0,,,,,,,,,,,,,,,,,0.0,14.0,0.0,0.0,30.1,0.0,,0.0,0.0,,,25.3,0.0,0.0,-0.5,2.9,1.8,,,,,15.0,16.0,16.0,17.0,16.0,17.0,16.0,17.0,,,9.0,0.0,,0.0,21.0,4.998,,,0.93,0.831,0.0,14.4,,,,,,0.0,2026-02-28 09:33:49-08:00
89.06,2.0,9.0,2026-02-28 17:35:14,37.08168,-121.59972,404.0,0.0,157.3,-12.6,0.14,C83,44.8,358.4,17:35:13,10.9,-0.9,33.9,0.0,209.0,0.0,-0.01,1.0,,10.0,20.0,0.0,29.99,889.0,,,336.0,,,,346.0,0.0,0.0,5.0,3.0,,,,,,,,,,,,,,,,,0.0,14.0,0.0,0.0,30.1,0.0,,0.0,0.0,,,25.3,0.0,0.0,-0.5,2.9,1.8,,,,,15.0,16.0,16.0,17.0,16.0,17.0,16.0,17.0,,,11.0,0.0,,0.0,21.0,4.998,,,0.93,0.831,0.0,14.4,,,,,,0.0,2026-02-28 09:33:49-08:00
90.06,2.0,9.0,2026-02-28 17:35:15,37.08168,-121.59972,405.0,0.1,157.3,-12.6,0.14,C83,44.8,358.4,17:35:14,10.9,-0.9,33.9,0.0,209.0,0.0,-0.01,1.0,,0.0,20.0,0.0,29.99,889.0,,,336.0,,,,346.0,0.0,0.0,5.0,3.0,,,,,,,,,,,,,,,,,0.0,14.0,0.0,0.0,30.1,0.0,,0.0,0.0,,,25.3,0.0,0.0,-0.5,2.9,1.8,,,,,15.0,16.0,16.0,17.0,16.0,17.0,16.0,17.0,,,10.0,0.0,,0.0,21.0,4.998,,,0.93,0.833,0.0,14.4,,,,,,0.0,2026-02-28 09:33:49-08:00
91.06,2.0,9.0,2026-02-28 17:35:16,37.08168,-121.59971,404.0,0.1,157.3,-12.6,0.14,C83,44.8,358.4,17:35:15,10.9,-0.9,33.9,0.0,209.0,0.0,-0.01,1.0,,-14.0,20.0,0.0,29.99,898.0,,,336.0,,,,346.0,0.0,0.0,5.0,3.0,,,,,,,,,,,,,,,,,0.0,14.0,0.0,0.0,30.1,0.0,,0.0,0.0,,,25.3,0.0,0.0,-0.5,2.9,1.8,,,,,15.0,16.0,16.0,17.0,16.0,17.0,16.0,17.0,,,10.0,0.0,,0.0,21.0,4.998,,,0.93,0.833,0.0,14.4,,,,,,0.0,2026-02-28 09:33:49-08:00
92.06,2.0,9.0,2026-02-28 17:35:17,37.08168,-121.59972,404.0,0.0,157.3,-12.6,0.14,C83,44.8,358.4,17:35:16,10.9,-0.9,33.9,0.0,209.0,0.1,-0.01,1.0,,14.0,20.0,0.0,29.99,898.0,,,336.0,,,,346.0,0.0,0.0,5.0,3.0,,,,,,,,,,,,,,,,,0.0,14.0,0.0,0.0,30.1,0.0,,0.0,0.0,,,25.3,0.0,0.0,-0.5,2.9,1.8,,,,,15.0,16.0,16.0,17.0,16.0,17.0,16.0,17.0,,,10.0,0.0,,0.0,21.0,4.998,,,0.93,0.833,0.0,14.4,,,,,,0.0,2026-02-28 09:33:49-08:00
93.06,2.0,9.0,2026-02-28 17:35:18,37.08168,-121.59972,404.0,0.0,157.3,-12.6,0.14,C83,44.8,358.4,17:35:17,10.9,-0.9,33.9,0.0,209.0,0.0,-0.01,1.0,,-9.0,20.0,0.0,29.99,898.0,,,336.0,,,,346.0,0.0,0.0,5.0,3.0,,,,,,,,,,,,,,,,,0.0,14.0,0.0,0.0,30.1,0.0,,0.0,0.0,,,25.3,0.0,0.0,-0.5,2.9,1.8,,,,,15.0,16.0,16.0,17.0,16.0,17.0,16.0,17.0,,,10.0,0.0,,0.0,21.0,4.998,,,0.93,0.833,0.0,14.4,,,,,,0.0,2026-02-28 09:33:49-08:00
94.06,2.0,9.0,2026-02-28 17:35:19,37.08167,-121.59972,404.0,0.0,157.3,-12.6,0.14,C83,44.8,358.4,17:35:18,10.9,-0.9,33.9,0.0,209.0,0.0,-0.01,1.0,,-18.0,20.0,0.0,29.99,898.0,,,336.0,,,,346.0,0.0,0.0,5.0,3.0,,,,,,,,,,,,,,,,,0.0,14.0,0.0,0.0,30.1,0.0,,0.0,0.0,,,25.3,0.0,0.0,-0.5,2.9,1.8,,,,,15.0,16.0,16.0,17.0,16.0,17.0,16.0,17.0,,,10.0,0.0,,0.0,21.0,4.998,,,0.93,0.833,0.0,14.4,,,,,,0.0,2026-02-28 09:33:49-08:00
95.06,2.0,9.0,2026-02-28 17:35:20,37.08167,-121.59972,404.0,0.0,157.3,-12.6,0.14,C83,44.8,358.4,17:35:19,10.8,-0.9,33.9,0.0,209.0,0.0,-0.01,1.0,,-12.0,20.0,0.0,29.99,899.0,,,336.0,,,,346.0,0.0,0.0,5.0,3.0,,,,,,,,,,,,,,,,,0.0,14.0,0.0,0.0,30.1,0.0,,0.0,0.0,,,25.3,0.0,0.0,-0.5,2.9,1.8,,,,,15.0,16.0,16.0,17.0,16.0,17.0,16.0,17.0,,,9.0,0.0,,0.0,21.0,4.998,,,0.93,0.834,0.0,14.4,,,,,,0.0,2026-02-28 09:33:49-08:00
96.06,2.0,9.0,2026-02-28 17:35:21,37.08167,-121.59972,404.0,0.1,157.3,-12.6,0.14,C83,44.8,358.4,17:35:20,10.8,-0.9,34.0,0.0,209.0,0.1,-0.01,1.0,,5.0,20.0,0.0,29.99,899.0,,,336.0,,,,346.0,0.0,0.0,5.0,3.0,,,,,,,,,,,,,,,,,0.0,14.0,0.0,0.0,30.1,0.0,,0.0,0.0,,,25.3,0.0,0.0,-0.5,2.9,1.8,,,,,15.0,16.0,16.0,17.0,16.0,17.0,16.0,17.0,,,10.0,0.0,,0.0,21.0,4.998,,,0.93,0.834,0.0,14.4,,,,,,0.0,2026-02-28 09:33:49-08:00
97.06,2.0,9.0,2026-02-28 17:35:22,37.08167,-121.59972,406.0,0.0,157.3,-12.6,0.14,C83,44.8,358.4,17:35:21,10.9,-0.9,34.0,0.0,209.0,0.0,-0.01,1.0,,35.0,20.0,0.0,29.99,899.0,,,336.0,,,,346.0,0.0,0.0,5.0,3.0,,,,,,,,,,,,,,,,,0.0,14.0,0.0,0.0,30.1,0.0,,0.0,0.0,,,25.3,0.0,0.0,-0.5,2.9,1.8,,,,,15.0,16.0,16.0,17.0,16.0,17.0,16.0,17.0,,,9.0,0.0,,0.0,21.0,4.998,,,0.93,0.834,0.0,14.4,,,,,,0.0,2026-02-28 09:33:49-08:00
98.06,2.0,9.0,2026-02-28 17:35:23,37.08167,-121.59972,407.0,0.0,157.3,-12.6,0.14,C83,44.8,358.4,17:35:22,10.9,-0.9,34.0,0.0,209.0,0.0,-0.01,1.0,,59.0,20.0,0.0,29.99,909.0,,,336.0,,,,346.0,0.0,0.0,5.0,3.0,,,,,,,,,,,,,,,,,0.0,14.0,0.0,0.0,30.1,0.0,,0.0,0.0,,,25.3,0.0,0.0,-0.5,2.9,1.8,,,,,15.0,16.0,16.0,17.0,16.0,17.0,16.0,17.0,,,9.0,0.0,,0.0,21.0,4.998,,,0.93,0.834,0.0,14.4,,,,,,0.0,2026-02-28 09:33:49-08:00
99.06,2.0,9.0,2026-02-28 17:35:24,37.08167,-121.59972,408.0,0.1,157.3,-12.6,0.14,C83,44.8,358.4,17:35:23,10.9,-0.9,34.0,0.0,209.0,0.0,-0.01,1.0,,78.0,20.0,0.0,29.99,909.0,,,336.0,,,,346.0,0.0,0.0,5.0,3.0,,,,,,,,,,,,,,,,,0.0,14.0,0.0,0.0,30.1,0.0,,0.0,0.0,,,25.3,0.0,0.0,-0.5,2.9,1.8,,,,,15.0,16.0,16.0,17.0,16.0,17.0,16.0,17.0,,,9.0,0.0,,0.0,21.0,4.998,,,0.93,0.834,0.0,14.4,,,,,,0.0,2026-02-28 09:33:49-08:00
100.06,2.0,9.0,2026-02-28 17:35:25,37.08167,-121.59972,408.0,0.0,157.3,-12.6,0.14,C83,44.8,358.4,17:35:24,10.9,-0.9,34.0,0.0,209.0,0.1,-0.01,1.0,,69.0,20.0,0.0,29.99,909.0,,,336.0,,,,346.0,0.0,0.0,5.0,3.0,,,,,,,,,,,,,,,,,0.0,14.0,0.0,0.0,30.1,0.0,,0.0,0.0,,,25.3,0.0,0.0,-0.5,2.9,1.8,,,,,16.0,17.0,16.0,17.0,16.0,17.0,16.0,17.0,,,10.0,0.0,,0.0,21.0,4.998,,,0.93,0.834,0.0,14.4,,,,,,0.0,2026-02-28 09:33:49-08:00
101.06,2.0,9.0,2026-02-28 17:35:26,37.08167,-121.59972,409.0,0.0,157.3,-12.6,0.14,C83,44.8,358.4,17:35:25,10.9,-0.8,34.0,0.0,209.0,0.1,-0.01,1.0,,82.0,20.0,0.0,29.99,909.0,,,336.0,,,,346.0,0.0,0.0,5.0,3.0,,,,,,,,,,,,,,,,,0.0,14.0,0.0,0.0,30.1,0.0,,0.0,0.0,,,25.3,0.0,0.0,-0.5,2.9,1.8,,,,,16.0,17.0,16.0,17.0,16.0,17.0,16.0,17.0,,,10.0,0.0,,0.0,21.0,4.998,,,0.93,0.834,0.0,14.4,,,,,,0.0,2026-02-28 09:33:49-08:00
102.06,2.0,9.0,2026-02-28 17:35:27,37.08167,-121.59972,409.0,0.1,157.3,-12.6,0.14,C83,44.8,358.4,17:35:26,10.9,-0.8,34.0,0.0,210.0,0.1,-0.01,1.0,,50.0,21.0,0.0,29.99,911.0,,,336.0,,,,346.0,0.0,0.0,5.0,3.0,,,,,,,,,,,,,,,,,0.0,14.0,0.0,0.0,30.1,0.0,,0.0,0.0,,,25.3,0.0,0.0,-0.5,2.9,1.8,,,,,16.0,17.0,16.0,17.0,16.0,17.0,16.0,17.0,,,10.0,0.0,,0.0,21.0,4.998,,,0.93,0.834,0.0,14.4,,,,,,0.0,2026-02-28 09:33:49-08:00
103.06,2.0,9.0,2026-02-28 17:35:28,37.08167,-121.59971,409.0,0.0,157.3,-12.6,0.14,C83,44.8,358.4,17:35:27,10.8,-0.8,34.0,0.0,210.0,0.0,-0.01,1.0,,55.0,21.0,0.0,29.99,911.0,,,336.0,,,,346.0,0.0,0.0,5.0,3.0,,,,,,,,,,,,,,,,,0.0,14.0,0.0,0.0,30.1,0.0,,0.0,0.0,,,25.3,0.0,0.0,-0.5,2.9,1.8,,,,,15.0,17.0,16.0,17.0,16.0,17.0,16.0,17.0,,,10.0,0.0,,0.0,21.0,4.998,,,0.93,0.834,0.0,14.4,,,,,,0.0,2026-02-28 09:33:49-08:00
104.06,2.0,9.0,2026-02-28 17:35:29,37.08167,-121.59971,408.0,0.0,157.3,-12.6,0.14,C83,44.8,358.4,17:35:28,10.8,-0.9,34.0,0.0,211.0,0.0,-0.01,1.0,,32.0,21.0,0.0,29.99,912.0,,,336.0,,,,346.0,0.0,0.0,5.0,3.0,,,,,,,,,,,,,,,,,0.0,14.0,0.0,0.0,30.1,0.0,,0.0,0.0,,,25.3,0.0,0.0,-0.5,2.9,1.8,,,,,15.0,17.0,16.0,17.0,16.0,17.0,16.0,17.0,,,10.0,0.0,,0.0,21.0,4.998,,,0.93,0.834,0.0,14.4,,,,,,0.0,2026-02-28 09:33:49-08:00
105.06,2.0,9.0,2026-02-28 17:35:30,37.08167,-121.59971,409.0,0.0,157.3,-12.6,0.14,C83,44.8,358.4,17:35:29,10.9,-0.9,34.0,0.0,211.0,0.0,-0.01,1.0,,15.0,21.0,0.0,29.99,912.0,,,336.0,,,,346.0,0.0,0.0,5.0,3.0,,,,,,,,,,,,,,,,,0.0,14.0,0.0,0.0,30.1,0.0,,0.0,0.0,,,25.3,0.0,0.0,-0.5,2.9,1.8,,,,,15.0,17.0,16.0,17.0,16.0,17.0,16.0,17.0,,,9.0,0.0,,0.0,21.0,4.998,,,0.93,0.834,0.0,14.4,,,,,,0.0,2026-02-28 09:33:49-08:00
106.06,2.0,9.0,2026-02-28 17:35:31,37.08167,-121.59971,409.0,0.0,157.3,-12.6,0.14,C83,44.8,358.4,17:35:30,10.9,-0.8,34.0,0.0,211.0,0.1,-0.01,1.0,,8.0,21.0,0.0,29.99,912.0,,,336.0,,,,346.0,0.0,0.0,5.0,3.0,,,,,,,,,,,,,,,,,0.0,14.0,0.0,0.0,30.1,0.0,,0.0,0.0,,,25.3,0.0,0.0,-0.5,2.9,1.8,,,,,15.0,17.0,16.0,17.0,16.0,17.0,16.0,17.0,,,10.0,0.0,,0.0,21.0,4.998,,,0.93,0.834,0.0,14.4,,,,,,0.0,2026-02-28 09:33:49-08:00
107.06,2.0,9.0,2026-02-28 17:35:32,37.08167,-121.59971,409.0,0.0,157.3,-12.6,0.14,C83,44.8,358.4,17:35:31,10.9,-0.8,34.0,0.0,211.0,0.1,-0.01,1.0,,-5.0,21.0,0.0,29.99,921.0,,,336.0,,,,346.0,0.0,0.0,5.0,3.0,,,,,,,,,,,,,,,,,0.0,14.0,0.0,0.0,30.1,0.0,,0.0,0.0,,,25.3,0.0,0.0,-0.5,2.9,1.8,,,,,15.0,17.0,16.0,18.0,16.0,17.0,16.0,18.0,,,10.0,0.0,,0.0,21.0,4.998,,,0.93,0.834,0.0,14.4,,,,,,0.0,2026-02-28 09:33:49-08:00
108.06,2.0,9.0,2026-02-28 17:35:33,37.08167,-121.59971,409.0,0.0,157.3,-12.6,0.14,C83,44.8,358.4,17:35:32,10.9,-0.8,34.0,0.0,211.0,0.1,-0.01,1.0,,-17.0,21.0,0.0,29.99,921.0,,,336.0,,,,346.0,0.0,0.0,5.0,3.0,,,,,,,,,,,,,,,,,0.0,14.0,0.0,0.0,30.1,0.0,,0.0,0.0,,,25.3,0.0,0.0,-0.5,2.9,1.8,,,,,15.0,17.0,16.0,17.0,16.0,17.0,16.0,17.0,,,9.0,0.0,,0.0,21.0,4.998,,,0.93,0.835,0.0,14.4,,,,,,0.0,2026-02-28 09:33:49-08:00
109.06,2.0,9.0,2026-02-28 17:35:34,37.08167,-121.59971,410.0,0.1,157.3,-12.6,0.14,C83,44.8,358.4,17:35:33,10.9,-0.9,33.9,0.0,211.0,0.0,-0.01,1.0,,-36.0,21.0,0.0,29.99,922.0,,,336.0,,,,346.0,0.0,0.0,5.0,3.0,,,,,,,,,,,,,,,,,0.0,14.0,0.0,0.0,30.1,0.0,,0.0,0.0,,,25.3,0.0,0.0,-0.5,2.9,1.8,,,,,15.0,17.0,16.0,17.0,16.0,17.0,16.0,17.0,,,9.0,0.0,,0.0,21.0,4.998,,,0.93,0.835,0.0,14.4,,,,,,0.0,2026-02-28 09:33:49-08:00
110.06,2.0,9.0,2026-02-28 17:35:35,37.08167,-121.59971,411.0,0.0,157.3,-12.6,0.14,C83,44.8,358.4,17:35:34,10.9,-0.8,34.0,0.0,211.0,0.0,-0.01,1.0,,-58.0,21.0,0.0,29.99,922.0,,,336.0,,,,346.0,0.0,0.0,5.0,3.0,,,,,,,,,,,,,,,,,0.0,14.0,0.0,0.0,30.1,0.0,,0.0,0.0,,,25.3,0.0,0.0,-0.5,2.9,1.8,,,,,15.0,17.0,16.0,18.0,16.0,17.0,16.0,18.0,,,10.0,0.0,,0.0,21.0,4.998,,,0.93,0.835,0.0,14.4,,,,,,0.0,2026-02-28 09:33:49-08:00
111.06,2.0,9.0,2026-02-28 17:35:36,37.0817,-121.5997,394.0,0.0,157.3,-12.6,0.14,C83,44.8,358.4,17:35:35,10.9,-0.8,34.0,0.0,211.0,0.1,-0.01,1.0,,-68.0,21.0,0.0,29.99,922.0,,,336.0,,,,346.0,0.0,0.0,5.0,3.0,,,,,,,,,,,,,,,,,0.0,14.0,0.0,0.0,30.1,0.0,,0.0,0.0,,,25.3,0.0,0.0,-0.5,2.9,1.8,,,,,15.0,17.0,16.0,18.0,16.0,17.0,16.0,18.0,,,10.0,0.0,,0.0,21.0,4.998,,,0.93,0.835,0.0,14.4,,,,,,0.0,2026-02-28 09:33:49-08:00
112.06,2.0,9.0,2026-02-28 17:35:37,37.0817,-121.5997,394.0,0.0,157.3,-12.6,0.14,C83,44.8,358.4,17:35:36,10.9,-0.8,34.0,0.0,211.0,0.1,-0.01,1.0,,-78.0,21.0,0.0,29.99,932.0,,,336.0,,,,346.0,0.0,0.0,5.0,3.0,,,,,,,,,,,,,,,,,0.0,14.0,0.0,0.0,30.1,0.0,,0.0,0.0,,,25.3,0.0,0.0,-0.5,2.9,1.8,,,,,15.0,17.0,16.0,18.0,16.0,17.0,16.0,18.0,,,10.0,0.0,,0.0,21.0,4.998,,,0.93,0.835,0.0,14.4,,,,,,0.0,2026-02-28 09:33:49-08:00
113.06,2.0,9.0,2026-02-28 17:35:38,37.0817,-121.59969,395.0,0.0,157.3,-12.6,0.14,C83,44.8,358.4,17:35:37,10.9,-0.8,34.0,0.0,211.0,0.0,-0.01,1.0,,-55.0,21.0,0.0,29.99,932.0,,,336.0,,,,346.0,0.0,0.0,5.0,3.0,,,,,,,,,,,,,,,,,0.0,14.0,0.0,0.0,30.1,0.0,,0.0,0.0,,,25.3,0.0,0.0,-0.5,2.9,1.8,,,,,15.0,17.0,16.0,18.0,16.0,17.0,16.0,18.0,,,10.0,0.0,,0.0,21.0,4.998,,,0.93,0.835,0.0,14.4,,,,,,0.0,2026-02-28 09:33:49-08:00
114.06,2.0,9.0,2026-02-28 17:35:39,37.0817,-121.59969,396.0,0.1,157.3,-12.6,0.14,C83,44.8,358.4,17:35:38,10.9,-0.8,34.0,0.0,211.0,0.0,-0.01,1.0,,-63.0,21.0,0.0,29.99,932.0,,,336.0,,,,346.0,0.0,0.0,5.0,3.0,,,,,,,,,,,,,,,,,0.0,14.0,0.0,0.0,30.1,0.0,,0.0,0.0,,,25.3,0.0,0.0,-0.5,2.9,1.8,,,,,15.0,16.0,16.0,18.0,16.0,17.0,16.0,18.0,,,10.0,0.0,,0.0,21.0,4.998,,,0.93,0.835,0.0,14.4,,,,,,0.0,2026-02-28 09:33:49-08:00
115.06,2.0,9.0,2026-02-28 17:35:40,37.0817,-121.59969,395.0,0.1,157.3,-12.6,0.14,C83,44.8,358.4,17:35:39,10.9,-0.8,34.0,0.0,211.0,0.0,-0.01,1.0,,-69.0,21.0,0.0,29.99,932.0,,,336.0,,,,346.0,0.0,0.0,5.0,3.0,,,,,,,,,,,,,,,,,0.0,14.0,0.0,0.0,30.1,0.0,,0.0,0.0,,,25.3,0.0,0.0,-0.5,2.9,1.8,,,,,15.0,16.0,16.0,18.0,16.0,17.0,16.0,18.0,,,10.0,0.0,,0.0,21.0,4.998,,,0.93,0.835,0.0,14.4,,,,,,0.0,2026-02-28 09:33:49-08:00
116.06,2.0,9.0,2026-02-28 17:35:41,37.0817,-121.59969,395.0,0.0,157.3,-12.6,0.14,C83,44.8,358.4,17:35:40,10.9,-0.8,34.0,0.0,211.0,0.0,-0.01,1.0,,-85.0,21.0,0.0,29.99,932.0,,,336.0,,,,346.0,0.0,0.0,5.0,3.0,,,,,,,,,,,,,,,,,0.0,14.0,0.0,0.0,30.1,0.0,,0.0,0.0,,,25.3,0.0,0.0,-0.5,2.9,1.8,,,,,15.0,16.0,16.0,18.0,16.0,17.0,16.0,18.0,,,10.0,0.0,,0.0,21.0,4.998,,,0.93,0.835,0.0,14.4,,,,,,0.0,2026-02-28 09:33:49-08:00
117.06,2.0,9.0,2026-02-28 17:35:42,37.0817,-121.59969,395.0,0.0,157.3,-12.6,0.14,C83,44.8,358.4,17:35:41,10.9,-0.8,34.0,0.0,211.0,0.0,-0.01,1.0,,-58.0,21.0,0.0,29.99,933.0,,,336.0,,,,346.0,0.0,0.0,5.0,3.0,,,,,,,,,,,,,,,,,0.0,14.0,0.0,0.0,30.1,0.0,,0.0,0.0,,,25.3,0.0,0.0,-0.5,2.9,1.8,,,,,15.0,16.0,16.0,18.0,16.0,17.0,16.0,18.0,,,9.0,0.0,,0.0,21.0,4.998,,,0.93,0.835,0.0,14.4,,,,,,0.0,2026-02-28 09:33:49-08:00
118.06,2.0,9.0,2026-02-28 17:35:43,37.0817,-121.59969,395.0,0.0,157.3,-12.6,0.14,C83,44.8,358.4,17:35:42,10.9,-0.8,34.0,0.0,210.0,0.0,-0.01,1.0,,-49.0,21.0,0.0,29.99,933.0,,,336.0,,,,346.0,0.0,0.0,5.0,3.0,,,,,,,,,,,,,,,,,0.0,14.0,0.0,0.0,30.1,0.0,,0.0,0.0,,,25.3,0.0,0.0,-0.5,2.9,1.8,,,,,15.0,16.0,16.0,18.0,16.0,17.0,16.0,18.0,,,9.0,0.0,,0.0,21.0,4.998,,,0.93,0.835,0.0,14.4,,,,,,0.0,2026-02-28 09:33:49-08:00
119.06,2.0,9.0,2026-02-28 17:35:44,37.0817,-121.59969,395.0,0.1,157.3,-12.6,0.14,C83,44.8,358.4,17:35:43,10.9,-0.9,34.0,0.0,209.0,0.0,-0.01,1.0,,-30.0,21.0,0.0,29.99,933.0,,,336.0,,,,346.0,0.0,0.0,5.0,3.0,,,,,,,,,,,,,,,,,0.0,14.0,0.0,0.0,30.1,0.0,,0.0,0.0,,,25.3,0.0,0.0,-0.5,2.9,1.8,,,,,16.0,16.0,16.0,18.0,16.0,17.0,16.0,18.0,,,9.0,0.0,,0.0,21.0,4.998,,,0.93,0.836,0.0,14.4,,,,,,0.0,2026-02-28 09:33:49-08:00
120.06,2.0,9.0,2026-02-28 17:35:45,37.08171,-121.59969,395.0,0.1,157.3,-12.6,0.14,C83,44.8,358.4,17:35:44,10.9,-0.8,34.0,0.0,209.0,0.0,-0.01,1.0,,5.0,21.0,0.0,29.99,941.0,,,336.0,,,,346.0,0.0,0.0,5.0,3.0,,,,,,,,,,,,,,,,,0.0,14.0,0.0,0.0,30.1,0.0,,0.0,0.0,,,25.3,0.0,0.0,-0.5,2.9,1.8,,,,,16.0,16.0,16.0,18.0,16.0,17.0,16.0,18.0,,,10.0,0.0,,0.0,21.0,4.998,,,0.93,0.835,0.0,14.4,,,,,,0.0,2026-02-28 09:33:49-08:00
121.06,2.0,9.0,2026-02-28 17:35:46,37.0817,-121.59969,396.0,0.1,157.3,-12.6,0.14,C83,44.8,358.4,17:35:45,10.9,-0.8,34.0,0.0,209.0,0.0,-0.01,1.0,,8.0,21.0,0.0,29.99,941.0,,,336.0,,,,346.0,0.0,0.0,5.0,3.0,,,,,,,,,,,,,,,,,0.0,14.0,0.0,0.0,30.1,0.0,,0.0,0.0,,,25.3,0.0,0.0,-0.5,2.9,1.8,,,,,16.0,16.0,16.0,18.0,16.0,17.0,16.0,18.0,,,9.0,0.0,,0.0,21.0,4.998,,,0.93,0.835,0.0,14.4,,,,,,0.0,2026-02-28 09:33:49-08:00
122.06,2.0,9.0,2026-02-28 17:35:47,37.0817,-121.59969,396.0,0.1,157.3,-12.6,0.14,C83,44.8,358.4,17:35:46,10.9,-0.8,34.0,0.0,209.0,0.0,-0.01,1.0,,39.0,21.0,0.0,29.99,941.0,,,336.0,,,,346.0,0.0,0.0,5.0,3.0,,,,,,,,,,,,,,,,,0.0,14.0,0.0,0.0,30.1,0.0,,0.0,0.0,,,25.3,0.0,0.0,-0.5,2.9,1.8,,,,,16.0,16.0,16.0,18.0,16.0,17.0,16.0,18.0,,,10.0,0.0,,0.0,21.0,4.998,,,0.93,0.835,0.0,14.4,,,,,,0.0,2026-02-28 09:33:49-08:00
123.06,2.0,9.0,2026-02-28 17:35:48,37.0817,-121.59969,396.0,0.1,157.3,-12.6,0.14,C83,44.8,358.4,17:35:47,10.9,-0.9,34.0,0.0,209.0,0.0,-0.01,1.0,,-18.0,21.0,0.0,29.99,941.0,,,336.0,,,,346.0,0.0,0.0,5.0,3.0,,,,,,,,,,,,,,,,,0.0,14.0,0.0,0.0,30.1,0.0,,0.0,0.0,,,25.3,0.0,0.0,-0.5,2.9,1.8,,,,,16.0,16.0,16.0,18.0,16.0,17.0,16.0,18.0,,,9.0,0.0,,0.0,21.0,4.998,,,0.93,0.836,0.0,14.4,,,,,,0.0,2026-02-28 09:33:49-08:00
124.06,2.0,9.0,2026-02-28 17:35:49,37.0817,-121.59969,404.0,0.0,157.3,-12.6,0.14,C83,44.8,358.4,17:35:48,10.9,-0.9,34.0,0.0,209.0,0.0,-0.01,1.0,,-30.0,21.0,0.0,29.99,941.0,,,336.0,,,,346.0,0.0,0.0,5.0,3.0,,,,,,,,,,,,,,,,,0.0,14.0,0.0,0.0,30.1,0.0,,0.0,0.0,,,25.3,0.0,0.0,-0.5,2.9,1.8,,,,,15.0,16.0,16.0,18.0,16.0,17.0,16.0,18.0,,,11.0,0.0,,0.0,21.0,4.998,,,0.93,0.836,0.0,14.4,,,,,,0.0,2026-02-28 09:33:49-08:00
125.06,2.0,9.0,2026-02-28 17:35:50,37.0817,-121.59969,403.0,0.1,157.3,-12.6,0.14,C83,44.8,358.4,17:35:49,10.9,-0.9,34.0,0.0,209.0,0.1,-0.01,1.0,,-34.0,21.0,0.0,29.99,941.0,,,336.0,,,,346.0,0.0,0.0,5.0,3.0,,,,,,,,,,,,,,,,,0.0,14.0,0.0,0.0,30.1,0.0,,0.0,0.0,,,25.3,0.0,0.0,-0.5,2.9,1.8,,,,,15.0,17.0,16.0,18.0,16.0,17.0,16.0,18.0,,,12.0,0.0,,0.0,21.0,4.998,,,0.93,0.836,0.0,14.4,,,,,,0.0,2026-02-28 09:33:49-08:00
126.06,2.0,9.0,2026-02-28 17:35:51,37.0817,-121.59969,403.0,0.0,157.3,-12.6,0.14,C83,44.8,358.4,17:35:50,10.9,-0.9,34.0,0.0,209.0,0.1,-0.01,1.0,,-45.0,21.0,0.0,29.99,951.0,,,336.0,,,,346.0,0.0,0.0,5.0,3.0,,,,,,,,,,,,,,,,,0.0,14.0,0.0,0.0,30.1,0.0,,0.0,0.0,,,25.3,0.0,0.0,-0.5,2.9,1.8,,,,,15.0,17.0,16.0,18.0,16.0,17.0,16.0,18.0,,,10.0,0.0,,0.0,21.0,4.998,,,0.93,0.836,0.0,14.4,,,,,,0.0,2026-02-28 09:33:49-08:00
127.06,2.0,9.0,2026-02-28 17:35:52,37.08171,-121.59968,401.0,0.0,157.3,-12.6,0.14,C83,44.8,358.4,17:35:51,10.9,-0.9,34.0,0.0,209.0,0.0,-0.01,1.0,,-13.0,21.0,0.0,29.99,951.0,,,336.0,,,,346.0,0.0,0.0,5.0,3.0,,,,,,,,,,,,,,,,,0.0,14.0,0.0,0.0,30.1,0.0,,0.0,0.0,,,25.3,0.0,0.0,-0.5,2.9,1.8,,,,,15.0,17.0,16.0,17.0,16.0,17.0,16.0,18.0,,,10.0,0.0,,0.0,21.0,4.998,,,0.93,0.836,0.0,14.4,,,,,,0.0,2026-02-28 09:33:49-08:00
128.06,2.0,9.0,2026-02-28 17:35:53,37.08171,-121.59968,401.0,0.0,157.3,-12.6,0.14,C83,44.8,358.4,17:35:52,10.9,-0.9,34.0,0.0,209.0,0.0,-0.01,1.0,,19.0,21.0,0.0,29.99,951.0,,,336.0,,,,346.0,0.0,0.0,5.0,3.0,,,,,,,,,,,,,,,,,0.0,14.0,0.0,0.0,30.1,0.0,,0.0,0.0,,,25.3,0.0,0.0,-0.5,2.9,1.8,,,,,15.0,17.0,16.0,18.0,16.0,17.0,16.0,18.0,,,9.0,0.0,,0.0,21.0,4.998,,,0.93,0.835,0.0,14.4,,,,,,0.0,2026-02-28 09:33:49-08:00
129.06,2.0,9.0,2026-02-28 17:35:54,37.08171,-121.59968,401.0,0.0,157.3,-12.6,0.14,C83,44.8,358.4,17:35:53,10.9,-0.9,33.9,0.0,209.0,0.0,-0.01,1.0,,32.0,21.0,0.0,29.99,951.0,,,336.0,,,,346.0,0.0,0.0,5.0,3.0,,,,,,,,,,,,,,,,,0.0,14.0,0.0,0.0,30.1,0.0,,0.0,0.0,,,25.3,0.0,0.0,-0.5,2.9,1.8,,,,,15.0,17.0,16.0,17.0,16.0,17.0,16.0,18.0,,,11.0,0.0,,0.0,21.0,4.998,,,0.93,0.836,0.0,14.4,,,,,,0.0,2026-02-28 09:33:49-08:00
130.06,2.0,9.0,2026-02-28 17:35:55,37.08171,-121.59968,401.0,0.0,157.3,-12.6,0.14,C83,44.8,358.4,17:35:54,10.9,-0.9,33.9,0.0,209.0,0.1,-0.01,1.0,,56.0,21.0,0.0,29.99,951.0,,,336.0,,,,346.0,0.0,0.0,5.0,3.0,,,,,,,,,,,,,,,,,0.0,14.0,0.0,0.0,30.1,0.0,,0.0,0.0,,,25.3,0.0,0.0,-0.5,2.9,1.8,,,,,15.0,17.0,16.0,17.0,16.0,17.0,16.0,18.0,,,11.0,0.0,,0.0,21.0,4.998,,,0.93,0.836,0.0,14.4,,,,,,0.0,2026-02-28 09:33:49-08:00
131.06,2.0,9.0,2026-02-28 17:35:56,37.08171,-121.59968,400.0,0.0,157.3,-12.6,0.14,C83,44.8,358.4,17:35:55,10.9,-0.9,33.9,0.0,209.0,0.1,-0.01,1.0,,58.0,21.0,0.0,29.99,951.0,,,336.0,,,,346.0,0.0,0.0,5.0,3.0,,,,,,,,,,,,,,,,,0.0,14.0,0.0,0.0,30.1,0.0,,0.0,0.0,,,25.3,0.0,0.0,-0.5,2.9,1.8,,,,,15.0,17.0,16.0,17.0,16.0,17.0,16.0,18.0,,,10.0,0.0,,0.0,21.0,4.998,,,0.93,0.836,0.0,14.4,,,,,,0.0,2026-02-28 09:33:49-08:00
132.06,2.0,9.0,2026-02-28 17:35:57,37.08171,-121.59968,400.0,0.1,157.3,-12.6,0.14,C83,44.8,358.4,17:35:56,10.9,-0.9,33.9,0.0,209.0,0.0,-0.01,1.0,,78.0,21.0,0.0,29.99,952.0,,,336.0,,,,346.0,0.0,0.0,5.0,3.0,,,,,,,,,,,,,,,,,0.0,14.0,0.0,0.0,30.1,0.0,,0.0,0.0,,,25.3,0.0,0.0,-0.5,2.9,1.8,,,,,15.0,17.0,16.0,17.0,16.0,17.0,16.0,18.0,,,13.0,0.0,,0.0,21.0,4.998,,,0.93,0.837,0.0,14.4,,,,,,0.0,2026-02-28 09:33:49-08:00
133.06,2.0,9.0,2026-02-28 17:35:58,37.08171,-121.59968,401.0,0.0,157.3,-12.6,0.14,C83,44.8,358.4,17:35:57,10.9,-0.9,33.8,0.0,209.0,0.0,-0.01,1.0,,88.0,21.0,0.0,29.99,952.0,,,336.0,,,,346.0,0.0,0.0,5.0,3.0,,,,,,,,,,,,,,,,,0.0,14.0,0.0,0.0,30.1,0.0,,0.0,0.0,,,25.3,0.0,0.0,-0.5,2.9,1.8,,,,,15.0,17.0,16.0,18.0,16.0,17.0,16.0,18.0,,,14.0,0.0,,0.0,21.0,4.998,,,0.93,0.837,0.0,14.4,,,,,,0.0,2026-02-28 09:33:49-08:00
134.06,2.0,9.0,2026-02-28 17:35:59,37.08171,-121.59968,400.0,0.0,157.3,-12.6,0.14,C83,44.8,358.4,17:35:58,10.9,-0.9,33.8,0.0,209.0,0.0,-0.01,1.0,,78.0,21.0,0.0,29.99,952.0,,,336.0,,,,346.0,0.0,0.0,5.0,3.0,,,,,,,,,,,,,,,,,0.0,14.0,0.0,0.0,30.1,0.0,,0.0,0.0,,,25.3,0.0,0.0,-0.5,2.9,1.8,,,,,15.0,17.0,16.0,18.0,16.0,17.0,16.0,18.0,,,14.0,0.0,,0.0,21.0,4.998,,,0.93,0.837,0.0,14.4,,,,,,0.0,2026-02-28 09:33:49-08:00
135.06,2.0,9.0,2026-02-28 17:36:00,37.08171,-121.59968,400.0,0.0,157.3,-12.6,0.14,C83,44.8,358.4,17:35:59,10.9,-0.9,33.8,0.0,211.0,0.0,-0.01,1.0,,74.0,21.0,0.0,29.99,954.0,,,336.0,,,,346.0,0.0,0.0,5.0,3.0,,,,,,,,,,,,,,,,,0.0,14.0,0.0,0.0,30.1,0.0,,0.0,0.0,,,25.3,0.0,0.0,-0.5,2.9,1.8,,,,,15.0,17.0,16.0,18.0,16.0,17.0,16.0,18.0,,,13.0,0.0,,0.0,21.0,4.998,,,0.93,0.839,0.0,14.4,,,,,,0.0,2026-02-28 09:33:49-08:00
136.06,2.0,9.0,2026-02-28 17:36:01,37.08171,-121.59968,400.0,0.1,157.3,-12.6,0.14,C83,44.8,358.4,17:36:00,10.9,-0.9,33.8,0.0,212.0,0.0,-0.01,1.0,,52.0,21.0,0.0,29.99,955.0,,,336.0,,,,346.0,0.0,0.0,5.0,3.0,,,,,,,,,,,,,,,,,0.0,14.0,0.0,0.0,30.1,0.0,,0.0,0.0,,,25.3,0.0,0.0,-0.5,2.9,1.8,,,,,15.0,17.0,16.0,18.0,16.0,17.0,16.0,18.0,,,13.0,0.0,,0.0,21.0,4.998,,,0.93,0.837,0.0,14.4,,,,,,0.0,2026-02-28 09:33:49-08:00
137.06,2.0,9.0,2026-02-28 17:36:02,37.08171,-121.59968,400.0,0.1,157.3,-12.6,0.14,C83,44.8,358.4,17:36:01,10.9,-0.8,33.8,0.0,213.0,0.0,-0.01,1.0,,70.0,21.0,0.0,29.99,957.0,,,336.0,,,,346.0,0.0,0.0,5.0,3.0,,,,,,,,,,,,,,,,,0.0,14.0,0.0,0.0,30.1,0.0,,0.0,0.0,,,25.3,0.0,0.0,-0.5,2.9,1.8,,,,,15.0,17.0,16.0,18.0,16.0,17.0,16.0,18.0,,,13.0,0.0,,0.0,21.0,4.998,,,0.93,0.837,0.0,14.4,,,,,,0.0,2026-02-28 09:33:49-08:00
138.06,2.0,9.0,2026-02-28 17:36:03,37.08171,-121.59968,401.0,0.1,157.3,-12.6,0.14,C83,44.8,358.4,17:36:02,10.9,-0.8,33.8,0.0,214.0,0.0,-0.01,1.0,,50.0,21.0,0.0,29.99,958.0,,,336.0,,,,346.0,0.0,0.0,5.0,3.0,,,,,,,,,,,,,,,,,0.0,14.0,0.0,0.0,30.1,0.0,,0.0,0.0,,,25.3,0.0,0.0,-0.5,2.9,1.8,,,,,15.0,17.0,16.0,18.0,16.0,17.0,16.0,18.0,,,14.0,0.0,,0.0,21.0,4.998,,,0.93,0.837,0.0,14.4,,,,,,0.0,2026-02-28 09:33:49-08:00
139.06,2.0,9.0,2026-02-28 17:36:04,37.08171,-121.59968,400.0,0.0,157.3,-12.6,0.14,C83,44.8,358.4,17:36:03,11.0,-0.9,33.9,0.0,215.0,0.0,-0.01,1.0,,62.0,21.0,0.0,29.99,959.0,,,336.0,,,,346.0,0.0,0.0,5.0,3.0,,,,,,,,,,,,,,,,,0.0,14.0,0.0,0.0,30.1,0.0,,0.0,0.0,,,25.3,0.0,0.0,-0.5,2.9,1.8,,,,,15.0,17.0,16.0,18.0,16.0,17.0,16.0,18.0,,,13.0,0.0,,0.0,21.0,4.998,,,0.93,0.837,0.0,14.4,,,,,,0.0,2026-02-28 09:33:49-08:00
140.06,2.0,9.0,2026-02-28 17:36:05,37.08171,-121.59968,400.0,0.1,157.3,-12.6,0.14,C83,44.8,358.4,17:36:04,11.0,-0.8,33.9,0.0,215.0,0.0,-0.01,1.0,,13.0,21.0,0.0,29.99,959.0,,,336.0,,,,346.0,0.0,0.0,5.0,3.0,,,,,,,,,,,,,,,,,0.0,14.0,0.0,0.0,30.1,0.0,,0.0,0.0,,,25.3,0.0,0.0,-0.5,2.9,1.8,,,,,15.0,17.0,16.0,18.0,16.0,17.0,16.0,18.0,,,12.0,0.0,,0.0,21.0,4.998,,,0.93,0.837,0.0,14.4,,,,,,0.0,2026-02-28 09:33:49-08:00
141.06,2.0,9.0,2026-02-28 17:36:06,37.08171,-121.59968,400.0,0.1,157.3,-12.6,0.14,C83,44.8,358.4,17:36:05,11.0,-0.8,33.9,0.0,215.0,0.0,-0.01,1.0,,-17.0,21.0,0.0,29.99,970.0,,,336.0,,,,346.0,0.0,0.0,5.0,3.0,,,,,,,,,,,,,,,,,0.0,14.0,0.0,0.0,30.1,0.0,,0.0,0.0,,,25.3,0.0,0.0,-0.5,2.9,1.8,,,,,16.0,17.0,16.0,18.0,16.0,17.0,16.0,18.0,,,15.0,0.0,,0.0,22.0,4.998,,,0.93,0.839,0.0,14.4,,,,,,0.0,2026-02-28 09:33:49-08:00
142.06,2.0,9.0,2026-02-28 17:36:07,37.08171,-121.59968,400.0,0.1,157.3,-12.6,0.14,C83,44.8,358.4,17:36:06,10.9,-0.8,34.0,0.0,215.0,0.0,-0.01,1.0,,1.0,21.0,0.0,29.99,970.0,,,336.0,,,,346.0,0.0,0.0,5.0,3.0,,,,,,,,,,,,,,,,,0.0,14.0,0.0,0.0,30.1,0.0,,0.0,0.0,,,25.3,0.0,0.0,-0.5,2.9,1.8,,,,,16.0,17.0,16.0,18.0,16.0,17.0,16.0,18.0,,,15.0,0.0,,0.0,21.0,4.998,,,0.93,0.839,0.0,14.4,,,,,,0.0,2026-02-28 09:33:49-08:00
143.06,2.0,9.0,2026-02-28 17:36:08,37.08171,-121.59968,400.0,0.1,157.3,-12.6,0.14,C83,44.8,358.4,17:36:07,10.9,-0.8,34.0,0.0,215.0,0.1,-0.01,1.0,,-5.0,21.0,0.0,29.99,970.0,,,336.0,,,,346.0,0.0,0.0,5.0,3.0,,,,,,,,,,,,,,,,,0.0,14.0,0.0,0.0,30.1,0.0,,0.0,0.0,,,25.3,0.0,0.0,-0.5,2.9,1.8,,,,,15.0,17.0,16.0,18.0,16.0,17.0,16.0,18.0,,,13.0,0.0,,0.0,22.0,4.998,,,0.93,0.839,0.0,14.4,,,,,,0.0,2026-02-28 09:33:49-08:00
144.06,2.0,9.0,2026-02-28 17:36:09,37.08171,-121.59968,400.0,0.0,157.3,-12.6,0.14,C83,44.8,358.4,17:36:08,10.9,-0.8,34.0,0.0,215.0,0.0,-0.01,1.0,,-15.0,21.0,0.0,29.99,979.0,,,336.0,,,,346.0,0.0,0.0,5.0,3.0,,,,,,,,,,,,,,,,,0.0,14.0,0.0,0.0,30.1,0.0,,0.0,0.0,,,25.3,0.0,0.0,-0.5,2.9,1.8,,,,,15.0,17.0,16.0,18.0,16.0,17.0,16.0,18.0,,,11.0,0.0,,0.0,21.0,4.998,,,0.93,0.839,0.0,14.4,,,,,,0.0,2026-02-28 09:33:49-08:00
145.06,2.0,9.0,2026-02-28 17:36:10,37.08171,-121.59968,400.0,0.1,157.3,-12.6,0.14,C83,44.8,358.4,17:36:09,10.9,-0.8,34.0,0.0,215.0,0.0,-0.01,1.0,,-5.0,21.0,0.0,29.99,979.0,,,336.0,,,,346.0,0.0,0.0,5.0,3.0,,,,,,,,,,,,,,,,,0.0,14.0,0.0,0.0,30.1,0.0,,0.0,0.0,,,25.3,0.0,0.0,-0.5,2.9,1.8,,,,,15.0,17.0,16.0,18.0,16.0,17.0,16.0,18.0,,,11.0,0.0,,0.0,22.0,4.998,,,0.93,0.839,0.0,14.4,,,,,,0.0,2026-02-28 09:33:49-08:00
146.06,2.0,9.0,2026-02-28 17:36:11,37.08171,-121.59968,400.0,0.0,157.3,-12.6,0.14,C83,44.8,358.4,17:36:10,10.9,-0.8,34.0,0.0,215.0,0.0,-0.01,1.0,,-18.0,21.0,0.0,29.99,979.0,,,336.0,,,,346.0,0.0,0.0,5.0,3.0,,,,,,,,,,,,,,,,,0.0,14.0,0.0,0.0,30.1,0.0,,0.0,0.0,,,25.3,0.0,0.0,-0.5,2.9,1.8,,,,,15.0,17.0,16.0,18.0,16.0,17.0,16.0,18.0,,,9.0,0.0,,0.0,22.0,4.998,,,0.93,0.839,0.0,14.4,,,,,,0.0,2026-02-28 09:33:49-08:00
147.06,2.0,9.0,2026-02-28 17:36:12,37.08171,-121.59968,400.0,0.0,157.3,-12.6,0.14,C83,44.8,358.4,17:36:11,10.9,-0.8,34.0,0.0,215.0,0.0,-0.01,1.0,,-34.0,21.0,0.0,29.99,979.0,,,336.0,,,,346.0,0.0,0.0,5.0,3.0,,,,,,,,,,,,,,,,,0.0,14.0,0.0,0.0,30.1,0.0,,0.0,0.0,,,25.3,0.0,0.0,-0.6,2.9,1.8,,,,,15.0,17.0,16.0,18.0,16.0,17.0,16.0,18.0,,,8.0,0.0,,0.0,22.0,4.998,,,0.93,0.839,0.0,14.4,,,,,,0.0,2026-02-28 09:33:49-08:00
