Session Time,GPS Fix Quality,Number of Satellites,GPS Date & Time,Latitude (deg),Longitude (deg),GPS Altitude (feet),Ground Speed (knots),Ground Track (deg),Mag Var (deg),Cross Track Error (NM),Destination Waypoint ID,Range to Destination (NM),Bearing to Destination (deg),System Time,Pitch (deg),Roll (deg),Magnetic Heading (deg),Indicated Airspeed (knots),Pressure Altitude (ft),Turn Rate (deg/s),Lateral Accel (g),Vertical Accel(g),Angle of Attack (%),Vertical Speed (ft/min),OAT (deg C),True Airspeed (knots),Barometer Setting (inHg),Density Altitude (ft),Wind Direction (deg),Wind Speed (knots),Heading Bug (deg),Altitude Bug (ft),Airspeed Bug (knots),Vertical Speed Bug (ft/min),Course (deg),CDI Source Type,CDI Source Port,CDI Scale (NM),CDI Deflection (%),Glideslope (%),AP Engaged,AP Roll Mode,AP Roll Force,AP Roll Position (steps),AP Roll Slip (bool),AP Pitch Force,AP Pitch Position (steps),AP Pitch Slip (bool),AP Yaw Force,AP Yaw Position,AP Yaw Slip (bool),Transponder Status,Transponder Reply (bool),Transponder Identing (bool),Transponder Code (octal),Oil Pressure (PSI),Oil Temp (deg C),RPM L,RPM R,Manifold Pressure (inHg),Fuel Flow 1 (gal/hr),Fuel Flow 2 (gal/hr),Total Fuel Flow (gal/hr),Fuel Pressure (PSI),Fuel Level L (gal),Fuel Level R (gal),Fuel Remaining (gal),Volts 1,Volts 2,Amps,Hobbs Time,Tach Time,Thermocouple 1 (deg C),Thermocouple 2 (deg C),Thermocouple 3 (deg C),Thermocouple 4 (deg C),CHT 4 (deg C),EGT 4 (deg C),CHT 3 (deg C),EGT 3 (deg C),CHT 2 (deg C),EGT 2 (deg C),CHT 1 (deg C),EGT 1 (deg C),Thermocouple 13 (deg C),Thermocouple 14 (deg C),ELEV POSITION (%),CO PPM PRESSURE (PSI),GP Input 3,FUEL PRESSURE (PSI),AILERN POSITION (%),CANOPY CONTACT (V),GP Input 7,GP Input 8,LEFT LEVEL (Sensor V),RIGHT LEVEL (Sensor V),OIL PRESSURE (PSI),OIL TEMPERATURE (deg C),GP Input 13,Contacts,Percent Power,EGT Leaning State,Unnamed: 103,RPM,Flight ID
3.06,1.0,10.0,2026-03-18 23:39:18,36.88887,-121.40333,311.0,0.0,329.7,-12.5,,,,,23:39:18,11.2,-0.6,114.5,0.0,167.0,-0.0,-0.01,1.0,,-15.0,40.0,0.0,30.0,3230.0,,,305.0,,125.0,-700.0,,0.0,0.0,,,,,,,,,,,,,,,,,,,,,0.0,0.0,,0.4,,0.4,,,,14.7,0.0,0.0,-0.4,7.3,5.6,,,,,131.0,95.0,136.0,104.0,135.0,101.0,131.0,101.0,,,11.0,253.9,,8.2,35.0,4.993,,,0.653,0.731,0.0,93.9,,,,,,0.0,2026-03-18 16:39:18-07:00
4.06,1.0,10.0,2026-03-18 23:39:19,36.88889,-121.40333,261.0,0.0,329.7,-12.5,,,,,23:39:19,11.1,-0.6,114.4,0.0,167.0,-0.0,-0.01,1.0,,16.0,40.0,0.0,30.0,3236.0,,,305.0,,125.0,-700.0,,0.0,0.0,,,,,,,,,,,,,,,,,,,,,0.0,0.0,,0.3,,0.3,,,,14.7,0.0,0.0,-0.4,7.3,5.6,,,,,131.0,94.0,136.0,104.0,135.0,100.0,131.0,100.0,,,11.0,253.9,,8.2,35.0,4.993,,,0.653,0.731,0.0,93.9,,,,,,0.0,2026-03-18 16:39:18-07:00
5.06,1.0,10.0,2026-03-18 23:39:20,36.88888,-121.40333,261.0,0.0,329.7,-12.5,,,,,23:39:20,11.1,-0.6,114.5,0.0,167.0,-0.0,-0.01,1.0,99.0,-19.0,40.0,0.0,30.0,3236.0,,,305.0,,,,,0.0,0.0,,,,,,,,,,,,,,,,,,,0.0,94.0,0.0,0.0,30.2,0.3,,0.3,8.2,,,14.7,0.0,0.0,-0.4,7.3,5.6,,,,,131.0,94.0,136.0,104.0,135.0,100.0,131.0,100.0,,,11.0,253.9,,8.2,35.0,4.993,,,0.653,0.731,0.0,93.9,,,,,,0.0,2026-03-18 16:39:18-07:00
6.06,1.0,10.0,2026-03-18 23:39:21,36.88888,-121.40333,262.0,0.1,329.7,-12.5,,,,,23:39:21,11.2,-0.6,114.4,0.0,167.0,-0.1,-0.01,1.0,99.0,-6.0,41.0,0.0,30.0,3236.0,,,305.0,,,,,0.0,0.0,,,,,,,,,,,,,,,,,,,0.0,94.0,0.0,0.0,30.2,0.4,,0.4,8.2,,,14.7,0.0,0.0,-0.4,7.3,5.6,,,,,131.0,94.0,136.0,104.0,135.0,100.0,131.0,100.0,,,11.0,253.9,,8.2,35.0,4.993,,,0.653,0.731,0.0,93.9,,,,,,0.0,2026-03-18 16:39:18-07:00
7.06,1.0,10.0,2026-03-18 23:39:22,36.88888,-121.40333,262.0,0.0,329.7,-12.5,,,,,23:39:22,11.2,-0.6,114.5,0.0,167.0,-0.1,-0.01,1.0,99.0,-13.0,41.0,0.0,30.0,3239.0,,,305.0,,,,,0.0,0.0,,,,,,,,,,,,,,,,,,,0.0,94.0,0.0,0.0,30.2,0.4,,0.4,8.2,,,14.7,0.0,0.0,-0.4,7.3,5.6,,,,,131.0,94.0,136.0,104.0,135.0,100.0,131.0,100.0,,,11.0,253.9,,8.2,35.0,4.993,,,0.653,0.731,0.0,93.9,,,,,,0.0,2026-03-18 16:39:18-07:00
8.06,1.0,10.0,2026-03-18 23:39:23,36.88888,-121.40333,263.0,0.0,329.7,-12.5,,,,,23:39:23,11.2,-0.6,114.4,0.0,166.0,-0.0,-0.01,1.0,99.0,-18.0,41.0,0.0,30.0,3235.0,,,305.0,,,,,0.0,0.0,,,,,,,,,,,,,,,,,,,0.0,94.0,0.0,0.0,30.2,0.3,,0.3,8.2,,,14.7,0.0,0.0,-0.4,7.3,5.6,,,,,131.0,94.0,136.0,104.0,135.0,100.0,131.0,100.0,,,11.0,253.9,,8.2,35.0,4.993,,,0.653,0.731,0.0,93.9,,,,,,0.0,2026-03-18 16:39:18-07:00
9.06,1.0,10.0,2026-03-18 23:39:24,36.88888,-121.40333,263.0,0.0,329.7,-12.5,,,,,23:39:24,11.2,-0.6,114.4,0.0,165.0,-0.0,-0.01,1.0,99.0,-15.0,41.0,0.0,30.0,3235.0,,,305.0,,,,,0.0,0.0,,,,,,,,,,,,,,,,,,,0.0,94.0,0.0,0.0,30.2,0.3,,0.3,8.2,,,14.7,0.0,0.0,-0.5,7.3,5.6,,,,,131.0,94.0,136.0,104.0,135.0,100.0,131.0,100.0,,,11.0,253.9,,8.2,35.0,4.993,,,0.653,0.731,0.0,93.9,,,,,,0.0,2026-03-18 16:39:18-07:00
10.06,1.0,10.0,2026-03-18 23:39:25,36.88888,-121.40332,263.0,0.0,329.7,-12.5,,,,,23:39:25,11.2,-0.7,114.4,0.0,164.0,-0.1,-0.01,1.0,99.0,-51.0,41.0,0.0,30.0,3234.0,,,305.0,,,,,0.0,0.0,,,,,,,,,,,,,,,,,,,0.0,94.0,0.0,0.0,30.2,0.3,,0.3,8.2,,,14.7,0.0,0.0,-0.5,7.3,5.6,,,,,131.0,94.0,136.0,104.0,135.0,100.0,131.0,100.0,,,11.0,253.9,,8.2,35.0,4.993,,,0.653,0.731,0.0,93.9,,,,,,0.0,2026-03-18 16:39:18-07:00
11.06,1.0,10.0,2026-03-18 23:39:26,36.88888,-121.40332,264.0,0.0,329.7,-12.5,,,,,23:39:26,11.2,-0.7,114.4,0.0,163.0,-0.1,-0.01,1.0,99.0,-45.0,41.0,0.0,30.0,3234.0,,,305.0,,,,,0.0,0.0,,,,,,,,,,,,,,,,,,,0.0,94.0,0.0,0.0,30.2,0.3,,0.3,8.2,,,14.7,0.0,0.0,-0.5,7.3,5.6,,,,,131.0,94.0,136.0,104.0,134.0,100.0,131.0,100.0,,,11.0,253.8,,8.2,35.0,4.993,,,0.653,0.731,0.0,93.9,,,,,,0.0,2026-03-18 16:39:18-07:00
12.06,1.0,10.0,2026-03-18 23:39:27,36.88888,-121.40332,264.0,0.0,329.7,-12.5,,,,,23:39:27,11.2,-0.6,114.4,0.0,162.0,-0.1,-0.01,1.0,99.0,-75.0,41.0,0.0,30.0,3234.0,,,305.0,,,,,0.0,0.0,,,,,,,,,,,,,,,,,,,0.0,94.0,0.0,0.0,30.2,0.3,,0.3,8.2,,,14.7,0.0,0.0,-0.5,7.3,5.6,,,,,131.0,94.0,136.0,104.0,134.0,100.0,131.0,100.0,,,11.0,253.8,,8.2,35.0,4.993,,,0.653,0.731,0.0,93.9,,,,,,0.0,2026-03-18 16:39:18-07:00
13.06,1.0,10.0,2026-03-18 23:39:28,36.88888,-121.40332,264.0,0.0,329.7,-12.5,,,,,23:39:28,11.2,-0.6,114.3,0.0,162.0,-0.1,-0.01,1.0,99.0,-36.0,41.0,0.0,30.0,3233.0,,,305.0,,,,,0.0,0.0,,,,,,,,,,,,,,,,,,,0.0,94.0,0.0,0.0,30.2,0.3,,0.3,8.2,,,14.7,0.0,0.0,-0.5,7.3,5.6,,,,,131.0,94.0,136.0,104.0,134.0,100.0,131.0,100.0,,,11.0,253.8,,8.2,35.0,4.993,,,0.653,0.731,0.0,93.9,,,,,,0.0,2026-03-18 16:39:18-07:00
14.06,1.0,10.0,2026-03-18 23:39:29,36.88888,-121.40332,263.0,0.0,329.7,-12.5,,,,,23:39:29,11.2,-0.6,114.4,0.0,160.0,-0.0,-0.01,1.0,99.0,-79.0,41.0,0.0,30.0,3230.0,,,305.0,,,,,0.0,0.0,,,,,,,,,,,,,,,,,,,0.0,94.0,0.0,0.0,30.2,0.2,,0.2,8.2,,,14.7,0.0,0.0,-0.5,7.3,5.6,,,,,131.0,94.0,136.0,104.0,134.0,100.0,131.0,100.0,,,11.0,253.8,,8.2,35.0,4.993,,,0.653,0.731,0.0,93.9,,,,,,0.0,2026-03-18 16:39:18-07:00
15.06,1.0,10.0,2026-03-18 23:39:30,36.88888,-121.40332,263.0,0.0,329.7,-12.5,,,,,23:39:30,11.2,-0.6,114.4,0.0,157.0,-0.0,-0.01,1.0,99.0,-127.0,41.0,0.0,30.0,3230.0,,,305.0,,,,,0.0,0.0,,,,,,,,,,,,,,,,,,,0.0,94.0,0.0,0.0,30.2,0.2,,0.2,8.2,,,14.7,0.0,0.0,-0.5,7.3,5.6,,,,,131.0,94.0,136.0,104.0,134.0,100.0,131.0,100.0,,,11.0,253.8,,8.2,35.0,4.993,,,0.653,0.731,0.0,93.8,,,,,,0.0,2026-03-18 16:39:18-07:00
16.06,1.0,10.0,2026-03-18 23:39:31,36.88888,-121.40332,263.0,0.0,329.7,-12.5,,,,,23:39:31,11.2,-0.7,114.5,0.0,154.0,-0.0,-0.01,1.0,99.0,-144.0,41.0,0.0,30.0,3230.0,,,305.0,,,,,0.0,0.0,,,,,,,,,,,,,,,,,,,0.0,94.0,0.0,0.0,30.2,0.2,,0.2,8.2,,,14.7,0.0,0.0,-0.5,7.3,5.6,,,,,131.0,94.0,136.0,104.0,134.0,99.0,131.0,100.0,,,11.0,253.8,,8.2,35.0,4.993,,,0.653,0.731,0.0,93.8,,,,,,0.0,2026-03-18 16:39:18-07:00
17.06,1.0,10.0,2026-03-18 23:39:32,36.88888,-121.40332,263.0,0.0,329.7,-12.5,,,,,23:39:32,11.2,-0.7,114.4,0.0,153.0,-0.0,-0.01,1.0,99.0,-116.0,41.0,0.0,30.0,3221.0,,,305.0,,,,,0.0,0.0,,,,,,,,,,,,,,,,,,,0.0,94.0,0.0,0.0,30.2,0.2,,0.2,8.2,,,14.7,0.0,0.0,-0.5,7.3,5.6,,,,,131.0,94.0,136.0,104.0,134.0,99.0,131.0,100.0,,,11.0,253.8,,8.2,35.0,4.993,,,0.653,0.731,0.0,93.8,,,,,,0.0,2026-03-18 16:39:18-07:00
18.06,1.0,10.0,2026-03-18 23:39:33,36.88888,-121.40332,263.0,0.0,329.7,-12.5,,,,,23:39:33,11.2,-0.6,114.4,0.0,151.0,-0.0,-0.01,1.0,99.0,-138.0,40.0,0.0,30.0,3217.0,,,305.0,,,,,0.0,0.0,,,,,,,,,,,,,,,,,,,0.0,94.0,0.0,0.0,30.2,0.2,,0.2,8.2,,,14.7,0.0,0.0,-0.5,7.3,5.6,,,,,131.0,94.0,135.0,104.0,134.0,99.0,131.0,100.0,,,11.0,253.8,,8.2,35.0,4.993,,,0.653,0.731,0.0,93.8,,,,,,0.0,2026-03-18 16:39:18-07:00
19.06,1.0,10.0,2026-03-18 23:39:34,36.88888,-121.40332,263.0,0.0,329.7,-12.5,,,,,23:39:34,11.2,-0.6,114.4,0.0,148.0,-0.0,-0.01,1.0,99.0,-128.0,41.0,0.0,30.0,3217.0,,,305.0,,,,,0.0,0.0,,,,,,,,,,,,,,,,,,,0.0,94.0,0.0,0.0,30.2,0.4,,0.4,8.4,,,14.7,0.0,0.0,-0.4,7.3,5.6,,,,,131.0,94.0,135.0,104.0,134.0,99.0,131.0,100.0,,,11.0,253.8,,8.4,35.0,4.993,,,0.653,0.731,0.0,93.8,,,,,,0.0,2026-03-18 16:39:18-07:00
20.06,1.0,10.0,2026-03-18 23:39:35,36.88888,-121.40332,263.0,0.2,329.7,-12.5,,,,,23:39:35,11.2,-0.7,114.4,0.0,148.0,-0.0,-0.01,1.0,99.0,-91.0,41.0,0.0,30.0,3217.0,,,305.0,,,,,0.0,0.0,,,,,,,,,,,,,,,,,,,0.0,94.0,0.0,0.0,30.2,0.8,,0.8,9.2,,,14.7,0.0,0.0,-0.4,7.3,5.6,,,,,131.0,94.0,135.0,104.0,134.0,99.0,131.0,100.0,,,11.0,253.8,,9.2,35.0,4.993,,,0.653,0.731,0.0,93.8,,,,,,0.0,2026-03-18 16:39:18-07:00
21.06,1.0,10.0,2026-03-18 23:39:36,36.88888,-121.40332,263.0,0.0,329.7,-12.5,,,,,23:39:36,11.2,-0.6,114.4,0.0,147.0,-0.0,-0.01,1.0,99.0,-92.0,41.0,0.0,30.0,3212.0,,,305.0,,,,,0.0,0.0,,,,,,,,,,,,,,,,,,,0.0,94.0,0.0,0.0,30.2,1.4,,1.4,8.8,,,14.7,0.0,0.0,-0.4,7.3,5.6,,,,,131.0,93.0,135.0,104.0,134.0,99.0,131.0,100.0,,,11.0,253.8,,8.8,35.0,4.993,,,0.653,0.731,0.0,93.9,,,,,,0.0,2026-03-18 16:39:18-07:00
22.06,1.0,10.0,2026-03-18 23:39:37,36.88888,-121.40332,263.0,0.0,329.7,-12.5,,,,,23:39:37,11.2,-0.6,114.3,0.0,147.0,-0.0,-0.01,1.0,99.0,-72.0,41.0,0.0,30.0,3212.0,,,305.0,,,,,0.0,0.0,,,,,,,,,,,,,,,,,,,0.0,94.0,0.0,0.0,30.2,1.6,,1.6,8.9,,,14.6,0.0,0.0,-0.4,7.3,5.6,,,,,131.0,93.0,135.0,104.0,134.0,99.0,131.0,99.0,,,11.0,253.8,,8.9,35.0,4.993,,,0.653,0.731,0.0,93.8,,,,,,0.0,2026-03-18 16:39:18-07:00
23.06,1.0,10.0,2026-03-18 23:39:38,36.88888,-121.40332,264.0,0.0,329.7,-12.5,,,,,23:39:38,11.2,-0.6,114.3,0.0,146.0,-0.1,-0.01,1.0,99.0,-60.0,41.0,0.0,30.0,3212.0,,,305.0,,,,,0.0,0.0,,,,,,,,,,,,,,,,,,,0.0,94.0,0.0,0.0,30.2,1.7,,1.7,8.8,,,14.6,0.0,0.0,-0.5,7.3,5.6,,,,,130.0,93.0,135.0,104.0,134.0,99.0,131.0,99.0,,,11.0,253.8,,8.8,35.0,4.993,,,0.653,0.731,0.0,93.8,,,,,,0.0,2026-03-18 16:39:18-07:00
24.06,1.0,10.0,2026-03-18 23:39:39,36.88888,-121.40332,264.0,0.0,329.7,-12.5,,,,,23:39:39,11.2,-0.7,114.3,0.0,145.0,-0.1,-0.01,1.0,99.0,-47.0,41.0,0.0,30.0,3214.0,,,305.0,,,,,0.0,0.0,,,,,,,,,,,,,,,,,,,0.0,94.0,0.0,0.0,30.2,1.9,,1.9,8.8,,,14.6,0.0,0.0,-0.5,7.3,5.6,,,,,131.0,93.0,135.0,103.0,134.0,99.0,131.0,99.0,,,11.0,253.8,,8.8,35.0,4.993,,,0.653,0.731,0.0,93.8,,,,,,0.0,2026-03-18 16:39:18-07:00
25.06,1.0,10.0,2026-03-18 23:39:40,36.88888,-121.40332,264.0,0.0,329.7,-12.5,,,,,23:39:40,11.2,-0.7,114.3,0.0,145.0,-0.1,-0.01,1.0,99.0,-12.0,41.0,0.0,30.0,3209.0,,,305.0,,,,,0.0,0.0,,,,,,,,,,,,,,,,,,,0.0,94.0,0.0,0.0,30.2,2.1,,2.1,7.2,,,14.6,0.0,0.0,-0.5,7.3,5.6,,,,,130.0,93.0,135.0,103.0,134.0,99.0,131.0,99.0,,,11.0,253.8,,7.2,35.0,4.993,,,0.653,0.731,0.0,93.8,,,,,,0.0,2026-03-18 16:39:18-07:00
26.06,1.0,10.0,2026-03-18 23:39:41,36.88888,-121.40332,264.0,0.0,329.7,-12.5,,,,,23:39:41,11.2,-0.7,114.4,0.0,145.0,-0.1,-0.01,1.0,99.0,2.0,41.0,0.0,30.0,3209.0,,,305.0,,,,,0.0,0.0,,,,,,,,,,,,,,,,,,,0.0,94.0,0.0,0.0,30.2,2.3,,2.3,8.8,,,14.6,0.0,0.0,-0.4,7.3,5.6,,,,,131.0,93.0,135.0,103.0,134.0,99.0,131.0,99.0,,,11.0,253.8,,8.8,35.0,4.993,,,0.653,0.731,0.0,93.8,,,,,,0.0,2026-03-18 16:39:18-07:00
27.06,1.0,10.0,2026-03-18 23:39:42,36.88888,-121.40332,264.0,0.0,329.7,-12.5,,,,,23:39:42,11.2,-0.7,114.4,0.0,145.0,-0.0,-0.01,1.0,99.0,-30.0,41.0,0.0,30.0,3209.0,,,305.0,,,,,0.0,0.0,,,,,,,,,,,,,,,,,,,0.0,94.0,0.0,0.0,30.2,2.3,,2.3,11.6,,,14.6,0.0,0.0,-0.4,7.3,5.6,,,,,130.0,93.0,135.0,103.0,134.0,99.0,131.0,99.0,,,11.0,253.8,,11.6,35.0,4.994,,,0.653,0.731,0.0,93.8,,,,,,0.0,2026-03-18 16:39:18-07:00
28.06,1.0,10.0,2026-03-18 23:39:43,36.88888,-121.40332,264.0,0.0,329.7,-12.5,,,,,23:39:43,11.2,-0.7,114.4,0.0,145.0,-0.0,-0.01,1.0,99.0,-21.0,41.0,0.0,30.0,3213.0,,,305.0,,,,,0.0,0.0,,,,,,,,,,,,,,,,,,,0.0,94.0,0.0,0.0,30.2,2.4,,2.4,11.4,,,14.6,0.0,0.0,-0.5,7.3,5.6,,,,,130.0,93.0,135.0,103.0,134.0,99.0,131.0,99.0,,,11.0,253.8,,11.4,35.0,4.993,,,0.653,0.731,0.0,93.8,,,,,,0.0,2026-03-18 16:39:18-07:00
29.06,1.0,10.0,2026-03-18 23:39:44,36.88888,-121.40332,264.0,0.0,329.7,-12.5,,,,,23:39:44,11.2,-0.7,114.4,0.0,144.0,-0.1,-0.01,1.0,99.0,-41.0,41.0,0.0,30.0,3209.0,,,305.0,,,,,0.0,0.0,,,,,,,,,,,,,,,,,,,0.0,94.0,0.0,0.0,30.2,2.5,,2.5,11.3,,,14.6,0.0,0.0,-0.5,7.3,5.6,,,,,130.0,93.0,135.0,103.0,134.0,99.0,131.0,99.0,,,11.0,253.8,,11.3,35.0,4.993,,,0.653,0.731,0.0,93.8,,,,,,0.0,2026-03-18 16:39:18-07:00
30.06,1.0,10.0,2026-03-18 23:39:45,36.88888,-121.40331,264.0,0.0,329.7,-12.5,,,,,23:39:45,11.3,-0.7,114.4,0.0,144.0,-0.0,-0.01,1.0,99.0,-60.0,41.0,0.0,30.0,3207.0,,,305.0,,,,,0.0,0.0,,,,,,,,,,,,,,,,,,,0.0,94.0,0.0,0.0,30.2,2.3,,2.3,11.3,,,14.6,0.0,0.0,-0.5,7.3,5.6,,,,,130.0,93.0,135.0,103.0,134.0,99.0,131.0,99.0,,,11.0,253.8,,11.3,35.0,4.993,,,0.653,0.731,0.0,93.8,,,,,,0.0,2026-03-18 16:39:18-07:00
31.06,1.0,10.0,2026-03-18 23:39:46,36.88888,-121.40331,264.0,0.0,329.7,-12.5,,,,,23:39:46,11.3,-0.7,114.3,0.0,143.0,-0.0,-0.01,1.0,99.0,-43.0,41.0,0.0,30.0,3207.0,,,305.0,,,,,0.0,0.0,,,,,,,,,,,,,,,,,,,0.0,94.0,0.0,0.0,30.2,1.9,,1.9,11.2,,,14.6,0.0,0.0,-0.5,7.3,5.6,,,,,130.0,93.0,135.0,103.0,134.0,99.0,131.0,99.0,,,11.0,253.8,,11.2,35.0,4.993,,,0.653,0.731,0.0,93.8,,,,,,0.0,2026-03-18 16:39:18-07:00
32.06,1.0,10.0,2026-03-18 23:39:47,36.88888,-121.40331,264.0,0.0,329.7,-12.5,,,,,23:39:47,11.3,-0.7,114.3,0.0,143.0,-0.0,-0.01,1.0,99.0,-25.0,41.0,0.0,30.0,3207.0,,,305.0,,,,,0.0,0.0,,,,,,,,,,,,,,,,,,,0.0,94.0,0.0,0.0,30.2,1.6,,1.6,11.2,,,14.6,0.0,0.0,-0.5,7.3,5.6,,,,,130.0,93.0,135.0,103.0,134.0,98.0,131.0,99.0,,,11.0,253.8,,11.2,35.0,4.993,,,0.653,0.731,0.0,93.8,,,,,,0.0,2026-03-18 16:39:18-07:00
33.06,1.0,10.0,2026-03-18 23:39:48,36.88888,-121.40331,264.0,0.0,329.7,-12.5,,,,,23:39:48,11.3,-0.7,114.3,0.0,143.0,-0.1,-0.01,1.0,99.0,-8.0,40.0,0.0,30.0,3206.0,,,305.0,,,,,0.0,0.0,,,,,,,,,,,,,,,,,,,0.0,94.0,0.0,0.0,30.2,1.6,,1.6,11.2,,,14.6,0.0,0.0,-0.5,7.3,5.6,,,,,130.0,92.0,135.0,103.0,134.0,98.0,131.0,99.0,,,11.0,253.8,,11.2,35.0,4.993,,,0.653,0.731,0.0,93.8,,,,,,0.0,2026-03-18 16:39:18-07:00
34.06,1.0,10.0,2026-03-18 23:39:49,36.88888,-121.40331,264.0,0.0,329.7,-12.5,,,,,23:39:49,11.3,-0.7,114.3,0.0,143.0,-0.1,-0.01,1.0,99.0,12.0,40.0,0.0,30.0,3206.0,,,305.0,,,,,0.0,0.0,,,,,,,,,,,,,,,,,,,0.0,94.0,0.0,0.0,30.2,1.7,,1.7,11.2,,,14.6,0.0,0.0,-0.5,7.3,5.6,,,,,130.0,92.0,135.0,103.0,134.0,98.0,131.0,99.0,,,11.0,253.8,,11.2,35.0,4.993,,,0.653,0.731,0.0,93.8,,,,,,0.0,2026-03-18 16:39:18-07:00
35.06,1.0,10.0,2026-03-18 23:39:50,36.88888,-121.40331,264.0,0.0,329.7,-12.5,,,,,23:39:50,11.3,-0.7,114.1,0.0,143.0,-0.0,-0.01,1.0,99.0,11.0,40.0,0.0,30.0,3206.0,,,305.0,,,,,0.0,0.0,,,,,,,,,,,,,,,,,,,0.0,82.0,0.0,0.0,30.1,1.7,,1.7,11.0,,,14.6,0.0,0.0,-0.5,7.3,5.6,,,,,127.0,88.0,132.0,99.0,131.0,94.0,128.0,95.0,,,11.0,253.8,,11.0,35.0,4.993,,,0.652,0.73,0.1,82.1,,,,,,0.0,2026-03-18 16:39:18-07:00
36.06,1.0,10.0,2026-03-18 23:39:51,36.88888,-121.40331,265.0,0.0,329.7,-12.5,,,,,23:39:51,11.3,-0.7,114.1,0.0,143.0,-0.0,-0.01,1.0,99.0,29.0,40.0,0.0,30.0,3200.0,,,305.0,,,,,0.0,0.0,,,,,,,,,,,,,,,,,,,0.0,88.0,197.0,197.0,28.9,1.8,,1.8,13.5,,,14.6,0.0,0.0,-0.6,7.3,5.6,,,,,129.0,91.0,133.0,101.0,132.0,96.0,129.0,98.0,,,11.0,253.8,,13.5,35.0,4.993,,,0.653,0.73,0.4,87.6,,,,,,197.0,2026-03-18 16:39:18-07:00
37.06,1.0,10.0,2026-03-18 23:39:52,36.88888,-121.40331,264.0,0.0,329.7,-12.5,,,,,23:39:52,11.3,-0.7,114.0,0.0,143.0,-0.0,-0.01,1.0,99.0,12.0,41.0,0.0,30.0,3200.0,,,305.0,,,,,0.0,0.0,,,,,,,,,,,,,,,,,,,9.0,88.0,215.0,215.0,28.9,1.8,,1.8,10.4,,,14.6,0.0,0.0,-0.6,7.3,5.7,,,,,129.0,92.0,133.0,101.0,132.0,97.0,129.0,98.0,,,11.0,253.8,,10.4,35.0,4.993,,,0.653,0.73,8.6,87.6,,,8.0,L,,215.0,2026-03-18 16:39:18-07:00
38.06,1.0,10.0,2026-03-18 23:39:53,36.88888,-121.40331,264.0,0.0,329.7,-12.5,,,,,23:39:53,11.3,-0.7,114.0,0.0,143.0,-0.0,-0.01,1.0,99.0,-29.0,41.0,0.0,30.0,3200.0,,,305.0,,,,,0.0,0.0,,,,,,,,,,,,,,,,,,,17.0,88.0,213.0,213.0,28.7,1.9,,1.9,9.8,,,14.6,0.0,0.0,-0.6,7.3,5.7,,,,,129.0,93.0,133.0,102.0,132.0,98.0,129.0,98.0,,,11.0,253.8,,9.8,35.0,4.993,,,0.653,0.731,17.5,87.5,,,13.0,L,,213.0,2026-03-18 16:39:18-07:00
39.06,1.0,10.0,2026-03-18 23:39:54,36.88888,-121.40331,264.0,0.0,329.7,-12.5,,,,,23:39:54,11.3,-0.6,114.0,0.0,143.0,-0.0,-0.01,1.0,99.0,-46.0,40.0,0.0,30.0,3206.0,,,305.0,,,,,0.0,0.0,,,,,,,,,,,,,,,,,,,18.0,87.0,210.0,210.0,28.7,2.1,,2.1,9.2,,,14.6,0.0,0.0,-0.6,7.3,5.7,,,,,129.0,93.0,133.0,102.0,132.0,98.0,129.0,99.0,,,11.0,253.8,,9.2,35.0,4.993,,,0.653,0.73,17.9,87.4,,,15.0,L,,210.0,2026-03-18 16:39:18-07:00
40.06,1.0,10.0,2026-03-18 23:39:55,36.88888,-121.40331,264.0,0.0,329.7,-12.5,,,,,23:39:55,11.3,-0.6,113.9,0.0,141.0,-0.1,-0.01,1.0,99.0,-62.0,41.0,0.0,30.0,3205.0,,,305.0,,,,,0.0,0.0,,,,,,,,,,,,,,,,,,,18.0,87.0,211.0,211.0,28.7,2.3,,2.3,8.6,,,14.6,0.0,0.0,-0.6,7.3,5.7,,,,,128.0,93.0,133.0,102.0,132.0,98.0,129.0,99.0,,,11.0,253.8,,8.6,35.0,4.993,,,0.653,0.73,18.2,87.4,,,17.0,L,,211.0,2026-03-18 16:39:18-07:00
41.06,1.0,10.0,2026-03-18 23:39:56,36.88888,-121.40331,264.0,0.0,329.7,-12.5,,,,,23:39:56,11.3,-0.7,113.9,0.0,141.0,-0.1,-0.01,1.0,99.0,-47.0,40.0,0.0,30.0,3204.0,,,305.0,,,,,0.0,0.0,,,,,,,,,,,,,,,,,,,18.0,87.0,214.0,214.0,28.7,2.5,,2.5,8.3,,,14.6,0.0,0.0,-0.6,7.3,5.7,,,,,128.0,94.0,133.0,102.0,132.0,98.0,129.0,99.0,,,11.0,253.8,,8.3,35.0,4.993,,,0.653,0.73,18.4,87.4,,,19.0,L,,214.0,2026-03-18 16:39:18-07:00
42.06,1.0,10.0,2026-03-18 23:39:57,36.88888,-121.40331,264.0,0.0,329.7,-12.5,,,,,23:39:57,11.3,-0.7,113.9,0.0,140.0,-0.0,-0.01,1.0,99.0,-52.0,40.0,0.0,30.0,3203.0,,,305.0,,,,,0.0,0.0,,,,,,,,,,,,,,,,,,,18.0,87.0,211.0,211.0,28.7,2.5,,2.5,8.5,,,14.6,0.0,0.0,-0.6,7.3,5.7,,,,,128.0,94.0,133.0,102.0,132.0,98.0,129.0,99.0,,,11.0,219.3,,8.5,35.0,4.993,,,0.653,0.73,18.0,87.3,,,20.0,L,,211.0,2026-03-18 16:39:18-07:00
43.06,1.0,10.0,2026-03-18 23:39:58,36.88888,-121.40331,264.0,0.0,329.7,-12.5,,,,,23:39:58,11.4,-0.7,113.9,0.0,139.0,-0.0,-0.01,1.0,99.0,-42.0,41.0,0.0,30.0,3203.0,,,305.0,,,,,0.0,0.0,,,,,,,,,,,,,,,,,,,18.0,87.0,210.0,210.0,28.7,2.3,,2.3,8.8,,,14.6,0.0,0.0,-0.6,7.3,5.7,,,,,128.0,94.0,133.0,102.0,132.0,98.0,129.0,99.0,,,11.0,170.7,,8.8,35.0,4.993,,,0.653,0.73,17.8,87.3,,,20.0,L,,210.0,2026-03-18 16:39:18-07:00
44.06,1.0,10.0,2026-03-18 23:39:59,36.88888,-121.40331,264.0,0.0,329.7,-12.5,,,,,23:39:59,11.3,-0.6,113.9,0.0,139.0,-0.1,-0.01,1.0,99.0,-23.0,40.0,0.0,30.0,3202.0,,,305.0,,,,,0.0,0.0,,,,,,,,,,,,,,,,,,,16.0,94.0,167.0,167.0,28.6,2.0,,2.0,9.0,,,14.6,0.0,0.0,-0.6,7.3,5.7,,,,,130.0,97.0,135.0,105.0,133.0,101.0,130.0,101.0,,,11.0,132.9,,9.0,35.0,4.993,,,0.653,0.73,16.2,93.8,,,19.0,L,,167.0,2026-03-18 16:39:18-07:00
45.06,1.0,10.0,2026-03-18 23:40:00,36.88889,-121.40331,264.0,0.0,329.7,-12.5,,,,,23:40:00,11.3,-0.6,114.0,0.0,139.0,-0.1,-0.01,1.0,99.0,0.0,40.0,0.0,30.0,3202.0,,,305.0,,,,,0.0,0.0,,,,,,,,,,,,,,,,,,,3.0,94.0,167.0,167.0,29.8,1.9,,1.9,8.3,,,14.6,0.0,0.0,-0.5,7.3,5.7,,,,,130.0,96.0,135.0,105.0,133.0,101.0,130.0,101.0,,,11.0,103.5,,8.3,35.0,4.993,,,0.653,0.731,3.3,93.6,,,,,,167.0,2026-03-18 16:39:18-07:00
46.06,1.0,10.0,2026-03-18 23:40:01,36.88889,-121.40331,264.0,0.0,329.7,-12.5,,,,,23:40:01,11.3,-0.6,114.1,0.0,138.0,-0.0,-0.01,1.0,99.0,-57.0,40.0,0.0,30.0,3200.0,,,305.0,,,,,0.0,0.0,,,,,,,,,,,,,,,,,,,1.0,94.0,0.0,0.0,29.9,1.8,,1.8,8.2,,,14.6,0.0,0.0,-0.5,7.3,5.7,,,,,130.0,96.0,135.0,105.0,133.0,101.0,130.0,101.0,,,11.0,80.7,,8.2,35.0,4.993,,,0.653,0.731,0.8,93.5,,,,,,0.0,2026-03-18 16:39:18-07:00
47.06,1.0,10.0,2026-03-18 23:40:02,36.88889,-121.40331,264.0,0.0,329.7,-12.5,,,,,23:40:02,11.3,-0.6,114.2,0.0,138.0,-0.0,-0.01,1.0,99.0,-51.0,40.0,0.0,30.0,3200.0,,,305.0,,,,,0.0,0.0,,,,,,,,,,,,,,,,,,,0.0,94.0,0.0,0.0,30.0,1.8,,1.8,8.2,,,14.6,0.0,0.0,-0.5,7.3,5.7,,,,,130.0,96.0,134.0,105.0,133.0,101.0,130.0,101.0,,,11.0,63.0,,8.2,35.0,4.993,,,0.653,0.73,0.0,93.6,,,,,,0.0,2026-03-18 16:39:18-07:00
48.06,1.0,10.0,2026-03-18 23:40:03,36.88889,-121.40331,264.0,0.0,329.7,-12.5,,,,,23:40:03,11.3,-0.6,114.2,0.0,136.0,-0.0,-0.01,1.0,99.0,-79.0,41.0,0.0,30.0,3198.0,,,305.0,,,,,0.0,0.0,,,,,,,,,,,,,,,,,,,0.0,94.0,0.0,0.0,30.0,1.6,,1.6,8.1,,,14.6,0.0,0.0,-0.5,7.3,5.7,,,,,130.0,96.0,135.0,105.0,133.0,101.0,130.0,101.0,,,11.0,49.2,,8.1,35.0,4.993,,,0.653,0.731,0.0,93.6,,,,,,0.0,2026-03-18 16:39:18-07:00
49.06,1.0,10.0,2026-03-18 23:40:04,36.88889,-121.40331,264.0,0.0,329.7,-12.5,,,,,23:40:04,11.3,-0.6,114.1,0.0,135.0,-0.1,-0.01,1.0,99.0,-67.0,41.0,0.0,30.0,3197.0,,,305.0,,,,,0.0,0.0,,,,,,,,,,,,,,,,,,,0.0,94.0,0.0,0.0,30.2,1.5,,1.5,8.1,,,14.6,0.0,0.0,-0.4,7.3,5.7,,,,,130.0,96.0,134.0,104.0,133.0,101.0,130.0,101.0,,,11.0,38.5,,8.1,35.0,4.993,,,0.653,0.73,0.0,93.6,,,,,,0.0,2026-03-18 16:39:18-07:00
50.06,1.0,10.0,2026-03-18 23:40:05,36.88889,-121.40331,264.0,0.0,329.7,-12.5,,,,,23:40:05,11.3,-0.7,114.2,0.0,133.0,-0.1,-0.01,1.0,99.0,-99.0,41.0,0.0,30.0,3195.0,,,305.0,,,,,0.0,0.0,,,,,,,,,,,,,,,,,,,0.0,94.0,0.0,0.0,30.2,1.4,,1.4,8.1,,,14.6,0.0,0.0,-0.3,7.3,5.7,,,,,130.0,96.0,134.0,104.0,133.0,101.0,130.0,101.0,,,11.0,30.2,,8.1,35.0,4.993,,,0.653,0.731,0.0,93.6,,,,,,0.0,2026-03-18 16:39:18-07:00
51.06,1.0,10.0,2026-03-18 23:40:06,36.88889,-121.40331,264.0,0.0,329.7,-12.5,,,,,23:40:06,11.3,-0.7,114.2,0.0,132.0,-0.1,-0.01,1.0,99.0,-90.0,41.0,0.0,30.0,3194.0,,,305.0,,,,,0.0,0.0,,,,,,,,,,,,,,,,,,,0.0,94.0,0.0,0.0,30.2,1.3,,1.3,8.1,,,14.6,0.0,0.0,-0.3,7.3,5.7,,,,,129.0,96.0,134.0,104.0,133.0,101.0,130.0,101.0,,,11.0,23.7,,8.1,35.0,4.993,,,0.653,0.731,0.0,93.6,,,,,,0.0,2026-03-18 16:39:18-07:00
52.06,1.0,10.0,2026-03-18 23:40:07,36.88889,-121.40331,264.0,0.0,329.7,-12.5,,,,,23:40:07,11.4,-0.7,114.2,0.0,131.0,-0.1,-0.01,1.0,99.0,-67.0,41.0,0.0,30.0,3194.0,,,305.0,,,,,0.0,0.0,,,,,,,,,,,,,,,,,,,0.0,94.0,0.0,0.0,30.2,1.3,,1.3,8.0,,,14.6,0.0,0.0,-0.3,7.3,5.7,,,,,129.0,96.0,134.0,104.0,133.0,101.0,130.0,101.0,,,11.0,18.7,,8.0,35.0,4.993,,,0.653,0.731,0.0,93.6,,,,,,0.0,2026-03-18 16:39:18-07:00
53.06,1.0,10.0,2026-03-18 23:40:08,36.88889,-121.40331,264.0,0.0,329.7,-12.5,,,,,23:40:08,11.4,-0.7,114.1,0.0,130.0,-0.1,-0.01,1.0,99.0,-86.0,41.0,0.0,30.0,3194.0,,,305.0,,,,,0.0,0.0,,,,,,,,,,,,,,,,,,,0.0,94.0,0.0,0.0,30.2,1.1,,1.1,8.0,,,14.6,0.0,0.0,-0.3,7.3,5.7,,,,,129.0,96.0,134.0,104.0,133.0,101.0,130.0,101.0,,,11.0,14.8,,8.0,35.0,4.993,,,0.653,0.73,0.0,93.6,,,,,,0.0,2026-03-18 16:39:18-07:00
54.06,1.0,10.0,2026-03-18 23:40:09,36.88889,-121.40331,264.0,0.0,329.7,-12.5,,,,,23:40:09,11.3,-0.8,114.1,0.0,128.0,-0.1,-0.01,1.0,99.0,-88.0,41.0,0.0,30.0,3193.0,,,305.0,,,,,0.0,0.0,,,,,,,,,,,,,,,,,,,0.0,94.0,0.0,0.0,30.2,0.9,,0.9,8.0,,,14.6,0.0,0.0,-0.4,7.3,5.7,,,,,129.0,95.0,134.0,104.0,133.0,101.0,130.0,101.0,,,11.0,11.8,,8.0,35.0,4.993,,,0.653,0.73,0.0,93.6,,,,,,0.0,2026-03-18 16:39:18-07:00
55.06,1.0,10.0,2026-03-18 23:40:10,36.88889,-121.40331,264.0,0.0,329.7,-12.5,,,,,23:40:10,11.4,-0.7,114.2,0.0,128.0,-0.0,-0.01,1.0,99.0,-52.0,41.0,0.0,30.0,3193.0,,,305.0,,,,,0.0,0.0,,,,,,,,,,,,,,,,,,,0.0,94.0,0.0,0.0,30.2,0.8,,0.8,8.0,,,14.6,0.0,0.0,-0.4,7.3,5.7,,,,,129.0,95.0,134.0,104.0,133.0,100.0,130.0,101.0,,,11.0,9.4,,8.0,35.0,4.993,,,0.653,0.731,0.0,93.6,,,,,,0.0,2026-03-18 16:39:18-07:00
56.06,1.0,10.0,2026-03-18 23:40:11,36.88889,-121.40332,264.0,0.0,329.7,-12.5,,,,,23:40:11,11.4,-0.8,114.1,0.0,128.0,-0.0,-0.01,1.0,99.0,-13.0,41.0,0.0,30.0,3193.0,,,305.0,,,,,0.0,0.0,,,,,,,,,,,,,,,,,,,0.0,94.0,0.0,0.0,30.2,0.6,,0.6,8.0,,,14.6,0.0,0.0,-0.4,7.3,5.7,,,,,129.0,95.0,134.0,104.0,133.0,100.0,130.0,101.0,,,11.0,7.6,,8.0,35.0,4.993,,,0.653,0.731,0.0,93.6,,,,,,0.0,2026-03-18 16:39:18-07:00
57.06,1.0,10.0,2026-03-18 23:40:12,36.88889,-121.40332,264.0,0.0,329.7,-12.5,,,,,23:40:12,11.4,-0.7,114.1,0.0,128.0,-0.0,-0.01,1.0,99.0,-14.0,41.0,0.0,30.0,3192.0,,,305.0,,,,,0.0,0.0,,,,,,,,,,,,,,,,,,,0.0,94.0,0.0,0.0,30.2,0.5,,0.5,8.0,,,14.6,0.0,0.0,-0.4,7.3,5.7,,,,,129.0,95.0,134.0,104.0,133.0,100.0,130.0,101.0,,,11.0,6.1,,8.0,35.0,4.993,,,0.653,0.731,0.0,93.6,,,,,,0.0,2026-03-18 16:39:18-07:00
58.06,1.0,10.0,2026-03-18 23:40:13,36.88889,-121.40332,264.0,0.0,329.7,-12.5,,,,,23:40:13,11.4,-0.7,114.1,0.0,128.0,-0.1,-0.01,1.0,99.0,-1.0,41.0,0.0,30.0,3192.0,,,305.0,,,,,0.0,0.0,,,,,,,,,,,,,,,,,,,0.0,94.0,0.0,0.0,30.2,0.5,,0.5,8.0,,,14.6,0.0,0.0,-0.4,7.3,5.7,,,,,129.0,95.0,134.0,104.0,133.0,100.0,130.0,100.0,,,11.0,5.0,,8.0,35.0,4.993,,,0.653,0.731,0.0,93.6,,,,,,0.0,2026-03-18 16:39:18-07:00
59.06,1.0,10.0,2026-03-18 23:40:14,36.88889,-121.40332,264.0,0.0,329.7,-12.5,,,,,23:40:14,11.4,-0.7,114.1,0.0,128.0,-0.0,-0.01,1.0,99.0,-13.0,41.0,0.0,30.0,3192.0,,,305.0,,,,,0.0,0.0,,,,,,,,,,,,,,,,,,,0.0,94.0,0.0,0.0,30.2,0.4,,0.4,8.0,,,14.6,0.0,0.0,-0.4,7.3,5.7,,,,,129.0,95.0,134.0,104.0,132.0,100.0,130.0,100.0,,,11.0,4.2,,8.0,35.0,4.993,,,0.653,0.73,0.0,93.6,,,,,,0.0,2026-03-18 16:39:18-07:00
60.06,1.0,10.0,2026-03-18 23:40:15,36.88889,-121.40332,264.0,0.0,329.7,-12.5,,,,,23:40:15,11.4,-0.7,114.0,0.0,128.0,-0.0,-0.01,1.0,99.0,-25.0,41.0,0.0,30.0,3192.0,,,305.0,,,,,0.0,0.0,,,,,,,,,,,,,,,,,,,1.0,82.0,0.0,0.0,30.2,0.4,,0.4,7.8,,,14.6,0.0,0.0,-0.6,7.3,5.7,,,,,126.0,91.0,131.0,99.0,130.0,96.0,127.0,96.0,,,11.0,3.5,,7.8,35.0,4.993,,,0.652,0.73,0.9,82.0,,,,,,0.0,2026-03-18 16:39:18-07:00
61.06,1.0,10.0,2026-03-18 23:40:16,36.88889,-121.40332,264.0,0.0,329.7,-12.5,,,,,23:40:16,11.3,-0.7,113.9,0.0,127.0,-0.1,-0.0,1.0,99.0,-54.0,41.0,0.0,30.0,3192.0,,,305.0,,,,,0.0,0.0,,,,,,,,,,,,,,,,,,,14.0,87.0,240.0,240.0,29.9,0.4,,0.4,8.7,,,14.6,0.0,0.0,-0.6,7.3,5.7,,,,,127.0,93.0,132.0,101.0,131.0,97.0,128.0,98.0,,,11.0,2.9,,8.7,35.0,4.993,,,0.656,0.73,13.8,87.1,,,,,,240.0,2026-03-18 16:39:18-07:00
62.06,1.0,10.0,2026-03-18 23:40:17,36.88889,-121.40332,263.0,0.1,329.7,-12.5,,,,,23:40:17,11.3,-0.8,114.0,0.0,125.0,-0.0,-0.01,0.9,99.0,-68.0,41.0,0.0,30.0,3192.0,,,305.0,,,,,0.0,0.0,,,,,,,,,,,,,,,,,,,55.0,94.0,1131.0,1131.0,24.9,1.3,,1.3,7.6,,,14.6,0.0,0.0,-0.6,7.3,5.7,,,,,129.0,120.0,134.0,117.0,132.0,139.0,130.0,148.0,,,11.0,2.5,,7.6,35.0,4.993,,,0.657,0.735,54.6,93.6,,,4.0,L,,1131.0,2026-03-18 16:39:18-07:00
63.06,1.0,10.0,2026-03-18 23:40:18,36.8889,-121.40332,263.0,0.1,329.7,-12.5,,,,,23:40:18,11.3,-0.7,114.0,0.0,125.0,-0.0,-0.01,1.0,99.0,42.0,41.0,0.0,30.0,3189.0,,,305.0,,,,,0.0,0.0,,,,,,,,,,,,,,,,,,,62.0,93.0,1430.0,1430.0,20.2,2.0,,2.0,7.5,,,14.6,0.0,0.0,-0.6,7.3,5.7,,,,,129.0,187.0,134.0,165.0,132.0,176.0,130.0,197.0,,,11.0,2.2,,7.5,35.0,4.993,,,0.658,0.734,61.9,93.4,,,10.0,P,,1430.0,2026-03-18 16:39:18-07:00
64.06,1.0,10.0,2026-03-18 23:40:19,36.8889,-121.40332,261.0,0.1,329.7,-12.5,,,,,23:40:19,11.3,-0.6,114.0,0.0,125.0,-0.1,-0.0,1.0,99.0,54.0,41.0,0.0,30.0,3189.0,,,305.0,,,,,0.0,0.0,,,,,,,,,,,,,,,,,,,55.0,93.0,1103.0,1103.0,19.3,2.4,,2.4,7.4,,,14.6,0.0,0.0,-0.5,7.3,5.7,,,,,129.0,231.0,134.0,208.0,133.0,206.0,130.0,228.0,,,11.0,2.0,,7.4,35.0,4.993,,,0.656,0.735,55.4,93.4,,,,,,1103.0,2026-03-18 16:39:18-07:00
65.06,1.0,10.0,2026-03-18 23:40:20,36.8889,-121.40332,261.0,0.1,329.7,-12.5,,,,,23:40:20,11.2,-0.6,114.1,0.0,125.0,-0.0,-0.01,0.9,99.0,33.0,41.0,0.0,30.0,3189.0,,,305.0,,,,,0.0,0.0,,,,,,,,,,,,,,,,,,,59.0,93.0,1358.0,1358.0,20.9,2.9,,2.9,7.4,,,14.6,0.0,0.0,-0.5,7.3,5.7,,,,,129.0,258.0,134.0,233.0,132.0,200.0,130.0,260.0,,,11.0,1.8,,7.4,35.0,4.993,,,0.658,0.736,59.0,93.4,,,11.0,R,,1358.0,2026-03-18 16:39:18-07:00
66.06,1.0,10.0,2026-03-18 23:40:21,36.8889,-121.40332,261.0,0.0,329.7,-12.5,,,,,23:40:21,11.3,-0.7,114.0,0.0,125.0,-0.1,-0.01,1.0,99.0,58.0,41.0,0.0,30.0,3189.0,,,305.0,,,,,0.0,0.0,,,,,,,,,,,,,,,,,,,54.0,93.0,1019.0,1019.0,19.2,4.3,,4.3,7.7,,,14.6,0.0,0.0,-0.4,7.3,5.7,,,,,129.0,295.0,135.0,258.0,132.0,233.0,131.0,287.0,,,11.0,1.6,,7.7,35.0,4.993,,,0.656,0.729,54.1,93.4,,,,,,1019.0,2026-03-18 16:39:18-07:00
67.06,1.0,10.0,2026-03-18 23:40:22,36.8889,-121.40332,261.0,0.0,329.7,-12.5,,,,,23:40:22,11.3,-0.7,114.0,0.0,125.0,-0.1,-0.01,1.0,99.0,33.0,41.0,0.0,30.0,3189.0,,,305.0,,,,,0.0,0.0,,,,,,,,,,,,,,,,,,,44.0,93.0,639.0,639.0,25.4,4.6,,4.6,8.8,,,14.6,0.0,0.0,-0.3,7.3,5.7,,,,,130.0,277.0,135.0,245.0,132.0,232.0,131.0,268.0,,,11.0,1.6,,8.8,35.0,4.993,,,0.653,0.728,43.6,93.4,,,12.0,R,,639.0,2026-03-18 16:39:18-07:00
68.06,1.0,10.0,2026-03-18 23:40:23,36.8889,-121.40332,261.0,0.3,329.7,-12.5,,,,,23:40:23,11.3,-0.6,113.9,0.0,125.0,-0.1,-0.0,1.0,99.0,68.0,41.0,0.0,30.0,3189.0,,,305.0,,,,,0.0,0.0,,,,,,,,,,,,,,,,,,,52.0,93.0,908.0,908.0,22.1,4.1,,4.1,14.9,,,14.6,0.0,0.0,-0.3,7.3,5.7,,,,,130.0,289.0,135.0,265.0,133.0,257.0,131.0,282.0,,,11.0,1.5,,14.9,35.0,4.993,,,0.656,0.729,51.5,93.5,,,19.0,R,,908.0,2026-03-18 16:39:18-07:00
69.06,1.0,10.0,2026-03-18 23:40:24,36.8889,-121.40332,261.0,0.2,329.7,-12.5,,,,,23:40:24,11.4,-0.5,113.9,0.0,125.0,-0.1,-0.01,1.1,99.0,56.0,41.0,0.0,30.0,3189.0,,,305.0,,,,,0.0,0.0,,,,,,,,,,,,,,,,,,,40.0,94.0,439.0,439.0,26.5,4.1,,4.1,16.2,,,14.6,0.0,0.0,-0.3,7.3,5.7,,,,,130.0,273.0,135.0,253.0,133.0,244.0,131.0,268.0,,,11.0,1.4,,16.2,35.0,4.993,,,0.654,0.731,39.8,93.5,,,18.0,R,,439.0,2026-03-18 16:39:18-07:00
70.06,1.0,10.0,2026-03-18 23:40:25,36.88889,-121.40332,261.0,0.1,329.7,-12.5,,,,,23:40:25,11.3,-0.5,114.0,0.0,125.0,0.0,-0.02,1.0,99.0,58.0,41.0,0.0,30.0,3189.0,,,305.0,,,,,0.0,0.0,,,,,,,,,,,,,,,,,,,62.0,94.0,1414.0,1414.0,22.6,4.3,,4.3,17.8,,,14.6,0.0,0.0,-0.3,7.3,5.7,,,,,130.0,299.0,135.0,276.0,133.0,254.0,131.0,287.0,,,11.0,1.3,,17.8,35.0,4.993,,,0.659,0.731,62.3,93.5,,,26.0,R,,1414.0,2026-03-18 16:39:18-07:00
71.06,1.0,10.0,2026-03-18 23:40:26,36.88889,-121.40332,261.0,0.0,329.7,-12.5,,,,,23:40:26,11.3,-0.6,114.0,0.0,130.0,-0.0,-0.01,1.0,99.0,125.0,41.0,0.0,30.0,3189.0,,,305.0,,,,,0.0,0.0,,,,,,,,,,,,,,,,,,,65.0,94.0,1511.0,1511.0,18.6,4.1,,4.1,20.2,,,14.6,0.0,0.0,-0.3,7.3,5.7,,,,,130.0,334.0,135.0,325.0,133.0,290.0,131.0,326.0,,,11.0,1.3,,20.2,35.0,4.993,,,0.657,0.732,65.0,93.6,,,21.0,R,,1511.0,2026-03-18 16:39:18-07:00
72.06,1.0,10.0,2026-03-18 23:40:27,36.88889,-121.40332,261.0,0.1,329.7,-12.5,,,,,23:40:27,11.2,-0.6,114.1,0.0,130.0,-0.0,-0.02,1.0,99.0,70.0,41.0,0.0,30.0,3195.0,,,305.0,,,,,0.0,0.0,,,,,,,,,,,,,,,,,,,61.0,94.0,1370.0,1370.0,20.0,3.9,,3.9,20.3,,,14.6,0.0,0.0,-0.3,7.3,5.7,,,,,130.0,352.0,136.0,342.0,133.0,296.0,132.0,343.0,,,11.0,1.3,,20.3,35.0,4.993,,,0.658,0.732,61.1,93.7,,,14.0,R,,1370.0,2026-03-18 16:39:18-07:00
73.06,1.0,10.0,2026-03-18 23:40:28,36.88889,-121.40332,261.0,0.1,329.7,-12.5,,,,,23:40:28,11.2,-0.7,114.1,0.0,130.0,-0.1,-0.01,0.9,99.0,55.0,41.0,0.0,30.0,3195.0,,,305.0,,,,,0.0,0.0,,,,,,,,,,,,,,,,,,,59.0,94.0,1264.0,1264.0,18.5,3.7,,3.7,20.3,,,14.6,0.0,0.0,-0.4,7.3,5.7,,,,,131.0,377.0,136.0,365.0,133.0,302.0,132.0,358.0,,,11.0,1.3,,20.3,35.0,4.993,,,0.656,0.729,58.9,93.8,,,,,,1264.0,2026-03-18 16:39:18-07:00
74.06,1.0,10.0,2026-03-18 23:40:29,36.88889,-121.40332,261.0,0.1,329.7,-12.5,,,,,23:40:29,11.2,-0.7,114.0,0.0,130.0,-0.1,-0.01,0.9,99.0,9.0,41.0,0.0,30.0,3195.0,,,305.0,,,,,0.0,0.0,,,,,,,,,,,,,,,,,,,52.0,94.0,995.0,995.0,13.6,3.4,,3.4,20.4,,,14.6,0.0,0.0,-0.4,7.3,5.7,,,,,131.0,367.0,136.0,374.0,133.0,316.0,132.0,365.0,,,11.0,1.2,,20.4,35.0,4.993,,,0.653,0.729,51.6,93.8,,,,,,995.0,2026-03-18 16:39:18-07:00
75.06,1.0,10.0,2026-03-18 23:40:30,36.88889,-121.40332,260.0,0.1,329.7,-12.5,,,,,23:40:30,11.3,-0.6,114.0,0.0,130.0,-0.1,-0.01,0.9,99.0,-18.0,41.0,0.0,30.0,3195.0,,,305.0,,,,,0.0,0.0,,,,,,,,,,,,,,,,,,,45.0,94.0,677.0,677.0,15.6,3.2,,3.2,20.4,,,14.6,0.0,0.0,-0.4,7.3,5.7,,,,,131.0,375.0,137.0,391.0,133.0,308.0,132.0,363.0,,,11.0,1.2,,20.4,35.0,4.993,,,0.654,0.728,45.5,93.9,,,,,,677.0,2026-03-18 16:39:18-07:00
76.06,1.0,10.0,2026-03-18 23:40:31,36.88889,-121.40332,260.0,0.1,329.7,-12.5,,,,,23:40:31,11.3,-0.5,114.1,0.0,130.0,-0.1,-0.01,1.0,99.0,1.0,41.0,0.0,30.0,3195.0,,,305.0,,,,,0.0,0.0,,,,,,,,,,,,,,,,,,,50.0,94.0,933.0,933.0,15.7,3.1,,3.1,20.1,,,14.6,0.0,0.0,-0.4,7.3,5.7,,,,,132.0,373.0,137.0,387.0,133.0,327.0,133.0,369.0,,,11.0,1.2,,20.1,35.0,4.993,,,0.656,0.731,49.7,94.0,,,,,,933.0,2026-03-18 16:39:18-07:00
77.06,1.0,10.0,2026-03-18 23:40:32,36.88889,-121.40332,260.0,0.0,329.7,-12.5,,,,,23:40:32,11.3,-0.6,114.1,0.0,130.0,-0.0,-0.01,1.0,99.0,35.0,41.0,0.0,30.0,3195.0,,,305.0,,,,,0.0,0.0,,,,,,,,,,,,,,,,,,,48.0,94.0,863.0,863.0,14.8,3.0,,3.0,19.9,,,14.6,0.0,0.0,-0.4,7.3,5.7,,,,,132.0,366.0,137.0,389.0,133.0,339.0,133.0,386.0,,,11.0,1.2,,19.9,35.0,4.993,,,0.656,0.728,48.4,94.0,,,,,,863.0,2026-03-18 16:39:18-07:00
78.06,1.0,10.0,2026-03-18 23:40:33,36.88889,-121.40332,260.0,0.1,329.7,-12.5,,,,,23:40:33,11.4,-0.5,114.1,0.0,130.0,-0.0,-0.01,1.0,99.0,12.0,41.0,0.0,30.0,3195.0,,,305.0,,,,,0.0,0.0,,,,,,,,,,,,,,,,,,,49.0,94.0,880.0,880.0,15.0,2.9,,2.9,19.8,,,14.6,0.0,0.0,-0.4,7.3,5.7,,,,,132.0,363.0,137.0,388.0,134.0,345.0,133.0,391.0,,,11.0,1.2,,19.8,35.0,4.993,,,0.657,0.729,49.3,94.1,,,,,,880.0,2026-03-18 16:39:18-07:00
79.06,1.0,10.0,2026-03-18 23:40:34,36.88889,-121.40332,260.0,0.1,329.7,-12.5,,,,,23:40:34,11.3,-0.5,114.1,0.0,131.0,-0.0,-0.01,0.9,99.0,27.0,41.0,0.0,30.0,3195.0,,,305.0,,,,,0.0,0.0,,,,,,,,,,,,,,,,,,,50.0,94.0,915.0,915.0,14.8,2.8,,2.8,19.7,,,14.6,0.0,0.0,-0.4,7.3,5.7,,,,,132.0,383.0,137.0,394.0,134.0,346.0,133.0,398.0,,,11.0,1.2,,19.7,35.0,4.993,,,0.654,0.728,50.0,94.1,,,,,,915.0,2026-03-18 16:39:18-07:00
80.06,1.0,10.0,2026-03-18 23:40:35,36.88889,-121.40332,260.0,0.0,329.7,-12.5,,,,,23:40:35,11.3,-0.6,114.0,0.0,131.0,-0.1,-0.01,1.0,99.0,32.0,41.0,0.0,30.0,3195.0,,,305.0,,,,,0.0,0.0,,,,,,,,,,,,,,,,,,,50.0,94.0,906.0,906.0,14.5,2.8,,2.8,19.5,,,14.6,0.0,0.0,-0.4,7.3,5.7,,,,,132.0,388.0,137.0,394.0,134.0,360.0,133.0,418.0,,,11.0,1.2,,19.5,35.0,4.993,,,0.654,0.728,49.9,94.1,,,,,,906.0,2026-03-18 16:39:18-07:00
81.06,1.0,10.0,2026-03-18 23:40:36,36.88889,-121.40332,260.0,0.1,329.7,-12.5,,,,,23:40:36,11.3,-0.5,114.0,0.0,132.0,-0.1,-0.01,1.0,99.0,1.0,41.0,0.0,30.0,3197.0,,,305.0,,,,,0.0,0.0,,,,,,,,,,,,,,,,,,,50.0,94.0,926.0,926.0,14.4,2.7,,2.7,25.1,,,14.6,0.0,0.0,-0.3,7.3,5.7,,,,,132.0,401.0,138.0,400.0,134.0,379.0,134.0,416.0,,,11.0,1.2,,25.1,35.0,4.994,,,0.653,0.726,50.1,94.2,,,,,,926.0,2026-03-18 16:39:18-07:00
82.06,1.0,10.0,2026-03-18 23:40:37,36.88889,-121.40332,260.0,0.0,329.7,-12.5,,,,,23:40:37,11.3,-0.5,114.0,0.0,132.0,-0.1,-0.01,0.9,99.0,-20.0,41.0,0.0,30.0,3197.0,,,305.0,,,,,0.0,0.0,,,,,,,,,,,,,,,,,,,50.0,94.0,905.0,905.0,15.5,2.7,,2.7,31.0,,,14.6,0.0,0.0,-0.2,7.3,5.7,,,,,132.0,399.0,138.0,400.0,134.0,377.0,134.0,407.0,,,11.0,1.2,,31.0,35.0,4.993,,,0.656,0.728,49.7,94.2,,,,,,905.0,2026-03-18 16:39:18-07:00
83.06,1.0,10.0,2026-03-18 23:40:38,36.88889,-121.40332,260.0,0.1,329.7,-12.5,,,,,23:40:38,11.3,-0.5,114.0,0.0,132.0,-0.1,-0.01,1.0,99.0,-28.0,41.0,0.0,30.0,3197.0,,,305.0,,,,,0.0,0.0,,,,,,,,,,,,,,,,,,,49.0,94.0,887.0,887.0,15.3,2.7,,2.7,31.8,,,14.6,0.0,0.0,-0.2,7.3,5.7,,,,,132.0,399.0,138.0,402.0,134.0,379.0,134.0,419.0,,,11.0,1.2,,31.8,35.0,4.993,,,0.654,0.726,49.4,94.2,,,,,,887.0,2026-03-18 16:39:18-07:00
84.06,1.0,10.0,2026-03-18 23:40:39,36.88889,-121.40332,259.0,0.0,329.7,-12.5,,,,,23:40:39,11.3,-0.5,114.0,0.0,132.0,-0.0,-0.01,1.0,99.0,-28.0,41.0,0.0,30.0,3197.0,,,305.0,,,,,0.0,0.0,,,,,,,,,,,,,,,,,,,49.0,94.0,895.0,895.0,15.1,2.6,,2.6,31.7,,,14.6,0.0,0.0,-0.1,7.3,5.7,,,,,132.0,398.0,138.0,412.0,134.0,380.0,134.0,423.0,,,11.0,1.2,,31.7,35.0,4.993,,,0.653,0.728,49.3,94.2,,,,,,895.0,2026-03-18 16:39:18-07:00
85.06,1.0,10.0,2026-03-18 23:40:40,36.88889,-121.40332,259.0,0.0,329.7,-12.5,,,,,23:40:40,11.3,-0.6,114.0,0.0,132.0,-0.1,-0.01,1.0,99.0,-46.0,41.0,0.0,30.0,3197.0,,,305.0,,,,,0.0,0.0,,,,,,,,,,,,,,,,,,,49.0,94.0,854.0,854.0,15.1,2.6,,2.6,31.7,,,14.6,0.0,0.0,-0.1,7.3,5.7,,,,,133.0,404.0,138.0,414.0,134.0,395.0,134.0,440.0,,,11.0,1.2,,31.7,35.0,4.993,,,0.654,0.729,48.6,94.2,,,,,,854.0,2026-03-18 16:39:18-07:00
86.06,1.0,10.0,2026-03-18 23:40:41,36.88889,-121.40332,259.0,0.0,329.7,-12.5,,,,,23:40:41,11.3,-0.6,114.0,0.0,132.0,-0.1,-0.0,1.0,99.0,-44.0,41.0,0.0,30.0,3197.0,,,305.0,,,,,0.0,0.0,,,,,,,,,,,,,,,,,,,49.0,94.0,869.0,869.0,15.1,2.6,,2.6,31.8,,,14.6,0.0,0.0,-0.1,7.3,5.7,,,,,133.0,407.0,138.0,414.0,134.0,403.0,134.0,436.0,,,11.0,1.2,,31.8,35.0,4.993,,,0.654,0.732,49.4,94.2,,,,,,869.0,2026-03-18 16:39:18-07:00
87.06,1.0,10.0,2026-03-18 23:40:42,36.88889,-121.40332,259.0,0.1,329.7,-12.5,,,,,23:40:42,11.3,-0.5,114.0,0.0,132.0,-0.1,-0.01,1.0,99.0,-35.0,41.0,0.0,30.0,3197.0,,,305.0,,,,,0.0,0.0,,,,,,,,,,,,,,,,,,,49.0,94.0,910.0,910.0,15.3,2.6,,2.6,31.8,,,14.6,0.0,0.0,-0.1,7.3,5.7,,,,,133.0,404.0,139.0,423.0,135.0,403.0,135.0,443.0,,,11.0,1.1,,31.8,35.0,4.993,,,0.654,0.729,49.4,94.2,,,,,,910.0,2026-03-18 16:39:18-07:00
88.06,1.0,10.0,2026-03-18 23:40:43,36.88889,-121.40332,259.0,0.0,329.7,-12.5,,,,,23:40:43,11.3,-0.5,114.1,0.0,132.0,-0.0,-0.01,1.0,99.0,-42.0,41.0,0.0,30.0,3197.0,,,305.0,,,,,0.0,0.0,,,,,,,,,,,,,,,,,,,50.0,94.0,911.0,911.0,15.3,2.6,,2.6,31.9,,,14.6,0.0,0.0,-0.1,7.3,5.7,,,,,133.0,405.0,139.0,425.0,134.0,402.0,135.0,442.0,,,11.0,1.1,,31.9,35.0,4.993,,,0.653,0.726,50.1,94.2,,,,,,911.0,2026-03-18 16:39:18-07:00
89.06,1.0,10.0,2026-03-18 23:40:44,36.88889,-121.40332,259.0,0.0,329.7,-12.5,,,,,23:40:44,11.3,-0.6,114.1,0.0,132.0,-0.0,-0.01,0.9,99.0,-37.0,41.0,0.0,30.0,3197.0,,,305.0,,,,,0.0,0.0,,,,,,,,,,,,,,,,,,,50.0,94.0,920.0,920.0,15.0,2.6,,2.6,31.6,,,14.6,0.0,0.0,-0.1,7.3,5.7,,,,,133.0,406.0,139.0,429.0,135.0,416.0,135.0,459.0,,,11.0,1.1,,31.6,35.0,4.993,,,0.654,0.728,50.1,94.2,,,,,,920.0,2026-03-18 16:39:18-07:00
90.06,1.0,10.0,2026-03-18 23:40:45,36.88889,-121.40332,259.0,0.0,329.7,-12.5,,,,,23:40:45,11.3,-0.6,114.1,0.0,132.0,-0.0,-0.01,1.0,99.0,-33.0,41.0,0.0,30.0,3197.0,,,305.0,,,,,0.0,0.0,,,,,,,,,,,,,,,,,,,50.0,94.0,929.0,929.0,14.9,2.6,,2.6,32.0,,,14.6,0.0,0.0,-0.1,7.3,5.7,,,,,133.0,400.0,139.0,435.0,135.0,425.0,135.0,466.0,,,11.0,1.3,,32.0,35.0,4.994,,,0.653,0.731,50.1,94.2,,,,,,929.0,2026-03-18 16:39:18-07:00
91.06,1.0,10.0,2026-03-18 23:40:46,36.88889,-121.40332,258.0,0.0,329.7,-12.5,,,,,23:40:46,11.3,-0.5,114.1,0.0,132.0,-0.0,-0.01,1.0,99.0,-10.0,41.0,0.0,30.0,3197.0,,,305.0,,,,,0.0,0.0,,,,,,,,,,,,,,,,,,,51.0,94.0,957.0,957.0,14.3,2.5,,2.5,31.9,,,14.6,0.0,0.0,-0.1,7.3,5.7,,,,,133.0,396.0,139.0,434.0,135.0,437.0,136.0,479.0,,,11.0,1.5,,31.9,35.0,4.993,,,0.653,0.728,50.6,94.2,,,,,,957.0,2026-03-18 16:39:18-07:00
92.06,1.0,10.0,2026-03-18 23:40:47,36.88889,-121.40332,258.0,0.0,329.7,-12.5,,,,,23:40:47,11.3,-0.6,114.1,0.0,132.0,-0.1,-0.01,1.0,99.0,-38.0,41.0,0.0,30.0,3197.0,,,305.0,,,,,0.0,0.0,,,,,,,,,,,,,,,,,,,48.0,94.0,837.0,837.0,15.1,2.5,,2.5,32.1,,,14.6,0.0,0.0,0.1,7.3,5.7,,,,,134.0,395.0,140.0,434.0,135.0,446.0,136.0,475.0,,,11.0,1.6,,32.1,35.0,4.993,,,0.654,0.73,48.1,94.3,,,,,,837.0,2026-03-18 16:39:18-07:00
93.06,1.0,10.0,2026-03-18 23:40:48,36.88887,-121.40333,255.0,0.0,329.7,-12.5,,,,,23:40:48,11.3,-0.6,114.1,0.0,132.0,-0.0,-0.01,0.9,99.0,-43.0,41.0,0.0,30.0,3197.0,,,305.0,,,,,0.0,0.0,,,,,,,0.0,,,0.0,,,,,,,,,49.0,98.0,879.0,879.0,15.5,2.5,,2.5,32.3,,,14.6,0.0,0.0,17.6,7.3,5.7,,,,,135.0,395.0,141.0,432.0,136.0,441.0,137.0,478.0,,,11.0,1.7,,32.3,35.0,4.993,,,0.654,0.732,49.2,98.0,,,,,,879.0,2026-03-18 16:39:18-07:00
94.06,1.0,10.0,2026-03-18 23:40:49,36.88887,-121.40333,255.0,0.0,329.7,-12.5,,,,,23:40:49,11.3,-0.6,113.9,0.0,132.0,-0.1,-0.0,1.0,99.0,-5.0,41.0,0.0,30.0,3197.0,,,305.0,,,,,0.0,0.0,,,,,,,1.0,,,-2.0,,,,,,,,,49.0,98.0,845.0,845.0,15.3,2.4,,2.4,32.2,,,14.6,0.0,0.0,35.0,7.3,5.7,,,,,135.0,390.0,141.0,441.0,136.0,451.0,137.0,483.0,,,11.0,1.8,,32.2,35.0,4.993,,,0.653,0.734,48.9,97.9,,,,,,845.0,2026-03-18 16:39:18-07:00
95.06,1.0,10.0,2026-03-18 23:40:50,36.88887,-121.40333,255.0,0.1,329.7,-12.5,,,,,23:40:50,11.3,-0.6,114.0,0.0,132.0,-0.1,-0.01,0.9,99.0,-27.0,41.0,0.0,30.0,3197.0,,,305.0,,,,,0.0,0.0,,,,,,,2.0,,,-4.0,,,,,,,,,49.0,98.0,847.0,847.0,16.2,2.4,,2.4,32.5,,,14.6,0.0,0.0,43.6,7.3,5.7,,,,,135.0,389.0,141.0,443.0,137.0,459.0,137.0,488.0,,,11.0,1.9,,32.5,35.0,4.993,,,0.654,0.732,48.9,97.9,,,,,,847.0,2026-03-18 16:39:18-07:00
96.06,1.0,10.0,2026-03-18 23:40:51,36.88887,-121.40333,255.0,0.0,329.7,-12.5,,,,,23:40:51,11.3,-0.6,114.0,0.0,132.0,-0.1,-0.01,1.0,99.0,-16.0,41.0,0.0,30.0,3197.0,,,305.0,,,,,0.0,0.0,,,,,,,2.0,,,-5.0,,,,,,,,,48.0,98.0,820.0,820.0,16.1,2.4,,2.4,32.6,,,14.6,0.0,0.0,49.2,7.3,5.7,,,,,135.0,401.0,141.0,441.0,137.0,465.0,137.0,488.0,,,11.0,1.9,,32.6,35.0,4.993,,,0.653,0.73,48.0,97.7,,,,,,820.0,2026-03-18 16:39:18-07:00
97.06,1.0,10.0,2026-03-18 23:40:52,36.88887,-121.40333,255.0,0.1,329.7,-12.5,,,,,23:40:52,11.3,-0.7,114.0,0.0,132.0,-0.0,-0.02,1.0,99.0,-35.0,41.0,0.0,30.0,3197.0,,,305.0,,,,,0.0,0.0,,,,,,,3.0,,,-6.0,,,,,3.0,0.0,0.0,1200.0,47.0,98.0,807.0,807.0,17.0,2.5,,2.5,32.8,,,14.6,0.0,0.0,50.7,7.3,5.7,,,,,135.0,404.0,141.0,448.0,137.0,457.0,138.0,473.0,,,11.0,2.0,,32.8,35.0,4.993,,,0.658,0.731,47.4,97.6,,,,,,807.0,2026-03-18 16:39:18-07:00
98.06,1.0,10.0,2026-03-18 23:40:53,36.88887,-121.40333,255.0,0.1,329.7,-12.5,,,,,23:40:53,11.3,-0.7,114.0,0.0,132.0,-0.1,-0.01,1.0,99.0,2.0,41.0,0.0,30.0,3197.0,,,305.0,,,,,0.0,0.0,,,,,,,3.0,,,-6.0,,,,,1.0,1.0,0.0,1200.0,48.0,98.0,820.0,820.0,16.2,2.4,,2.4,31.5,,,14.6,0.0,0.0,53.8,7.3,5.7,,,,,135.0,412.0,141.0,454.0,137.0,461.0,138.0,475.0,,,11.0,2.0,,31.5,35.0,4.993,,,0.656,0.73,48.3,97.7,,,,,,820.0,2026-03-18 16:39:18-07:00
99.06,1.0,10.0,2026-03-18 23:40:54,36.88887,-121.40333,256.0,0.1,329.7,-12.5,,,,,23:40:54,11.3,-0.6,114.0,0.0,132.0,-0.0,-0.0,1.0,99.0,2.0,41.0,0.0,30.0,3197.0,,,305.0,,,,,0.0,0.0,,,,,,,3.0,,,-7.0,,,,,1.0,1.0,0.0,1200.0,50.0,98.0,920.0,920.0,16.1,2.4,,2.4,28.8,,,14.6,0.0,0.0,55.5,7.3,5.7,,,,,136.0,414.0,142.0,462.0,137.0,463.0,138.0,483.0,,,11.0,2.0,,28.8,35.0,4.993,,,0.654,0.729,49.8,98.1,,,,,,920.0,2026-03-18 16:39:18-07:00
100.06,1.0,10.0,2026-03-18 23:40:55,36.88887,-121.40333,256.0,0.1,329.7,-12.5,,,,,23:40:55,11.3,-0.5,114.0,0.0,132.0,-0.1,-0.01,1.0,99.0,-30.0,41.0,0.0,30.0,3193.0,,,305.0,,,,,0.0,0.0,,,,,,,4.0,,,-7.0,,,,,,,,,49.0,98.0,852.0,852.0,15.2,2.5,,2.5,26.5,,,14.6,0.0,0.0,57.5,7.3,5.7,,,,,136.0,430.0,142.0,468.0,137.0,458.0,138.0,495.0,,,11.0,2.1,,26.5,35.0,4.993,,,0.654,0.728,48.6,97.8,,,,,,852.0,2026-03-18 16:39:18-07:00
101.06,1.0,10.0,2026-03-18 23:40:56,36.88887,-121.40333,256.0,0.0,329.7,-12.5,,,,,23:40:56,11.4,-0.6,113.9,0.0,132.0,-0.1,-0.01,1.0,99.0,-12.0,41.0,0.0,30.0,3193.0,,,305.0,,,,,0.0,0.0,,,,,,,4.0,,,-8.0,,,,,,,,,45.0,97.0,603.0,603.0,17.2,2.5,,2.5,24.4,,,14.6,0.0,0.0,54.6,7.3,5.7,,,,,136.0,428.0,142.0,467.0,137.0,446.0,138.0,495.0,,,11.0,2.1,,24.4,35.0,4.993,,,0.654,0.729,44.5,96.8,,,,,,603.0,2026-03-18 16:39:18-07:00
102.06,1.0,10.0,2026-03-18 23:40:57,36.88887,-121.40333,257.0,0.1,329.7,-12.5,,,,,23:40:57,11.3,-0.6,113.9,0.0,132.0,-0.1,-0.0,1.0,99.0,-56.0,41.0,0.0,30.0,3193.0,,,305.0,,,,,0.0,0.0,,,,,,,0.0,,,-5.0,,,,,,,,,49.0,98.0,873.0,873.0,17.4,2.5,,2.5,23.3,,,14.6,0.0,0.0,53.2,7.3,5.7,,,,,136.0,415.0,142.0,455.0,138.0,452.0,139.0,497.0,,,11.0,2.1,,23.3,35.0,4.993,,,0.657,0.741,49.1,97.9,,,,,,873.0,2026-03-18 16:39:18-07:00
103.06,1.0,10.0,2026-03-18 23:40:58,36.88887,-121.40333,257.0,0.1,329.7,-12.5,,,,,23:40:58,11.3,-0.6,113.8,0.0,132.0,-0.1,-0.01,1.0,99.0,-22.0,41.0,0.0,30.0,3197.0,,,305.0,,,,,0.0,0.0,,,,,,,-7.0,,,18.0,,,,,,,,,50.0,98.0,895.0,895.0,15.5,2.5,,2.5,23.0,,,14.6,0.0,0.0,56.4,7.3,5.7,,,,,136.0,413.0,142.0,461.0,138.0,463.0,139.0,497.0,,,11.0,2.1,,23.0,35.0,4.993,,,0.654,0.729,49.6,98.0,,,,,,895.0,2026-03-18 16:39:18-07:00
104.06,1.0,10.0,2026-03-18 23:40:59,36.88887,-121.40333,257.0,0.1,329.7,-12.5,,,,,23:40:59,11.4,-0.6,113.9,0.0,132.0,-0.1,-0.01,1.0,99.0,-8.0,41.0,0.0,30.0,3193.0,,,305.0,,,,,0.0,0.0,,,,,,,-7.0,,,18.0,,,,,,,,,51.0,98.0,1004.0,1004.0,18.4,2.6,,2.6,22.8,,,14.6,0.0,0.0,58.2,7.3,5.7,,,,,137.0,426.0,143.0,455.0,138.0,467.0,139.0,493.0,,,11.0,2.1,,22.8,35.0,4.993,,,0.657,0.73,51.0,98.3,,,,,,1004.0,2026-03-18 16:39:18-07:00
105.06,1.0,10.0,2026-03-18 23:41:00,36.88887,-121.40333,258.0,0.0,329.7,-12.5,,,,,23:41:00,11.4,-0.6,113.9,0.0,132.0,-0.0,-0.01,1.0,99.0,38.0,40.0,0.0,30.0,3193.0,,,305.0,,,,,0.0,0.0,,,,,,,-7.0,,,18.0,,,,,,,,,53.0,98.0,1046.0,1046.0,16.4,2.6,,2.6,23.1,,,14.6,0.0,0.0,63.9,7.3,5.7,,,,,137.0,439.0,143.0,465.0,138.0,479.0,140.0,509.0,,,11.0,2.1,,23.1,35.0,4.993,,,0.656,0.731,53.2,98.4,,,,,,1046.0,2026-03-18 16:39:18-07:00
106.06,1.0,10.0,2026-03-18 23:41:01,36.88887,-121.40333,258.0,0.1,329.7,-12.5,,,,,23:41:01,11.4,-0.6,113.8,0.0,132.0,-0.1,-0.0,1.0,99.0,36.0,40.0,0.0,30.0,3193.0,,,305.0,,,,,0.0,0.0,,,,,,,-7.0,,,18.0,,,,,,,,,57.0,99.0,1177.0,1177.0,15.7,2.6,,2.6,23.2,,,14.6,0.0,0.0,68.0,7.3,5.7,,,,,137.0,450.0,143.0,481.0,139.0,490.0,140.0,517.0,,,11.0,2.1,,23.2,35.0,4.993,,,0.656,0.735,56.8,98.7,,,,,,1177.0,2026-03-18 16:39:18-07:00
107.06,1.0,10.0,2026-03-18 23:41:02,36.88887,-121.40333,258.0,0.0,329.7,-12.5,,,,,23:41:02,11.4,-0.7,113.9,0.0,132.0,-0.0,-0.01,0.9,99.0,22.0,40.0,0.0,30.0,3187.0,,,305.0,,,,,0.0,0.0,,,,,,,-7.0,,,18.0,,,,,,,,,56.0,99.0,1198.0,1198.0,15.5,2.7,,2.7,23.3,,,14.6,0.0,0.0,70.5,7.3,5.7,,,,,137.0,461.0,143.0,487.0,139.0,503.0,140.0,532.0,,,11.0,2.1,,23.3,35.0,4.993,,,0.656,0.731,56.5,98.7,,,,,,1198.0,2026-03-18 16:39:18-07:00
108.06,1.0,10.0,2026-03-18 23:41:03,36.88887,-121.40333,258.0,0.1,329.7,-12.5,,,,,23:41:03,11.4,-0.6,113.8,0.0,132.0,-0.1,-0.01,0.9,99.0,43.0,40.0,0.0,30.0,3187.0,,,305.0,,,,,0.0,0.0,,,,,,,-5.0,,,18.0,,,,,,,,,55.0,99.0,1069.0,1069.0,15.2,2.6,,2.6,23.4,,,14.6,0.0,0.0,71.8,7.3,5.7,,,,,138.0,482.0,144.0,493.0,139.0,517.0,141.0,533.0,,,11.0,2.1,,23.4,35.0,4.993,,,0.656,0.737,54.8,98.5,,,,,,1069.0,2026-03-18 16:39:18-07:00
109.06,1.0,10.0,2026-03-18 23:41:04,36.88887,-121.40332,259.0,0.1,329.7,-12.5,,,,,23:41:04,11.3,-0.5,113.8,0.0,132.0,-0.1,-0.01,1.0,99.0,36.0,40.0,0.0,30.0,3187.0,,,305.0,,,,,0.0,0.0,,,,,,,-5.0,,,18.0,,,,,,,,,55.0,99.0,1118.0,1118.0,15.8,2.6,,2.6,23.4,,,14.6,0.0,0.0,71.9,7.3,5.7,,,,,138.0,491.0,144.0,503.0,139.0,519.0,141.0,530.0,,,11.0,2.1,,23.4,35.0,4.993,,,0.656,0.732,54.7,98.5,,,,,,1118.0,2026-03-18 16:39:18-07:00
110.06,1.0,10.0,2026-03-18 23:41:05,36.88887,-121.40332,259.0,0.1,329.7,-12.5,,,,,23:41:05,11.3,-0.6,113.9,0.0,132.0,-0.1,-0.0,0.9,99.0,36.0,40.0,0.0,30.0,3184.0,,,305.0,,,,,0.0,0.0,,,,,,,-5.0,,,18.0,,,,,,,,,55.0,99.0,1130.0,1130.0,16.6,2.6,,2.6,23.5,,,14.6,0.0,0.0,71.2,7.3,5.7,,,,,138.0,492.0,144.0,499.0,140.0,515.0,141.0,526.0,,,11.0,2.1,,23.5,35.0,4.993,,,0.656,0.74,54.8,98.6,,,,,,1130.0,2026-03-18 16:39:18-07:00
111.06,1.0,10.0,2026-03-18 23:41:06,36.88887,-121.40332,259.0,0.1,329.7,-12.5,,,,,23:41:06,11.3,-0.7,113.9,0.0,132.0,-0.0,-0.01,1.0,99.0,67.0,40.0,0.0,30.0,3184.0,,,305.0,,,,,0.0,0.0,,,,,,,-5.0,,,18.0,,,,,,,,,56.0,99.0,1173.0,1173.0,16.1,2.6,,2.6,23.7,,,14.6,0.0,0.0,71.7,7.3,5.7,,,,,139.0,500.0,145.0,509.0,140.0,523.0,141.0,527.0,,,11.0,2.1,,23.7,35.0,4.993,,,0.656,0.734,56.1,98.6,,,,,,1173.0,2026-03-18 16:39:18-07:00
112.06,1.0,10.0,2026-03-18 23:41:07,36.88887,-121.40332,259.0,0.1,329.7,-12.5,,,,,23:41:07,11.4,-0.7,113.9,0.0,132.0,-0.0,-0.01,0.9,99.0,52.0,40.0,0.0,30.0,3184.0,,,305.0,,,,,0.0,0.0,,,,,,,-5.0,,,18.0,,,,,,,,,55.0,99.0,1159.0,1159.0,15.9,2.7,,2.7,23.9,,,14.6,0.0,0.0,71.8,7.3,5.7,,,,,139.0,501.0,145.0,514.0,140.0,528.0,142.0,536.0,,,11.0,3.1,,23.9,35.0,4.993,,,0.656,0.729,54.9,98.6,,,,,,1159.0,2026-03-18 16:39:18-07:00
113.06,1.0,10.0,2026-03-18 23:41:08,36.88887,-121.40332,259.0,0.1,329.7,-12.5,,,,,23:41:08,11.4,-0.7,113.9,0.0,132.0,-0.0,-0.01,1.0,99.0,38.0,40.0,0.0,30.0,3184.0,,,305.0,,,,,0.0,0.0,,,,,,,-5.0,,,18.0,,,,,,,,,56.0,99.0,1132.0,1132.0,15.9,2.7,,2.7,23.8,,,14.6,0.0,0.0,71.9,7.3,5.7,,,,,139.0,511.0,145.0,524.0,140.0,523.0,142.0,546.0,,,11.0,3.1,,23.8,35.0,4.993,,,0.657,0.731,55.7,98.6,,,,,,1132.0,2026-03-18 16:39:18-07:00
114.06,1.0,10.0,2026-03-18 23:41:09,36.88888,-121.40332,260.0,0.1,329.7,-12.5,,,,,23:41:09,11.3,-0.6,113.8,0.0,133.0,-0.1,-0.01,1.0,99.0,68.0,40.0,0.0,30.0,3184.0,,,305.0,,,,,0.0,0.0,,,,,,,-5.0,,,18.0,,,,,,,,,57.0,98.0,1202.0,1202.0,15.1,2.8,,2.8,23.9,,,14.6,0.0,0.0,72.0,7.3,5.7,,,,,140.0,519.0,145.0,538.0,141.0,526.0,142.0,559.0,,,11.0,3.1,,23.9,35.0,4.993,,,0.656,0.736,57.3,98.4,,,,,,1202.0,2026-03-18 16:39:18-07:00
115.06,1.0,10.0,2026-03-18 23:41:10,36.88888,-121.40332,260.0,0.1,329.7,-12.5,,,,,23:41:10,11.3,-0.7,113.9,0.0,134.0,-0.1,-0.01,1.0,99.0,26.0,40.0,0.0,30.0,3184.0,,,305.0,,,,,0.0,0.0,,,,,,,-5.0,,,18.0,,,,,,,,,56.0,98.0,1177.0,1177.0,15.1,3.0,,3.0,24.1,,,14.6,0.0,0.0,68.4,7.3,5.7,,,,,140.0,531.0,145.0,551.0,141.0,539.0,142.0,566.0,,,11.0,3.1,,24.1,35.0,4.993,,,0.654,0.73,56.2,98.0,,,,,,1177.0,2026-03-18 16:39:18-07:00
116.06,1.0,10.0,2026-03-18 23:41:11,36.88888,-121.40332,260.0,0.0,329.7,-12.5,,,,,23:41:11,11.3,-0.8,114.0,0.0,134.0,-0.0,-0.01,1.0,99.0,28.0,40.0,0.0,30.0,3186.0,,,305.0,,,,,0.0,0.0,,,,,,,-5.0,,,18.0,,,,,,,,,58.0,98.0,1263.0,1263.0,14.6,3.1,,3.1,24.4,,,14.6,0.0,0.0,63.2,7.3,5.7,,,,,140.0,539.0,146.0,558.0,141.0,550.0,143.0,573.0,,,11.0,2.9,,24.4,35.0,4.993,,,0.654,0.73,58.5,97.6,,,,,,1263.0,2026-03-18 16:39:18-07:00
117.06,1.0,10.0,2026-03-18 23:41:12,36.88888,-121.40333,260.0,0.0,329.7,-12.5,,,,,23:41:12,11.3,-0.6,113.9,0.0,134.0,-0.0,-0.02,0.9,99.0,-7.0,40.0,0.0,30.0,3186.0,,,305.0,,,,,0.0,0.0,,,,,,,-5.0,,,18.0,,,,,,,,,56.0,97.0,1157.0,1157.0,14.3,3.1,,3.1,24.5,,,14.6,0.0,0.0,58.2,7.3,5.7,,,,,140.0,546.0,146.0,566.0,141.0,559.0,143.0,583.0,,,11.0,2.5,,24.5,35.0,4.993,,,0.653,0.731,55.9,97.3,,,,,,1157.0,2026-03-18 16:39:18-07:00
118.06,2.0,10.0,2026-03-18 23:41:13,36.88888,-121.40333,255.0,0.2,329.7,-12.5,,,,,23:41:13,11.4,-0.6,114.2,0.0,134.0,0.0,-0.0,1.0,99.0,30.0,40.0,0.0,30.0,3186.0,,,305.0,,,,,0.0,0.0,,,,,,,-5.0,,,18.0,,,,,,,,,56.0,97.0,1181.0,1181.0,14.8,3.2,,3.2,24.7,,,14.6,0.0,0.0,53.2,7.3,5.7,,,,,140.0,543.0,146.0,570.0,142.0,555.0,144.0,590.0,,,11.0,2.2,,24.7,35.0,4.993,,,0.654,0.729,56.2,97.1,,,,,,1181.0,2026-03-18 16:39:18-07:00
119.06,2.0,10.0,2026-03-18 23:41:14,36.88888,-121.40333,256.0,1.1,324.6,-12.5,,,,,23:41:14,11.7,-0.4,116.2,0.0,135.0,1.2,-0.0,1.0,99.0,21.0,40.0,0.0,30.0,3187.0,,,305.0,,,,,0.0,0.0,,,,,,,-5.0,,,18.0,,,,,,,,,56.0,97.0,1125.0,1125.0,14.2,3.1,,3.1,24.8,,,14.6,0.0,0.0,48.1,7.3,5.7,,,,,141.0,547.0,146.0,579.0,142.0,566.0,144.0,589.0,,,11.0,2.0,,24.8,35.0,4.993,,,0.656,0.734,56.0,96.8,,,,,,1125.0,2026-03-18 16:39:18-07:00
120.06,2.0,10.0,2026-03-18 23:41:15,36.88887,-121.40332,256.0,1.8,162.6,-12.5,,,,,23:41:15,11.9,-0.5,120.4,0.0,135.0,3.0,-0.01,1.0,99.0,-13.0,40.0,0.0,30.0,3187.0,,,305.0,,,,,0.0,0.0,,,,,,,-5.0,,,18.0,,,,,1.0,0.0,0.0,1200.0,56.0,97.0,1137.0,1137.0,14.6,3.1,,3.1,24.9,,,14.6,0.0,0.0,42.9,7.3,5.7,,,,,141.0,555.0,146.0,573.0,142.0,572.0,144.0,585.0,,,11.0,1.8,,24.9,35.0,4.993,,,0.654,0.734,55.9,96.5,,,,,,1137.0,2026-03-18 16:39:18-07:00
121.06,2.0,10.0,2026-03-18 23:41:16,36.88887,-121.40331,255.0,2.1,128.4,-12.5,,,,,23:41:16,12.1,-0.5,125.1,0.0,135.0,4.1,-0.02,1.0,99.0,-34.0,40.0,0.0,30.0,3184.0,,,305.0,,,,,0.0,0.0,,,,,,,-5.0,,,18.0,,,,,1.0,1.0,0.0,1200.0,56.0,96.0,1136.0,1136.0,14.2,3.1,,3.1,24.9,,,14.6,0.0,0.0,38.2,7.3,5.7,,,,,141.0,562.0,147.0,577.0,142.0,569.0,144.0,591.0,,,11.0,1.7,,24.9,35.0,4.993,,,0.653,0.732,55.8,96.3,,,,,,1136.0,2026-03-18 16:39:18-07:00
122.06,2.0,10.0,2026-03-18 23:41:17,36.88886,-121.4033,255.0,1.8,131.4,-12.5,,,,,23:41:17,11.9,-0.4,129.8,0.0,135.0,4.6,-0.02,1.0,99.0,-24.0,40.0,0.0,30.0,3184.0,,,305.0,,,,,0.0,0.0,,,,,,,-5.0,,,18.0,,,,,1.0,0.0,0.0,1200.0,53.0,96.0,1029.0,1029.0,14.3,3.2,,3.2,24.9,,,14.6,0.0,0.0,34.3,7.3,5.7,,,,,141.0,554.0,147.0,576.0,142.0,573.0,145.0,596.0,,,11.0,1.5,,24.9,35.0,4.993,,,0.657,0.731,52.8,96.1,,,,,,1029.0,2026-03-18 16:39:18-07:00
123.06,2.0,10.0,2026-03-18 23:41:18,36.88887,-121.40329,255.0,1.8,140.6,-12.5,,,,,23:41:18,11.8,-0.4,132.7,0.0,135.0,3.6,-0.02,0.9,99.0,-10.0,40.0,0.0,30.0,3184.0,,,305.0,,,,,0.0,0.0,,,,,,,-5.0,,,18.0,,,,,1.0,0.0,0.0,1200.0,54.0,96.0,1079.0,1079.0,14.5,3.1,,3.1,25.0,,,14.6,0.0,0.0,31.0,7.3,5.7,,,,,142.0,557.0,147.0,578.0,143.0,574.0,145.0,596.0,,,11.0,1.4,,25.0,35.0,4.993,,,0.654,0.728,53.5,96.0,,,,,,1079.0,2026-03-18 16:39:18-07:00
124.06,2.0,10.0,2026-03-18 23:41:19,36.88886,-121.40328,260.0,1.8,144.7,-12.5,,,,,23:41:19,12.0,-0.3,135.3,0.0,135.0,3.0,-0.01,0.9,99.0,-10.0,40.0,0.0,30.0,3178.0,,,305.0,,,,,0.0,0.0,,,,,,,-5.0,,,18.0,,,,,1.0,0.0,0.0,1200.0,56.0,96.0,1133.0,1133.0,13.8,3.1,,3.1,25.1,,,14.6,0.0,0.0,28.0,7.3,5.7,,,,,142.0,557.0,148.0,583.0,143.0,580.0,145.0,600.0,,,11.0,1.3,,25.1,35.0,4.993,,,0.653,0.732,55.7,95.8,,,,,,1133.0,2026-03-18 16:39:18-07:00
125.06,2.0,10.0,2026-03-18 23:41:20,36.88885,-121.40327,260.0,2.1,147.0,-12.5,,,,,23:41:20,11.9,-0.2,137.5,0.0,135.0,2.5,-0.01,1.0,99.0,-19.0,40.0,0.0,30.0,3178.0,,,305.0,,,,,0.0,0.0,,,,,,,-5.0,,,18.0,,,,,1.0,0.0,0.0,1200.0,53.0,96.0,1012.0,1012.0,14.1,3.1,,3.1,24.9,,,14.6,0.0,0.0,25.4,7.3,5.7,,,,,142.0,554.0,148.0,579.0,143.0,576.0,145.0,602.0,,,11.0,1.3,,24.9,35.0,4.993,,,0.654,0.73,53.0,95.7,,,,,,1012.0,2026-03-18 16:39:18-07:00
126.06,2.0,10.0,2026-03-18 23:41:21,36.88885,-121.40327,260.0,1.9,150.0,-12.5,,,,,23:41:21,11.7,-0.3,138.7,0.0,135.0,1.7,-0.01,1.0,99.0,-18.0,40.0,0.0,30.0,3178.0,,,305.0,,,,,0.0,0.0,,,,,,,-5.0,,,18.0,,,,,1.0,0.0,0.0,1200.0,54.0,96.0,1114.0,1114.0,14.4,3.1,,3.1,25.0,,,14.6,0.0,0.0,23.0,7.3,5.7,,,,,142.0,551.0,148.0,579.0,143.0,576.0,146.0,596.0,,,11.0,1.2,,25.0,35.0,4.993,,,0.654,0.729,54.4,95.6,,,,,,1114.0,2026-03-18 16:39:18-07:00
127.06,2.0,10.0,2026-03-18 23:41:22,36.88884,-121.40326,261.0,2.4,150.7,-12.5,,,,,23:41:22,11.4,-0.4,140.5,0.0,135.0,1.3,-0.01,0.9,99.0,-29.0,40.0,0.0,30.0,3175.0,,,305.0,,,,,0.0,0.0,,,,,,,-5.0,,,18.0,,,,,1.0,0.0,0.0,1200.0,55.0,96.0,1085.0,1085.0,13.6,3.1,,3.1,25.1,,,14.6,0.0,0.0,21.0,7.3,5.7,,,,,143.0,554.0,148.0,585.0,144.0,584.0,146.0,600.0,,,11.0,1.1,,25.1,35.0,4.993,,,0.653,0.73,54.8,95.5,,,,,,1085.0,2026-03-18 16:39:18-07:00
128.06,2.0,10.0,2026-03-18 23:41:23,36.88883,-121.40325,261.0,2.4,153.2,-12.5,,,,,23:41:23,10.2,-0.5,142.1,0.0,135.0,1.0,-0.01,1.1,99.0,18.0,40.0,0.0,30.0,3178.0,,,305.0,,,,,0.0,0.0,,,,,,,-5.0,,,18.0,,,,,1.0,0.0,0.0,1200.0,53.0,95.0,1076.0,1076.0,14.3,3.1,,3.1,25.0,,,14.6,0.0,0.0,19.2,7.3,5.7,,,,,143.0,556.0,148.0,576.0,144.0,575.0,146.0,600.0,,,11.0,1.1,,25.0,35.0,4.993,,,0.654,0.74,53.0,95.4,,,,,,1076.0,2026-03-18 16:39:18-07:00
129.06,2.0,10.0,2026-03-18 23:41:24,36.88882,-121.40325,261.0,2.2,155.7,-12.5,,,,,23:41:24,10.0,-0.4,142.8,0.0,135.0,0.3,-0.01,0.9,99.0,31.0,40.0,0.0,30.0,3178.0,,,305.0,,,,,0.0,0.0,,,,,,,-5.0,,,18.0,,,,,1.0,0.0,0.0,1200.0,56.0,95.0,1141.0,1141.0,13.9,3.1,,3.1,25.1,,,14.6,0.0,0.0,17.6,7.3,5.7,,,,,143.0,557.0,148.0,580.0,144.0,574.0,147.0,605.0,,,11.0,1.1,,25.1,35.0,4.993,,,0.654,0.734,55.5,95.3,,,,,,1141.0,2026-03-18 16:39:18-07:00
130.06,2.0,10.0,2026-03-18 23:41:25,36.88881,-121.40324,260.0,2.3,156.7,-12.5,,,,,23:41:25,10.4,-0.5,142.7,0.0,135.0,-0.4,-0.01,1.0,99.0,59.0,40.0,0.0,30.0,3178.0,,,305.0,,,,,0.0,0.0,,,,,,,-5.0,,,18.0,,,,,1.0,0.0,0.0,1200.0,53.0,95.0,1062.0,1062.0,14.1,3.0,,3.0,24.7,,,14.6,0.0,0.0,16.3,7.3,5.7,,,,,143.0,557.0,149.0,571.0,144.0,564.0,147.0,606.0,,,11.0,1.1,,24.7,35.0,4.993,,,0.653,0.729,53.5,95.2,,,,,,1062.0,2026-03-18 16:39:18-07:00
131.06,2.0,10.0,2026-03-18 23:41:26,36.8888,-121.40324,261.0,2.5,157.5,-12.5,,,,,23:41:26,10.6,-0.4,141.3,0.0,135.0,-1.2,-0.01,0.9,99.0,33.0,40.0,0.0,30.0,3175.0,,,305.0,,,,,0.0,0.0,,,,,,,-5.0,,,18.0,,,,,1.0,1.0,0.0,1200.0,54.0,95.0,1091.0,1091.0,14.1,3.1,,3.1,25.0,,,14.6,0.0,0.0,14.7,7.3,5.7,,,,,143.0,556.0,149.0,574.0,145.0,567.0,147.0,609.0,,,11.0,1.1,,25.0,35.0,4.993,,,0.653,0.729,54.4,95.1,,,,,,1091.0,2026-03-18 16:39:18-07:00
132.06,2.0,10.0,2026-03-18 23:41:27,36.88879,-121.40324,261.0,2.7,156.9,-12.5,,,,,23:41:27,10.7,-0.7,139.3,0.0,135.0,-1.9,-0.01,0.9,99.0,-5.0,40.0,0.0,30.0,3175.0,,,305.0,,,,,0.0,0.0,,,,,,,-8.0,,,18.0,,,,,1.0,0.0,0.0,1200.0,55.0,95.0,1124.0,1124.0,13.8,3.0,,3.0,25.0,,,14.6,0.0,0.0,13.8,7.3,5.7,,,,,144.0,560.0,149.0,580.0,145.0,572.0,147.0,612.0,,,11.0,1.1,,25.0,35.0,4.993,,,0.654,0.734,55.2,95.1,,,,,,1124.0,2026-03-18 16:39:18-07:00
133.06,2.0,10.0,2026-03-18 23:41:28,36.88877,-121.40324,260.0,3.1,155.3,-12.5,,,,,23:41:28,10.8,-0.4,136.8,0.0,135.0,-2.3,0.0,1.0,99.0,3.0,40.0,0.0,30.0,3175.0,,,305.0,,,,,0.0,0.0,,,,,,,4.0,,,18.0,,,,,1.0,0.0,0.0,1200.0,55.0,95.0,1122.0,1122.0,13.7,3.0,,3.0,25.1,,,14.6,0.0,0.0,13.0,7.3,5.7,,,,,144.0,563.0,150.0,584.0,145.0,574.0,148.0,612.0,,,11.0,1.0,,25.1,35.0,4.993,,,0.654,0.731,55.4,95.0,,,,,,1122.0,2026-03-18 16:39:18-07:00
134.06,2.0,10.0,2026-03-18 23:41:29,36.88876,-121.40322,260.0,3.4,151.3,-12.5,,,,,23:41:29,10.9,-0.4,134.6,0.0,135.0,-2.3,0.0,1.0,99.0,-20.0,40.0,0.0,30.0,3175.0,,,305.0,,,,,0.0,0.0,,,,,,,4.0,,,18.0,,,,,1.0,0.0,0.0,1200.0,55.0,95.0,1066.0,1066.0,13.9,3.0,,3.0,25.1,,,14.6,0.0,0.0,12.1,7.3,5.7,,,,,144.0,569.0,150.0,586.0,145.0,576.0,148.0,610.0,,,11.0,1.0,,25.1,35.0,4.993,,,0.654,0.734,54.7,94.9,,,,,,1066.0,2026-03-18 16:39:18-07:00
135.06,2.0,10.0,2026-03-18 23:41:30,36.88874,-121.40321,260.0,3.4,148.6,-12.5,,,,,23:41:30,10.9,-0.6,132.8,0.0,135.0,-2.0,-0.0,1.0,99.0,-25.0,40.0,0.0,30.0,3175.0,,,305.0,,,,,0.0,0.0,,,,,,,4.0,,,18.0,,,,,1.0,0.0,0.0,1200.0,54.0,95.0,1088.0,1088.0,13.9,3.0,,3.0,25.0,,,14.6,0.0,0.0,11.2,7.3,5.7,,,,,145.0,573.0,150.0,589.0,146.0,569.0,148.0,604.0,,,6.0,1.0,,25.0,35.0,4.993,,,0.654,0.731,54.3,94.9,,,,,,1088.0,2026-03-18 16:39:18-07:00
136.06,2.0,10.0,2026-03-18 23:41:31,36.88873,-121.40321,259.0,3.3,146.4,-12.5,,,,,23:41:31,10.9,-0.8,131.6,0.0,135.0,-1.7,-0.01,0.9,99.0,-21.0,40.0,0.0,30.0,3175.0,,,305.0,,,,,0.0,0.0,,,,,,,4.0,,,18.0,,,,,1.0,1.0,0.0,1200.0,54.0,95.0,1091.0,1091.0,14.4,3.0,,3.0,25.1,,,14.6,0.0,0.0,10.6,7.3,5.7,,,,,145.0,570.0,150.0,589.0,146.0,561.0,149.0,601.0,,,-5.0,1.0,,25.1,35.0,4.993,,,0.653,0.732,53.7,94.8,,,,,,1091.0,2026-03-18 16:39:18-07:00
137.06,2.0,10.0,2026-03-18 23:41:32,36.88872,-121.40319,259.0,3.1,144.5,-12.5,,,,,23:41:32,11.2,-0.8,131.0,0.0,135.0,-1.0,-0.01,1.1,99.0,-13.0,40.0,0.0,30.0,3175.0,,,305.0,,,,,0.0,0.0,,,,,,,4.0,,,18.0,,,,,1.0,0.0,0.0,1200.0,54.0,95.0,1045.0,1045.0,14.4,3.0,,3.0,25.1,,,14.6,0.0,0.0,10.0,7.3,5.7,,,,,145.0,565.0,150.0,589.0,146.0,561.0,149.0,596.0,,,-17.0,1.0,,25.1,35.0,4.993,,,0.653,0.73,53.6,94.8,,,,,,1045.0,2026-03-18 16:39:18-07:00
138.06,2.0,10.0,2026-03-18 23:41:33,36.88871,-121.40318,259.0,3.4,143.0,-12.5,,,,,23:41:33,11.3,-0.7,130.6,0.0,135.0,-0.6,-0.01,1.0,99.0,-8.0,40.0,0.0,30.0,3175.0,,,305.0,,,,,0.0,0.0,,,,,,,4.0,,,18.0,,,,,1.0,0.0,0.0,1200.0,55.0,95.0,1112.0,1112.0,14.3,3.0,,3.0,25.1,,,14.6,0.0,0.0,9.5,7.3,5.7,,,,,145.0,562.0,151.0,582.0,146.0,569.0,149.0,602.0,,,-29.0,1.0,,25.1,35.0,4.993,,,0.653,0.73,54.6,94.8,,,,,,1112.0,2026-03-18 16:39:18-07:00
139.06,2.0,10.0,2026-03-18 23:41:34,36.88869,-121.40317,260.0,3.4,143.5,-12.5,,,,,23:41:34,11.3,-0.7,130.2,0.0,135.0,-0.5,-0.01,1.1,99.0,-27.0,40.0,0.0,30.0,3175.0,,,305.0,,,,,0.0,0.0,,,,,,,4.0,,,18.0,,,,,1.0,0.0,0.0,1200.0,55.0,95.0,1122.0,1122.0,14.0,2.9,,2.9,25.0,,,14.6,0.0,0.0,9.0,7.3,5.7,,,,,145.0,567.0,151.0,586.0,147.0,562.0,149.0,598.0,,,-33.0,1.0,,25.0,35.0,4.993,,,0.654,0.735,55.4,94.7,,,,,,1122.0,2026-03-18 16:39:18-07:00
140.06,2.0,10.0,2026-03-18 23:41:35,36.88868,-121.40315,260.0,3.3,141.5,-12.5,,,,,23:41:35,11.3,-0.6,130.3,0.0,135.0,-0.2,-0.01,1.0,99.0,-4.0,40.0,0.0,30.0,3175.0,,,305.0,,,,,0.0,0.0,,,,,,,4.0,,,18.0,,,,,1.0,0.0,0.0,1200.0,54.0,95.0,1102.0,1102.0,13.9,2.9,,2.9,25.0,,,14.6,0.0,0.0,8.6,7.3,5.7,,,,,146.0,573.0,151.0,589.0,147.0,551.0,150.0,601.0,,,-33.0,1.0,,25.0,35.0,4.993,,,0.654,0.734,54.3,94.7,,,,,,1102.0,2026-03-18 16:39:18-07:00
141.06,2.0,10.0,2026-03-18 23:41:36,36.88867,-121.40314,260.0,3.7,141.8,-12.5,,,,,23:41:36,11.4,-0.6,130.7,0.0,135.0,0.2,-0.01,1.0,99.0,13.0,40.0,0.0,30.0,3171.0,,,305.0,,,,,0.0,0.0,,,,,,,4.0,,,18.0,,,,,1.0,0.0,0.0,1200.0,58.0,95.0,1269.0,1269.0,14.1,2.9,,2.9,24.6,,,14.6,0.0,0.0,8.3,7.3,5.7,,,,,146.0,579.0,152.0,593.0,147.0,565.0,150.0,608.0,,,-33.0,1.0,,24.6,35.0,4.993,,,0.653,0.735,58.3,94.7,,,,,,1269.0,2026-03-18 16:39:18-07:00
142.06,2.0,10.0,2026-03-18 23:41:37,36.88865,-121.40313,260.0,4.1,143.5,-12.5,,,,,23:41:37,11.5,-0.7,131.2,0.0,135.0,0.4,-0.01,1.1,99.0,-7.0,40.0,0.0,30.0,3171.0,,,305.0,,,,,0.0,0.0,,,,,,,4.0,,,18.0,,,,,1.0,0.0,0.0,1200.0,58.0,95.0,1251.0,1251.0,13.5,3.0,,3.0,24.9,,,14.6,0.0,0.0,8.0,7.3,5.7,,,,,146.0,587.0,152.0,600.0,147.0,576.0,150.0,616.0,,,-33.0,1.0,,24.9,35.0,4.993,,,0.653,0.731,58.3,94.6,,,,,,1251.0,2026-03-18 16:39:18-07:00
