Session Time,GPS Fix Quality,Number of Satellites,GPS Date & Time,Latitude (deg),Longitude (deg),GPS Altitude (feet),Ground Speed (knots),Ground Track (deg),Mag Var (deg),Cross Track Error (NM),Destination Waypoint ID,Range to Destination (NM),Bearing to Destination (deg),System Time,Pitch (deg),Roll (deg),Magnetic Heading (deg),Indicated Airspeed (knots),Pressure Altitude (ft),Turn Rate (deg/s),Lateral Accel (g),Vertical Accel(g),Angle of Attack (%),Vertical Speed (ft/min),OAT (deg C),True Airspeed (knots),Barometer Setting (inHg),Density Altitude (ft),Wind Direction (deg),Wind Speed (knots),Heading Bug (deg),Altitude Bug (ft),Airspeed Bug (knots),Vertical Speed Bug (ft/min),Course (deg),CDI Source Type,CDI Source Port,CDI Scale (NM),CDI Deflection (%),Glideslope (%),AP Engaged,AP Roll Mode,AP Roll Force,AP Roll Position (steps),AP Roll Slip (bool),AP Pitch Force,AP Pitch Position (steps),AP Pitch Slip (bool),AP Yaw Force,AP Yaw Position,AP Yaw Slip (bool),Transponder Status,Transponder Reply (bool),Transponder Identing (bool),Transponder Code (octal),Oil Pressure (PSI),Oil Temp (deg C),RPM L,RPM R,Manifold Pressure (inHg),Fuel Flow 1 (gal/hr),Fuel Flow 2 (gal/hr),Total Fuel Flow (gal/hr),Fuel Pressure (PSI),Fuel Level L (gal),Fuel Level R (gal),Fuel Remaining (gal),Volts 1,Volts 2,Amps,Hobbs Time,Tach Time,Thermocouple 1 (deg C),Thermocouple 2 (deg C),Thermocouple 3 (deg C),Thermocouple 4 (deg C),CHT 4 (deg C),EGT 4 (deg C),CHT 3 (deg C),EGT 3 (deg C),CHT 2 (deg C),EGT 2 (deg C),CHT 1 (deg C),EGT 1 (deg C),Thermocouple 13 (deg C),Thermocouple 14 (deg C),ELEV POSITION (%),CO PPM PRESSURE (PSI),GP Input 3,FUEL PRESSURE (PSI),AILERN POSITION (%),CANOPY CONTACT (V),GP Input 7,GP Input 8,LEFT LEVEL (Sensor V),RIGHT LEVEL (Sensor V),OIL PRESSURE (PSI),OIL TEMPERATURE (deg C),GP Input 13,Contacts,Percent Power,EGT Leaning State,Unnamed: 103,RPM,Flight ID
0.06,1.0,9.0,2026-01-10 20:11:22,37.08152,-121.59966,334.0,0.5,153.0,-12.7,,,,,20:11:22,,,,,,,,,,,13.0,,,,,,241.0,,110.0,0.0,,0.0,0.0,,,,,,,,,,,,,,,,,,,,,,,,,,,,,,38.0,,,,0.6,0.2,,,,,,,,,,,,,,,,,,,,,,,,,,,,,,,,,2026-01-10 12:11:22-08:00
1.06,1.0,9.0,2026-01-10 20:11:23,37.08152,-121.59965,334.0,0.0,153.0,-12.6,,,,,20:11:22,10.9,-0.9,55.9,0.0,-207.0,0.0,-0.02,1.0,,-72.0,13.0,0.0,29.88,-535.0,,,241.0,,110.0,0.0,,0.0,0.0,,,,,,,,,,,,,,,,,,,,,0.0,0.0,,,,0.0,,,,38.0,0.0,0.0,-0.2,0.6,0.2,,,,,8.0,13.0,9.0,15.0,9.0,13.0,9.0,16.0,,,-2.0,254.5,,0.0,3.0,0.0,,,0.653,0.837,0.0,56.1,,,,,,0.0,2026-01-10 12:11:22-08:00
2.06,1.0,9.0,2026-01-10 20:11:24,37.08152,-121.59965,334.0,0.0,153.0,-12.6,,,,,20:11:23,10.8,-0.9,55.9,0.0,-209.0,-0.0,-0.02,1.0,,-98.0,13.0,0.0,29.88,-535.0,,,241.0,,110.0,0.0,,0.0,0.0,,,,,,,,,,,,,,,,,,,,,0.0,0.0,,,,0.0,,,,38.0,0.0,0.0,-0.2,0.6,0.2,,,,,8.0,13.0,9.0,15.0,9.0,13.0,9.0,16.0,,,-2.0,254.5,,0.0,3.0,0.0,,,0.653,0.837,0.0,56.1,,,,,,0.0,2026-01-10 12:11:22-08:00
3.06,1.0,9.0,2026-01-10 20:11:25,37.08153,-121.59965,333.0,0.0,153.0,-12.6,,,,,20:11:24,10.8,-0.9,56.0,0.0,-210.0,0.0,-0.02,1.0,,-83.0,13.0,0.0,29.88,-535.0,,,241.0,,110.0,0.0,,0.0,0.0,,,,,,,,,,,,,,,,,,,,,0.0,0.0,,,,0.0,,,,38.0,0.0,0.0,-0.2,0.6,0.2,,,,,8.0,13.0,9.0,15.0,9.0,13.0,9.0,16.0,,,-2.0,254.5,,0.0,3.0,0.0,,,0.653,0.837,0.0,8.4,,,,,,0.0,2026-01-10 12:11:22-08:00
4.06,1.0,9.0,2026-01-10 20:11:27,37.08153,-121.59964,333.0,0.0,153.0,-12.6,,,,,20:11:26,10.9,-0.9,56.0,0.0,-212.0,0.0,-0.02,1.0,,-76.0,13.0,0.0,29.88,-531.0,,,241.0,,110.0,0.0,,0.0,0.0,,,,,,,,,,,,,,,,,,,,,0.0,0.0,,0.0,,0.0,,,,38.0,0.0,0.0,-0.2,0.6,0.2,,,,,8.0,13.0,9.0,16.0,9.0,13.0,9.0,16.0,,,-2.0,254.5,,0.0,3.0,0.0,,,0.653,0.836,0.0,8.4,,,,,,0.0,2026-01-10 12:11:22-08:00
5.06,1.0,9.0,2026-01-10 20:11:27,37.08153,-121.59964,333.0,0.0,153.0,-12.6,,,,,20:11:26,10.9,-0.9,56.0,0.0,-212.0,0.0,-0.02,1.0,,-73.0,13.0,0.0,29.88,-531.0,,,241.0,,,,,0.0,0.0,,,,,,,,,,,,,,,,,,,0.0,8.0,0.0,0.0,30.6,0.0,,0.0,0.0,,,38.0,0.0,0.0,-0.2,0.6,0.2,,,,,8.0,13.0,9.0,16.0,9.0,13.0,9.0,16.0,,,-2.0,254.5,,0.0,3.0,0.0,,,0.653,0.836,0.0,8.4,,,,,,0.0,2026-01-10 12:11:22-08:00
6.06,1.0,9.0,2026-01-10 20:11:28,37.08154,-121.59964,333.0,0.1,153.0,-12.6,,,,,20:11:27,10.9,-1.0,56.0,0.0,-212.0,0.0,-0.02,1.0,,-43.0,13.0,0.0,29.88,-531.0,,,241.0,,,,,0.0,0.0,,,,,,,,,,,,,,,,,,,0.0,8.0,0.0,0.0,30.6,0.0,,0.0,0.0,,,38.0,0.0,0.0,-0.2,0.6,0.2,,,,,8.0,13.0,9.0,15.0,9.0,13.0,9.0,16.0,,,-2.0,254.5,,0.0,3.0,0.0,,,0.653,0.836,0.0,8.4,,,,,,0.0,2026-01-10 12:11:22-08:00
7.06,1.0,9.0,2026-01-10 20:11:29,37.08154,-121.59963,333.0,0.0,153.0,-12.6,,,,,20:11:28,10.9,-1.0,55.9,0.0,-212.0,0.0,-0.02,1.0,,-12.0,13.0,0.0,29.88,-533.0,,,241.0,,,,,0.0,0.0,,,,,,,,,,,,,,,,,,,0.0,8.0,0.0,0.0,30.6,0.0,,0.0,0.0,,,38.0,0.0,0.0,-0.2,0.6,0.2,,,,,8.0,13.0,9.0,15.0,9.0,13.0,9.0,16.0,,,-2.0,254.5,,0.0,3.0,0.0,,,0.653,0.836,0.0,8.4,,,,,,0.0,2026-01-10 12:11:22-08:00
8.06,1.0,9.0,2026-01-10 20:11:30,37.08154,-121.59963,333.0,0.0,153.0,-12.6,,,,,20:11:29,10.9,-1.0,55.9,0.0,-212.0,0.0,-0.02,1.0,,15.0,13.0,0.0,29.88,-532.0,,,241.0,,,,,0.0,0.0,,,,,,,,,,,,,,,,,,,0.0,8.0,0.0,0.0,30.6,0.0,,0.0,0.0,,,38.0,0.0,0.0,-0.2,0.6,0.2,,,,,8.0,13.0,9.0,15.0,9.0,13.0,9.0,16.0,,,-2.0,254.5,,0.0,3.0,0.0,,,0.653,0.836,0.0,8.4,,,,,,0.0,2026-01-10 12:11:22-08:00
9.06,1.0,9.0,2026-01-10 20:11:31,37.08154,-121.59963,333.0,0.0,153.0,-12.6,,,,,20:11:30,11.0,-0.9,55.9,0.0,-212.0,0.0,-0.02,1.0,,32.0,13.0,0.0,29.88,-532.0,,,241.0,,,,,0.0,0.0,,,,,,,,,,,,,,,,,,,0.0,8.0,0.0,0.0,30.6,0.0,,0.0,0.0,,,38.0,0.0,0.0,-0.2,0.6,0.2,,,,,9.0,13.0,9.0,16.0,9.0,13.0,9.0,16.0,,,-2.0,254.5,,0.0,3.0,0.0,,,0.653,0.835,0.0,8.4,,,,,,0.0,2026-01-10 12:11:22-08:00
10.06,1.0,9.0,2026-01-10 20:11:32,37.08155,-121.59963,332.0,0.0,153.0,-12.6,,,,,20:11:31,11.0,-0.9,55.8,0.0,-212.0,0.0,-0.02,1.0,,25.0,13.0,0.0,29.88,-532.0,,,241.0,,,,,0.0,0.0,,,,,,,,,,,,,,,,,,,0.0,8.0,0.0,0.0,30.6,0.0,,0.0,0.0,,,38.0,0.0,0.0,-0.2,0.6,0.2,,,,,8.0,13.0,9.0,15.0,9.0,13.0,9.0,16.0,,,-2.0,254.5,,0.0,3.0,0.0,,,0.653,0.835,0.0,8.4,,,,,,0.0,2026-01-10 12:11:22-08:00
11.06,1.0,9.0,2026-01-10 20:11:33,37.08155,-121.59963,331.0,0.0,153.0,-12.6,,,,,20:11:32,11.0,-1.0,55.9,0.0,-212.0,0.0,-0.02,1.0,,20.0,13.0,0.0,29.88,-522.0,,,241.0,,,,,0.0,0.0,,,,,,,,,,,,,,,,,,,0.0,8.0,0.0,0.0,30.6,0.0,,0.0,0.0,,,38.0,0.0,0.0,-0.2,0.6,0.2,,,,,8.0,13.0,9.0,15.0,9.0,13.0,9.0,16.0,,,-2.0,254.5,,0.0,3.0,0.0,,,0.653,0.835,0.0,8.4,,,,,,0.0,2026-01-10 12:11:22-08:00
12.06,1.0,9.0,2026-01-10 20:11:34,37.08155,-121.59963,331.0,0.0,153.0,-12.6,,,,,20:11:33,11.0,-1.0,55.8,0.0,-212.0,0.0,-0.02,1.0,,-11.0,13.0,0.0,29.88,-522.0,,,241.0,,,,,0.0,0.0,,,,,,,,,,,,,,,,,,,0.0,8.0,0.0,0.0,30.6,0.0,,0.0,0.0,,,38.0,0.0,0.0,-0.2,0.6,0.2,,,,,8.0,13.0,9.0,15.0,9.0,13.0,9.0,16.0,,,-2.0,254.5,,0.0,3.0,0.0,,,0.653,0.835,0.0,8.4,,,,,,0.0,2026-01-10 12:11:22-08:00
13.06,1.0,9.0,2026-01-10 20:11:35,37.08155,-121.59963,330.0,0.0,153.0,-12.6,,,,,20:11:34,11.0,-1.0,55.7,0.0,-212.0,-0.0,-0.02,1.0,,-10.0,13.0,0.0,29.88,-522.0,,,241.0,,,,,0.0,0.0,,,,,,,,,,,,,,,,,,,0.0,8.0,0.0,0.0,30.6,0.0,,0.0,0.0,,,38.0,0.0,0.0,-0.2,0.6,0.2,,,,,9.0,13.0,9.0,15.0,9.0,13.0,10.0,16.0,,,-2.0,254.5,,0.0,3.0,0.0,,,0.653,0.835,0.0,8.4,,,,,,0.0,2026-01-10 12:11:22-08:00
14.06,1.0,9.0,2026-01-10 20:11:36,37.08155,-121.59963,329.0,0.0,153.0,-12.6,,,,,20:11:35,11.0,-1.0,55.7,0.0,-212.0,-0.0,-0.02,1.0,,-19.0,13.0,0.0,29.88,-522.0,,,241.0,,,,,0.0,0.0,,,,,,,,,,,,,,,,,,,0.0,8.0,0.0,0.0,30.6,0.0,,0.0,0.0,,,38.0,0.0,0.0,-0.2,0.6,0.2,,,,,9.0,13.0,9.0,15.0,9.0,13.0,9.0,16.0,,,-2.0,254.5,,0.0,3.0,0.0,,,0.653,0.834,0.0,8.4,,,,,,0.0,2026-01-10 12:11:22-08:00
15.06,1.0,9.0,2026-01-10 20:11:37,37.08155,-121.59963,329.0,0.0,153.0,-12.6,,,,,20:11:36,11.0,-1.0,55.7,0.0,-214.0,-0.0,-0.02,1.0,,-75.0,13.0,0.0,29.88,-522.0,,,241.0,,,,,0.0,0.0,,,,,,,,,,,,,,,,,,,0.0,8.0,0.0,0.0,30.6,0.0,,0.0,0.0,,,38.0,0.0,0.0,-0.2,0.6,0.2,,,,,9.0,13.0,9.0,15.0,9.0,13.0,9.0,16.0,,,-2.0,254.5,,0.0,3.0,0.0,,,0.653,0.835,0.0,8.4,,,,,,0.0,2026-01-10 12:11:22-08:00
16.06,1.0,9.0,2026-01-10 20:11:38,37.08156,-121.59963,328.0,0.0,153.0,-12.6,,,,,20:11:37,11.0,-1.0,55.6,0.0,-216.0,0.0,-0.02,1.0,,-95.0,13.0,0.0,29.88,-522.0,,,241.0,,,,,0.0,0.0,,,,,,,,,,,,,,,,,,,0.0,8.0,0.0,0.0,30.6,0.0,,0.0,0.0,,,38.0,0.0,0.0,-0.2,0.6,0.2,,,,,9.0,13.0,9.0,16.0,9.0,14.0,10.0,17.0,,,-2.0,254.5,,0.0,3.0,0.0,,,0.653,0.834,0.0,8.4,,,,,,0.0,2026-01-10 12:11:22-08:00
17.06,1.0,9.0,2026-01-10 20:11:39,37.08156,-121.59963,327.0,0.0,153.0,-12.6,,,,,20:11:38,11.0,-1.0,55.7,0.0,-217.0,-0.0,-0.02,1.0,,-92.0,13.0,0.0,29.88,-522.0,,,241.0,,,,,0.0,0.0,,,,,,,,,,,,,,,,,,,0.0,8.0,0.0,0.0,30.6,0.0,,0.0,0.0,,,38.0,0.0,0.0,-0.2,0.6,0.2,,,,,9.0,13.0,9.0,16.0,9.0,13.0,9.0,16.0,,,-2.0,254.5,,0.0,3.0,0.0,,,0.653,0.834,0.0,8.4,,,,,,0.0,2026-01-10 12:11:22-08:00
18.06,1.0,9.0,2026-01-10 20:11:40,37.08156,-121.59963,327.0,0.0,153.0,-12.6,,,,,20:11:39,11.0,-1.0,55.6,0.0,-219.0,-0.0,-0.02,1.0,,-89.0,13.0,0.0,29.88,-518.0,,,241.0,,,,,0.0,0.0,,,,,,,,,,,,,,,,,,,0.0,8.0,0.0,0.0,30.6,0.0,,0.0,0.0,,,38.0,0.0,0.0,-0.2,0.6,0.2,,,,,9.0,13.0,9.0,16.0,9.0,13.0,10.0,16.0,,,-2.0,254.5,,0.0,3.0,0.0,,,0.653,0.834,0.0,8.4,,,,,,0.0,2026-01-10 12:11:22-08:00
19.06,1.0,9.0,2026-01-10 20:11:41,37.08156,-121.59963,327.0,0.0,153.0,-12.6,,,,,20:11:40,11.0,-1.0,55.7,0.0,-221.0,0.0,-0.02,1.0,,-129.0,13.0,0.0,29.88,-518.0,,,241.0,,,,,0.0,0.0,,,,,,,,,,,,,,,,,,,0.0,8.0,0.0,0.0,30.6,0.0,,0.0,0.0,,,38.0,0.0,0.0,-0.2,0.6,0.2,,,,,9.0,13.0,9.0,16.0,9.0,14.0,10.0,17.0,,,-2.0,254.5,,0.0,3.0,0.0,,,0.653,0.834,0.0,8.4,,,,,,0.0,2026-01-10 12:11:22-08:00
20.06,1.0,9.0,2026-01-10 20:11:42,37.08156,-121.59963,327.0,0.0,153.0,-12.6,,,,,20:11:41,11.0,-1.1,55.7,0.0,-223.0,0.0,-0.02,1.0,,-110.0,13.0,0.0,29.88,-518.0,,,241.0,,,,,0.0,0.0,,,,,,,,,,,,,,,,,,,0.0,8.0,0.0,0.0,30.6,0.0,,0.0,0.0,,,38.0,0.0,0.0,-0.2,0.6,0.2,,,,,9.0,13.0,9.0,16.0,9.0,13.0,9.0,16.0,,,-2.0,254.5,,0.0,3.0,0.0,,,0.653,0.834,0.0,8.5,,,,,,0.0,2026-01-10 12:11:22-08:00
21.06,1.0,9.0,2026-01-10 20:11:43,37.08156,-121.59963,326.0,0.0,153.0,-12.6,,,,,20:11:42,11.0,-1.1,55.7,0.0,-226.0,0.0,-0.02,1.0,,-122.0,13.0,0.0,29.88,-515.0,,,241.0,,,,,0.0,0.0,,,,,,,,,,,,,,,,,,,0.0,8.0,0.0,0.0,30.6,0.0,,0.0,0.0,,,38.0,0.0,0.0,-0.2,0.6,0.2,,,,,9.0,13.0,9.0,16.0,9.0,13.0,10.0,16.0,,,-2.0,254.5,,0.0,3.0,0.0,,,0.653,0.834,0.0,8.5,,,,,,0.0,2026-01-10 12:11:22-08:00
22.06,1.0,9.0,2026-01-10 20:11:44,37.08156,-121.59963,326.0,0.0,153.0,-12.6,,,,,20:11:43,11.0,-1.1,55.7,0.0,-226.0,0.0,-0.02,1.0,,-114.0,13.0,0.0,29.88,-515.0,,,241.0,,,,,0.0,0.0,,,,,,,,,,,,,,,,,,,0.0,8.0,0.0,0.0,30.6,0.0,,0.0,0.0,,,38.0,0.0,0.0,-0.2,0.6,0.2,,,,,9.0,13.0,9.0,16.0,9.0,13.0,9.0,16.0,,,-2.0,254.5,,0.0,3.0,0.0,,,0.653,0.834,0.0,8.5,,,,,,0.0,2026-01-10 12:11:22-08:00
23.06,1.0,9.0,2026-01-10 20:11:45,37.08156,-121.59964,326.0,0.0,153.0,-12.6,,,,,20:11:44,11.0,-1.1,55.7,0.0,-227.0,0.0,-0.02,1.0,,-85.0,13.0,0.0,29.88,-515.0,,,241.0,,,,,0.0,0.0,,,,,,,,,,,,,,,,,,,0.0,8.0,0.0,0.0,30.6,0.0,,0.0,0.0,,,38.0,0.0,0.0,-0.2,0.6,0.2,,,,,9.0,13.0,9.0,16.0,9.0,13.0,10.0,16.0,,,-2.0,254.5,,0.0,3.0,0.0,,,0.653,0.833,0.0,8.5,,,,,,0.0,2026-01-10 12:11:22-08:00
24.06,1.0,9.0,2026-01-10 20:11:46,37.08156,-121.59964,325.0,0.0,153.0,-12.6,,,,,20:11:45,11.0,-1.1,55.7,0.0,-231.0,0.0,-0.02,1.0,,-145.0,13.0,0.0,29.88,-522.0,,,241.0,,,,,0.0,0.0,,,,,,,,,,,,,,,,,,,0.0,8.0,0.0,0.0,30.6,0.0,,0.0,0.0,,,38.0,0.0,0.0,-0.2,0.6,0.2,,,,,9.0,13.0,9.0,16.0,9.0,13.0,9.0,17.0,,,-2.0,254.5,,0.0,3.0,0.0,,,0.653,0.833,0.0,8.5,,,,,,0.0,2026-01-10 12:11:22-08:00
25.06,1.0,9.0,2026-01-10 20:11:47,37.08156,-121.59964,325.0,0.0,153.0,-12.6,,,,,20:11:46,11.0,-1.1,55.6,0.0,-233.0,0.0,-0.02,1.0,,-131.0,13.0,0.0,29.88,-522.0,,,241.0,,,,,0.0,0.0,,,,,,,,,,,,,,,,,,,0.0,8.0,0.0,0.0,30.6,0.0,,0.0,0.0,,,38.0,0.0,0.0,-0.2,0.6,0.2,,,,,9.0,13.0,9.0,16.0,9.0,14.0,10.0,17.0,,,-2.0,254.5,,0.0,3.0,0.0,,,0.653,0.833,0.0,8.5,,,,,,0.0,2026-01-10 12:11:22-08:00
26.06,1.0,9.0,2026-01-10 20:11:48,37.08156,-121.59964,325.0,0.0,153.0,-12.6,,,,,20:11:47,11.0,-1.1,55.6,0.0,-235.0,-0.0,-0.02,1.0,,-126.0,13.0,0.0,29.88,-522.0,,,241.0,,,,,0.0,0.0,,,,,,,,,,,,,,,,,,,0.0,8.0,0.0,0.0,30.6,0.0,,0.0,0.0,,,38.0,0.0,0.0,-0.2,0.6,0.2,,,,,9.0,13.0,9.0,16.0,9.0,13.0,9.0,17.0,,,-2.0,254.5,,0.0,3.0,0.0,,,0.653,0.833,0.0,8.5,,,,,,0.0,2026-01-10 12:11:22-08:00
27.06,1.0,9.0,2026-01-10 20:11:49,37.08156,-121.59964,325.0,0.0,153.0,-12.6,,,,,20:11:48,11.0,-1.1,55.6,0.0,-236.0,0.0,-0.02,1.0,,-102.0,13.0,0.0,29.88,-529.0,,,241.0,,,,,0.0,0.0,,,,,,,,,,,,,,,,,,,0.0,8.0,0.0,0.0,30.6,0.0,,0.0,0.0,,,38.0,0.0,0.0,-0.2,0.6,0.2,,,,,9.0,13.0,9.0,16.0,9.0,13.0,9.0,17.0,,,-2.0,254.5,,0.0,3.0,0.0,,,0.653,0.833,0.0,8.5,,,,,,0.0,2026-01-10 12:11:22-08:00
28.06,1.0,9.0,2026-01-10 20:11:50,37.08156,-121.59964,324.0,0.0,153.0,-12.6,,,,,20:11:49,10.9,-1.1,55.6,0.0,-237.0,0.0,-0.02,1.0,,-88.0,13.0,0.0,29.88,-529.0,,,241.0,,,,,0.0,0.0,,,,,,,,,,,,,,,,,,,0.0,8.0,0.0,0.0,30.6,0.0,,0.0,0.0,,,38.0,0.0,0.0,-0.2,0.6,0.2,,,,,9.0,13.0,9.0,16.0,9.0,13.0,10.0,17.0,,,-2.0,254.5,,0.0,3.0,0.0,,,0.653,0.831,0.0,8.5,,,,,,0.0,2026-01-10 12:11:22-08:00
29.06,1.0,9.0,2026-01-10 20:11:51,37.08156,-121.59964,324.0,0.0,153.0,-12.6,,,,,20:11:50,10.9,-1.1,55.7,0.0,-238.0,0.0,-0.02,1.0,,-63.0,13.0,0.0,29.88,-529.0,,,241.0,,,,,0.0,0.0,,,,,,,,,,,,,,,,,,,0.0,8.0,0.0,0.0,30.6,0.0,,0.0,0.0,,,38.0,0.0,0.0,-0.2,0.6,0.2,,,,,9.0,13.0,9.0,16.0,9.0,14.0,10.0,17.0,,,-2.0,254.5,,0.0,3.0,0.0,,,0.653,0.831,0.0,8.5,,,,,,0.0,2026-01-10 12:11:22-08:00
30.06,1.0,9.0,2026-01-10 20:11:52,37.08156,-121.59964,324.0,0.0,153.0,-12.6,,,,,20:11:51,11.0,-1.1,55.7,0.0,-240.0,0.0,-0.02,1.0,,-84.0,13.0,0.0,29.88,-529.0,,,241.0,,,,,0.0,0.0,,,,,,,,,,,,,,,,,,,0.0,8.0,0.0,0.0,30.6,0.0,,0.0,0.0,,,38.0,0.0,0.0,-0.2,0.6,0.2,,,,,9.0,13.0,9.0,16.0,9.0,13.0,10.0,17.0,,,-2.0,254.5,,0.0,3.0,0.0,,,0.653,0.831,0.0,8.5,,,,,,0.0,2026-01-10 12:11:22-08:00
31.06,1.0,9.0,2026-01-10 20:11:53,37.08156,-121.59964,324.0,0.0,153.0,-12.6,,,,,20:11:52,11.0,-1.0,55.7,0.0,-242.0,0.0,-0.02,1.0,,-118.0,13.0,0.0,29.88,-525.0,,,241.0,,,,,0.0,0.0,,,,,,,,,,,,,,,,,,,0.0,8.0,0.0,0.0,30.6,0.0,,0.0,0.0,,,38.0,0.0,0.0,-0.2,0.6,0.2,,,,,9.0,13.0,9.0,16.0,9.0,14.0,10.0,17.0,,,-2.0,254.5,,0.0,3.0,0.0,,,0.653,0.831,0.0,8.5,,,,,,0.0,2026-01-10 12:11:22-08:00
32.06,1.0,9.0,2026-01-10 20:11:54,37.08156,-121.59964,324.0,0.0,153.0,-12.6,,,,,20:11:53,11.0,-1.1,55.7,0.0,-244.0,0.0,-0.02,1.0,,-106.0,13.0,0.0,29.88,-525.0,,,241.0,,,,,0.0,0.0,,,,,,,,,,,,,,,,,,,0.0,8.0,0.0,0.0,30.6,0.0,,0.0,0.0,,,38.0,0.0,0.0,-0.2,0.6,0.2,,,,,9.0,13.0,9.0,16.0,9.0,14.0,10.0,17.0,,,-2.0,254.5,,0.0,3.0,0.0,,,0.653,0.831,0.0,8.5,,,,,,0.0,2026-01-10 12:11:22-08:00
33.06,1.0,10.0,2026-01-10 20:11:55,37.0816,-121.5998,234.0,0.0,153.0,-12.6,,,,,20:11:54,11.0,-1.1,55.7,0.0,-245.0,0.0,-0.02,1.0,,-82.0,13.0,0.0,29.88,-525.0,,,241.0,,,,,0.0,0.0,,,,,,,,,,,,,,,,,,,0.0,8.0,0.0,0.0,30.6,0.0,,0.0,0.0,,,38.0,0.0,0.0,-0.2,0.6,0.2,,,,,9.0,13.0,9.0,16.0,9.0,14.0,10.0,17.0,,,-2.0,254.5,,0.0,3.0,0.0,,,0.653,0.831,0.0,8.5,,,,,,0.0,2026-01-10 12:11:22-08:00
34.06,1.0,10.0,2026-01-10 20:11:56,37.0816,-121.59978,237.0,0.0,153.0,-12.6,,,,,20:11:55,10.9,-1.0,55.7,0.0,-245.0,0.0,-0.02,1.0,,-52.0,13.0,0.0,29.88,-520.0,,,241.0,,,,,0.0,0.0,,,,,,,,,,,,,,,,,,,0.0,8.0,0.0,0.0,30.6,0.0,,0.0,0.0,,,38.0,0.0,0.0,-0.2,0.6,0.2,,,,,9.0,13.0,9.0,16.0,9.0,14.0,10.0,17.0,,,-2.0,254.5,,0.0,3.0,0.0,,,0.653,0.834,0.0,8.5,,,,,,0.0,2026-01-10 12:11:22-08:00
35.06,1.0,10.0,2026-01-10 20:11:57,37.0816,-121.59978,244.0,0.0,153.0,-12.6,,,,,20:11:56,11.0,-1.0,55.7,0.0,-245.0,0.0,-0.02,1.0,,-17.0,13.0,0.0,29.88,-520.0,,,241.0,,,,,0.0,0.0,,,,,,,,,,,,,,,,,,,0.0,8.0,0.0,0.0,30.6,0.0,,0.0,0.0,,,38.0,0.0,0.0,-0.2,0.6,0.2,,,,,9.0,13.0,9.0,16.0,9.0,14.0,10.0,17.0,,,-2.0,254.5,,0.0,3.0,0.0,,,0.653,0.833,0.0,8.5,,,,,,0.0,2026-01-10 12:11:22-08:00
36.06,1.0,10.0,2026-01-10 20:11:58,37.0816,-121.59978,247.0,0.0,153.0,-12.6,,,,,20:11:57,11.0,-1.0,55.7,0.0,-245.0,0.0,-0.02,1.0,,18.0,13.0,0.0,29.88,-520.0,,,241.0,,,,,0.0,0.0,,,,,,,,,,,,,,,,,,,0.0,9.0,0.0,0.0,30.6,0.0,,0.0,0.0,,,38.0,0.0,0.0,-0.2,0.6,0.2,,,,,9.0,13.0,9.0,16.0,9.0,14.0,10.0,17.0,,,-2.0,254.5,,0.0,3.0,0.0,,,0.653,0.833,0.0,8.5,,,,,,0.0,2026-01-10 12:11:22-08:00
37.06,1.0,10.0,2026-01-10 20:11:59,37.08159,-121.59977,251.0,0.0,153.0,-12.6,,,,,20:11:58,11.0,-1.0,55.7,0.0,-245.0,0.0,-0.02,1.0,,25.0,13.0,0.0,29.88,-518.0,,,241.0,,,,,0.0,0.0,,,,,,,,,,,,,,,,,,,0.0,9.0,0.0,0.0,30.6,0.0,,0.0,0.0,,,38.0,0.0,0.0,-0.2,0.6,0.2,,,,,9.0,13.0,9.0,16.0,9.0,14.0,10.0,17.0,,,-2.0,254.5,,0.0,3.0,0.0,,,0.653,0.833,0.0,8.5,,,,,,0.0,2026-01-10 12:11:22-08:00
38.06,1.0,10.0,2026-01-10 20:12:00,37.08159,-121.59976,256.0,0.0,153.0,-12.6,,,,,20:11:59,11.0,-1.0,55.8,0.0,-245.0,0.0,-0.02,1.0,,59.0,13.0,0.0,29.88,-518.0,,,241.0,,,,,0.0,0.0,,,,,,,,,,,,,,,,,,,0.0,9.0,0.0,0.0,30.6,0.0,,0.0,0.0,,,38.0,0.0,0.0,-0.2,0.6,0.2,,,,,9.0,13.0,9.0,16.0,9.0,14.0,10.0,17.0,,,-2.0,254.5,,0.0,3.0,0.0,,,0.653,0.833,0.0,8.5,,,,,,0.0,2026-01-10 12:11:22-08:00
39.06,1.0,10.0,2026-01-10 20:12:01,37.08159,-121.59975,259.0,0.0,153.0,-12.6,,,,,20:12:00,11.0,-1.1,55.7,0.0,-245.0,0.0,-0.02,1.0,,30.0,13.0,0.0,29.88,-518.0,,,241.0,,,,,0.0,0.0,,,,,,,,,,,,,,,,,,,0.0,9.0,0.0,0.0,30.6,0.0,,0.0,0.0,,,38.0,0.0,0.0,-0.2,0.6,0.2,,,,,9.0,13.0,9.0,16.0,9.0,14.0,10.0,17.0,,,-2.0,254.5,,0.0,3.0,0.0,,,0.653,0.831,0.0,8.5,,,,,,0.0,2026-01-10 12:11:22-08:00
40.06,1.0,10.0,2026-01-10 20:12:02,37.08158,-121.59975,263.0,0.0,153.0,-12.6,,,,,20:12:01,11.0,-1.0,55.7,0.0,-245.0,-0.0,-0.02,1.0,,10.0,13.0,0.0,29.88,-517.0,,,241.0,,,,,0.0,0.0,,,,,,,,,,,,,,,,,,,0.0,9.0,0.0,0.0,30.6,0.0,,0.0,0.0,,,38.0,0.0,0.0,-0.2,0.6,0.2,,,,,9.0,13.0,9.0,16.0,9.0,14.0,10.0,17.0,,,-2.0,254.5,,0.0,3.0,0.0,,,0.653,0.831,0.0,8.5,,,,,,0.0,2026-01-10 12:11:22-08:00
41.06,1.0,10.0,2026-01-10 20:12:03,37.08158,-121.59975,267.0,0.0,153.0,-12.6,,,,,20:12:02,11.0,-1.1,55.7,0.0,-245.0,-0.0,-0.02,1.0,,16.0,13.0,0.0,29.88,-517.0,,,241.0,,,,,0.0,0.0,,,,,,,,,,,,,,,,,,,0.0,9.0,0.0,0.0,30.6,0.0,,0.0,0.0,,,38.0,0.0,0.0,-0.2,0.6,0.2,,,,,9.0,13.0,9.0,16.0,9.0,14.0,10.0,17.0,,,-2.0,254.5,,0.0,3.0,0.0,,,0.653,0.831,0.0,8.5,,,,,,0.0,2026-01-10 12:11:22-08:00
42.06,1.0,10.0,2026-01-10 20:12:04,37.08158,-121.59974,270.0,0.0,153.0,-12.6,,,,,20:12:03,10.9,-1.1,55.7,0.0,-245.0,-0.0,-0.02,1.0,,2.0,13.0,0.0,29.88,-517.0,,,241.0,,,,,0.0,0.0,,,,,,,,,,,,,,,,,,,0.0,9.0,0.0,0.0,30.6,0.0,,0.0,0.0,,,38.0,0.0,0.0,-0.2,0.6,0.2,,,,,9.0,13.0,9.0,16.0,9.0,14.0,10.0,17.0,,,-2.0,241.1,,0.0,3.0,0.0,,,0.653,0.831,0.0,8.5,,,,,,0.0,2026-01-10 12:11:22-08:00
43.06,1.0,10.0,2026-01-10 20:12:05,37.08158,-121.59974,273.0,0.0,153.0,-12.6,,,,,20:12:04,10.9,-1.1,55.6,0.0,-245.0,-0.0,-0.02,1.0,,-41.0,13.0,0.0,29.88,-507.0,,,241.0,,,,,0.0,0.0,,,,,,,,,,,,,,,,,,,0.0,9.0,0.0,0.0,30.6,0.0,,0.0,0.0,,,38.0,0.0,0.0,-0.2,0.6,0.2,,,,,9.0,13.0,9.0,16.0,9.0,14.0,10.0,17.0,,,-2.0,187.6,,0.0,3.0,0.0,,,0.653,0.831,0.0,8.5,,,,,,0.0,2026-01-10 12:11:22-08:00
44.06,1.0,10.0,2026-01-10 20:12:06,37.08158,-121.59973,276.0,0.0,153.0,-12.6,,,,,20:12:05,10.9,-1.1,55.6,0.0,-245.0,-0.0,-0.02,1.0,,-45.0,13.0,0.0,29.88,-507.0,,,241.0,,,,,0.0,0.0,,,,,,,,,,,,,,,,,,,0.0,9.0,0.0,0.0,30.6,0.0,,0.0,0.0,,,38.0,0.0,0.0,-0.2,0.6,0.2,,,,,9.0,13.0,9.0,16.0,9.0,14.0,10.0,17.0,,,-2.0,146.1,,0.0,3.0,0.0,,,0.653,0.831,0.0,8.6,,,,,,0.0,2026-01-10 12:11:22-08:00
45.06,1.0,10.0,2026-01-10 20:12:07,37.08158,-121.59973,278.0,0.0,153.0,-12.6,,,,,20:12:06,10.9,-1.1,55.7,0.0,-245.0,0.0,-0.02,1.0,,-40.0,13.0,0.0,29.88,-507.0,,,241.0,,,,,0.0,0.0,,,,,,,,,,,,,,,,,,,0.0,9.0,0.0,0.0,30.6,0.0,,0.0,0.0,,,38.0,0.0,0.0,-0.2,0.6,0.2,,,,,9.0,13.0,9.0,16.0,9.0,14.0,10.0,17.0,,,-2.0,113.7,,0.0,3.0,0.0,,,0.653,0.831,0.0,8.6,,,,,,0.0,2026-01-10 12:11:22-08:00
46.06,1.0,10.0,2026-01-10 20:12:08,37.08157,-121.59972,281.0,0.0,153.0,-12.6,,,,,20:12:07,10.9,-1.1,55.6,0.0,-245.0,-0.0,-0.02,1.0,,-18.0,13.0,0.0,29.88,-506.0,,,241.0,,,,,0.0,0.0,,,,,,,,,,,,,,,,,,,0.0,9.0,0.0,0.0,30.6,0.0,,0.0,0.0,,,38.0,0.0,0.0,-0.2,0.6,0.2,,,,,9.0,13.0,9.0,16.0,9.0,14.0,10.0,17.0,,,-2.0,88.6,,0.0,3.0,0.0,,,0.653,0.831,0.0,8.6,,,,,,0.0,2026-01-10 12:11:22-08:00
47.06,1.0,10.0,2026-01-10 20:12:09,37.08157,-121.59972,283.0,0.0,153.0,-12.6,,,,,20:12:08,10.9,-1.1,55.6,0.0,-245.0,-0.0,-0.02,1.0,,5.0,13.0,0.0,29.88,-506.0,,,241.0,,,,,0.0,0.0,,,,,,,,,,,,,,,,,,,0.0,9.0,0.0,0.0,30.6,0.0,,0.0,0.0,,,38.0,0.0,0.0,-0.2,0.6,0.2,,,,,9.0,13.0,9.0,16.0,9.0,14.0,10.0,17.0,,,-2.0,69.1,,0.0,3.0,0.0,,,0.653,0.831,0.0,8.6,,,,,,0.0,2026-01-10 12:11:22-08:00
48.06,1.0,10.0,2026-01-10 20:12:10,37.08157,-121.59972,285.0,0.0,153.0,-12.6,,,,,20:12:09,10.9,-1.1,55.6,0.0,-246.0,-0.0,-0.02,1.0,,-58.0,13.0,0.0,29.88,-506.0,,,241.0,,,,,0.0,0.0,,,,,,,,,,,,,,,,,,,0.0,9.0,0.0,0.0,30.6,0.0,,0.0,0.0,,,38.0,0.0,0.0,-0.2,0.6,0.2,,,,,9.0,13.0,9.0,16.0,9.0,14.0,10.0,17.0,,,-2.0,53.9,,0.0,3.0,0.0,,,0.653,0.831,0.0,8.6,,,,,,0.0,2026-01-10 12:11:22-08:00
49.06,1.0,10.0,2026-01-10 20:12:11,37.08157,-121.59972,287.0,0.0,153.0,-12.6,,,,,20:12:10,11.0,-1.1,55.6,0.0,-247.0,-0.0,-0.02,1.0,,-51.0,13.0,0.0,29.88,-498.0,,,241.0,,,,,0.0,0.0,,,,,,,,,,,,,,,,,,,0.0,9.0,0.0,0.0,30.6,0.0,,0.0,11.4,,,38.0,0.0,0.0,-0.2,0.6,0.2,,,,,9.0,13.0,9.0,16.0,9.0,13.0,10.0,17.0,,,-2.0,42.1,,11.4,3.0,0.0,,,0.653,0.831,0.0,8.6,,,,,,0.0,2026-01-10 12:11:22-08:00
50.06,1.0,10.0,2026-01-10 20:12:12,37.08157,-121.59972,289.0,0.0,153.0,-12.6,,,,,20:12:11,10.9,-1.1,55.6,0.0,-249.0,0.0,-0.02,1.0,,-113.0,13.0,0.0,29.88,-498.0,,,241.0,,,,,0.0,0.0,,,,,,,,,,,,,,,,,,,0.0,9.0,0.0,0.0,30.6,0.4,,0.4,33.4,,,38.0,0.0,0.0,-0.2,0.6,0.2,,,,,9.0,13.0,9.0,16.0,9.0,14.0,10.0,17.0,,,-2.0,33.0,,33.4,3.0,0.0,,,0.653,0.831,0.0,8.6,,,,,,0.0,2026-01-10 12:11:22-08:00
51.06,1.0,10.0,2026-01-10 20:12:13,37.08156,-121.59968,311.0,0.0,153.0,-12.6,,,,,20:12:12,10.9,-1.1,55.6,0.0,-252.0,-0.0,-0.02,1.0,,-105.0,13.0,0.0,29.88,-498.0,,,241.0,,,,,0.0,0.0,,,,,,,,,,,,,,,,,,,0.0,9.0,0.0,0.0,30.6,0.5,,0.5,34.9,,,38.0,0.0,0.0,-0.2,0.6,0.2,,,,,9.0,14.0,10.0,17.0,9.0,14.0,10.0,17.0,,,-2.0,25.8,,34.9,3.0,0.0,,,0.653,0.831,0.0,8.6,,,,,,0.0,2026-01-10 12:11:22-08:00
52.06,1.0,10.0,2026-01-10 20:12:14,37.08156,-121.59968,311.0,0.0,153.0,-12.6,,,,,20:12:13,10.9,-1.1,55.6,0.0,-254.0,-0.0,-0.02,1.0,,-131.0,13.0,0.0,29.88,-506.0,,,241.0,,,,,0.0,0.0,,,,,,,,,,,,,,,,,,,0.0,9.0,0.0,0.0,30.6,0.6,,0.6,35.1,,,38.0,0.0,0.0,-0.2,0.6,0.2,,,,,9.0,13.0,9.0,16.0,9.0,14.0,10.0,17.0,,,-2.0,20.3,,35.1,3.0,0.0,,,0.653,0.831,0.0,8.6,,,,,,0.0,2026-01-10 12:11:22-08:00
53.06,1.0,10.0,2026-01-10 20:12:15,37.08156,-121.59969,312.0,0.0,153.0,-12.6,,,,,20:12:14,10.9,-1.1,55.6,0.0,-256.0,-0.0,-0.02,1.0,,-109.0,13.0,0.0,29.88,-506.0,,,241.0,,,,,0.0,0.0,,,,,,,,,,,,,,,,,,,0.0,9.0,0.0,0.0,30.6,0.6,,0.6,34.0,,,38.0,0.0,0.0,-0.2,0.6,0.2,,,,,9.0,13.0,9.0,16.0,9.0,14.0,10.0,17.0,,,-2.0,16.0,,34.0,3.0,0.0,,,0.653,0.831,0.0,8.6,,,,,,0.0,2026-01-10 12:11:22-08:00
54.06,1.0,10.0,2026-01-10 20:12:16,37.08156,-121.59969,312.0,0.0,153.0,-12.6,,,,,20:12:15,10.9,-1.1,55.7,0.0,-256.0,0.0,-0.02,1.0,,-82.0,13.0,0.0,29.88,-506.0,,,241.0,,,,,0.0,0.0,,,,,,,,,,,,,,,,,,,0.0,9.0,0.0,0.0,30.6,0.6,,0.6,33.7,,,38.0,0.0,0.0,-0.2,0.6,0.2,,,,,9.0,14.0,10.0,16.0,9.0,14.0,10.0,17.0,,,-2.0,12.6,,33.7,3.0,0.0,,,0.653,0.831,0.0,8.6,,,,,,0.0,2026-01-10 12:11:22-08:00
55.06,1.0,10.0,2026-01-10 20:12:17,37.08156,-121.59969,312.0,0.0,153.0,-12.6,,,,,20:12:16,10.9,-1.1,55.7,0.0,-256.0,0.0,-0.02,1.0,,-40.0,13.0,0.0,29.88,-500.0,,,241.0,,,,,0.0,0.0,,,,,,,,,,,,,,,,,,,0.0,9.0,0.0,0.0,30.6,0.0,,0.0,33.5,,,38.0,0.0,0.0,-0.2,0.6,0.2,,,,,9.0,14.0,10.0,17.0,9.0,14.0,10.0,17.0,,,-2.0,10.0,,33.5,3.0,0.0,,,0.653,0.83,0.0,8.6,,,,,,0.0,2026-01-10 12:11:22-08:00
56.06,1.0,10.0,2026-01-10 20:12:18,37.08154,-121.5997,312.0,0.0,153.0,-12.6,,,,,20:12:17,10.9,-1.1,55.7,0.0,-256.0,0.0,-0.02,1.0,,-18.0,13.0,0.0,29.88,-500.0,,,241.0,,,,,0.0,0.0,,,,,,,,,,,,,,,,,,,0.0,9.0,0.0,0.0,30.6,0.0,,0.0,33.3,,,38.0,0.0,0.0,-0.2,0.6,0.2,,,,,9.0,14.0,10.0,16.0,9.0,14.0,10.0,17.0,,,-2.0,8.0,,33.3,3.0,0.0,,,0.653,0.833,0.0,8.6,,,,,,0.0,2026-01-10 12:11:22-08:00
57.06,1.0,10.0,2026-01-10 20:12:19,37.08155,-121.5997,319.0,0.0,153.0,-12.6,,,,,20:12:18,10.9,-1.1,55.6,0.0,-256.0,-0.0,-0.02,1.0,,12.0,13.0,0.0,29.88,-500.0,,,241.0,,,,,0.0,0.0,,,,,,,,,,,,,,,,,,,0.0,9.0,0.0,0.0,30.6,0.0,,0.0,33.1,,,38.0,0.0,0.0,-0.2,0.6,0.2,,,,,9.0,14.0,10.0,16.0,9.0,14.0,10.0,17.0,,,-2.0,6.4,,33.1,3.0,0.0,,,0.653,0.833,0.0,8.6,,,,,,0.0,2026-01-10 12:11:22-08:00
58.06,1.0,10.0,2026-01-10 20:12:20,37.08155,-121.5997,318.0,0.0,153.0,-12.6,,,,,20:12:19,10.9,-1.1,55.6,0.0,-256.0,-0.0,-0.02,1.0,,-8.0,13.0,0.0,29.88,-498.0,,,241.0,,,,,0.0,0.0,,,,,,,,,,,,,,,,,,,0.0,9.0,0.0,0.0,30.6,0.0,,0.0,32.9,,,38.0,0.0,0.0,-0.2,0.6,0.2,,,,,9.0,14.0,10.0,16.0,9.0,14.0,10.0,17.0,,,-2.0,5.2,,32.9,3.0,0.0,,,0.653,0.833,0.0,8.6,,,,,,0.0,2026-01-10 12:11:22-08:00
59.06,1.0,10.0,2026-01-10 20:12:21,37.08155,-121.59971,318.0,0.0,153.0,-12.6,,,,,20:12:20,11.0,-1.1,55.6,0.0,-257.0,-0.0,-0.02,1.0,,-51.0,13.0,0.0,29.88,-498.0,,,241.0,,,,,0.0,0.0,,,,,,,,,,,,,,,,,,,0.0,9.0,0.0,0.0,30.6,0.0,,0.0,32.8,,,38.0,0.0,0.0,-0.2,0.6,0.2,,,,,9.0,14.0,10.0,16.0,9.0,14.0,10.0,17.0,,,-2.0,4.3,,32.8,3.0,0.0,,,0.653,0.833,0.0,8.6,,,,,,0.0,2026-01-10 12:11:22-08:00
60.06,1.0,10.0,2026-01-10 20:12:22,37.08155,-121.59971,318.0,0.0,153.0,-12.6,,,,,20:12:21,11.0,-1.1,55.6,0.0,-258.0,-0.0,-0.02,1.0,,-58.0,13.0,0.0,29.88,-498.0,,,241.0,,,,,0.0,0.0,,,,,,,,,,,,,,,,,,,0.0,9.0,0.0,0.0,30.6,0.0,,0.0,32.6,,,38.0,0.0,0.0,-0.2,0.6,0.2,,,,,9.0,14.0,10.0,16.0,9.0,14.0,10.0,17.0,,,-2.0,3.5,,32.6,3.0,0.0,,,0.653,0.833,0.0,8.6,,,,,,0.0,2026-01-10 12:11:22-08:00
61.06,1.0,10.0,2026-01-10 20:12:23,37.08155,-121.59971,318.0,0.1,153.0,-12.6,,,,,20:12:22,11.0,-1.1,55.6,0.0,-259.0,0.0,-0.02,1.0,,-56.0,13.0,0.0,29.88,-502.0,,,241.0,,,,,0.0,0.0,,,,,,,,,,,,,,,,,,,0.0,9.0,0.0,0.0,30.6,0.0,,0.0,28.1,,,38.0,0.0,0.0,-0.2,0.6,0.2,,,,,9.0,14.0,10.0,17.0,9.0,14.0,10.0,18.0,,,-2.0,3.0,,28.1,3.0,0.0,,,0.653,0.83,0.0,8.6,,,,,,0.0,2026-01-10 12:11:22-08:00
62.06,1.0,10.0,2026-01-10 20:12:24,37.08155,-121.59971,318.0,0.0,153.0,-12.6,,,,,20:12:23,11.0,-1.1,55.6,0.0,-259.0,0.0,-0.02,1.0,,-35.0,14.0,0.0,29.88,-501.0,,,241.0,,,,,0.0,0.0,,,,,,,,,,,,,,,,,,,0.0,9.0,0.0,0.0,30.6,0.9,,0.9,23.7,,,38.0,0.0,0.0,-0.2,0.6,0.2,,,,,9.0,14.0,10.0,17.0,9.0,14.0,10.0,17.0,,,-2.0,2.5,,23.7,3.0,0.0,,,0.653,0.831,0.0,8.6,,,,,,0.0,2026-01-10 12:11:22-08:00
63.06,1.0,10.0,2026-01-10 20:12:25,37.08155,-121.59971,318.0,0.1,153.0,-12.6,,,,,20:12:24,11.0,-1.1,55.5,0.0,-259.0,0.0,-0.02,1.0,,1.0,14.0,0.0,29.88,-501.0,,,241.0,,,,,0.0,0.0,,,,,,,,,,,,,,,,,,,0.0,9.0,0.0,0.0,30.6,0.9,,0.9,23.7,,,38.0,0.0,0.0,-0.2,0.6,0.2,,,,,9.0,14.0,10.0,17.0,9.0,14.0,10.0,17.0,,,-2.0,2.2,,23.7,3.0,0.0,,,0.653,0.831,0.0,8.6,,,,,,0.0,2026-01-10 12:11:22-08:00
64.06,1.0,10.0,2026-01-10 20:12:26,37.08155,-121.59971,318.0,0.0,153.0,-12.6,,,,,20:12:25,11.0,-1.1,55.5,0.0,-259.0,-0.0,-0.02,1.0,,47.0,14.0,0.0,29.88,-501.0,,,241.0,,,,,0.0,0.0,,,,,,,,,,,,,,,,,,,0.0,9.0,0.0,0.0,30.6,0.9,,0.9,23.9,,,38.0,0.0,0.0,-0.2,0.6,0.2,,,,,9.0,14.0,10.0,17.0,9.0,14.0,10.0,17.0,,,-2.0,1.9,,23.9,3.0,0.0,,,0.653,0.831,0.0,8.6,,,,,,0.0,2026-01-10 12:11:22-08:00
65.06,1.0,10.0,2026-01-10 20:12:27,37.08155,-121.59972,318.0,0.0,153.0,-12.6,,,,,20:12:26,11.0,-1.1,55.5,0.0,-259.0,-0.0,-0.02,1.0,,60.0,14.0,0.0,29.88,-491.0,,,241.0,,,,,0.0,0.0,,,,,,,,,,,,,,,,,,,0.0,9.0,0.0,0.0,30.6,0.9,,0.9,23.9,,,38.0,0.0,0.0,-0.2,0.6,0.2,,,,,9.0,14.0,10.0,17.0,9.0,14.0,10.0,17.0,,,-2.0,1.7,,23.9,3.0,0.0,,,0.653,0.831,0.0,8.6,,,,,,0.0,2026-01-10 12:11:22-08:00
66.06,2.0,10.0,2026-01-10 20:12:28,37.08155,-121.59972,319.0,0.0,153.0,-12.6,,,,,20:12:27,11.0,-1.1,55.5,0.0,-259.0,-0.0,-0.02,1.0,,75.0,14.0,0.0,29.88,-491.0,,,241.0,,,,,0.0,0.0,,,,,,,,,,,,,,,,,,,0.0,9.0,0.0,0.0,30.6,0.0,,0.0,23.9,,,38.0,0.0,0.0,-0.2,0.6,0.2,,,,,9.0,14.0,10.0,17.0,9.0,14.0,10.0,17.0,,,-2.0,1.6,,23.9,3.0,0.0,,,0.653,0.831,0.0,8.6,,,,,,0.0,2026-01-10 12:11:22-08:00
67.06,2.0,10.0,2026-01-10 20:12:29,37.08155,-121.59972,320.0,0.0,153.0,-12.6,,,,,20:12:28,11.0,-1.1,55.6,0.0,-259.0,-0.0,-0.02,1.0,,60.0,14.0,0.0,29.88,-491.0,,,241.0,,,,,0.0,0.0,,,,,,,,,,,,,,,,,,,0.0,9.0,0.0,0.0,30.6,0.0,,0.0,23.9,,,38.0,0.0,0.0,-0.2,0.6,0.2,,,,,9.0,14.0,10.0,17.0,9.0,14.0,10.0,17.0,,,-2.0,1.4,,23.9,3.0,0.0,,,0.653,0.831,0.0,8.6,,,,,,0.0,2026-01-10 12:11:22-08:00
68.06,2.0,10.0,2026-01-10 20:12:30,37.08155,-121.59972,321.0,0.1,153.0,-12.6,,,,,20:12:29,11.0,-1.0,55.6,0.0,-259.0,0.0,-0.02,1.0,,57.0,14.0,0.0,29.88,-491.0,,,241.0,,,,,0.0,0.0,,,,,,,,,,,,,,,,,,,0.0,9.0,0.0,0.0,30.6,0.0,,0.0,23.9,,,38.0,0.0,0.0,-0.2,0.6,0.2,,,,,9.0,14.0,10.0,17.0,9.0,14.0,10.0,17.0,,,-2.0,1.3,,23.9,3.0,0.0,,,0.653,0.831,0.0,8.6,,,,,,0.0,2026-01-10 12:11:22-08:00
69.06,2.0,10.0,2026-01-10 20:12:31,37.08155,-121.59971,321.0,0.0,153.0,-12.6,,,,,20:12:30,11.0,-1.0,55.6,0.0,-259.0,-0.0,-0.02,1.0,,95.0,14.0,0.0,29.88,-490.0,,,241.0,,,,,0.0,0.0,,,,,,,,,,,,,,,,,,,0.0,9.0,0.0,0.0,30.6,0.0,,0.0,23.9,,,38.0,0.0,0.0,-0.2,0.6,0.2,,,,,9.0,14.0,10.0,17.0,9.0,14.0,10.0,17.0,,,-2.0,1.2,,23.9,3.0,0.0,,,0.653,0.831,0.0,8.6,,,,,,0.0,2026-01-10 12:11:22-08:00
70.06,2.0,10.0,2026-01-10 20:12:32,37.08155,-121.59971,321.0,0.0,153.0,-12.6,,,,,20:12:31,11.0,-1.0,55.6,0.0,-259.0,-0.0,-0.02,1.0,,59.0,14.0,0.0,29.88,-490.0,,,241.0,,,,,0.0,0.0,,,,,,,,,,,,,,,,,,,0.0,9.0,0.0,0.0,30.6,0.0,,0.0,23.8,,,38.0,0.0,0.0,-0.2,0.6,0.2,,,,,9.0,14.0,10.0,17.0,9.0,14.0,10.0,17.0,,,-2.0,1.2,,23.8,3.0,0.0,,,0.653,0.831,0.0,8.6,,,,,,0.0,2026-01-10 12:11:22-08:00
71.06,2.0,10.0,2026-01-10 20:12:33,37.08156,-121.59971,322.0,0.1,153.0,-12.6,,,,,20:12:32,11.0,-1.0,55.7,0.0,-259.0,0.0,-0.02,1.0,,55.0,14.0,0.0,29.88,-490.0,,,241.0,,,,,0.0,0.0,,,,,,,,,,,,,,,,,,,0.0,9.0,0.0,0.0,30.6,0.0,,0.0,23.8,,,38.0,0.0,0.0,-0.2,0.6,0.2,,,,,9.0,14.0,10.0,17.0,9.0,14.0,10.0,18.0,,,-2.0,1.1,,23.8,3.0,0.0,,,0.653,0.831,0.0,8.6,,,,,,0.0,2026-01-10 12:11:22-08:00
72.06,2.0,10.0,2026-01-10 20:12:34,37.08155,-121.59971,322.0,0.1,153.0,-12.6,,,,,20:12:33,11.0,-1.0,55.6,0.0,-258.0,-0.0,-0.02,1.0,,29.0,14.0,0.0,29.88,-488.0,,,241.0,,,,,0.0,0.0,,,,,,,,,,,,,,,,,,,0.0,9.0,0.0,0.0,30.6,0.0,,0.0,23.8,,,38.0,0.0,0.0,-0.2,0.6,0.2,,,,,9.0,14.0,10.0,16.0,9.0,14.0,10.0,18.0,,,-2.0,1.1,,23.8,3.0,0.0,,,0.653,0.833,0.0,8.6,,,,,,0.0,2026-01-10 12:11:22-08:00
73.06,2.0,10.0,2026-01-10 20:12:35,37.08155,-121.59971,322.0,0.1,153.0,-12.6,,,,,20:12:34,11.0,-1.1,55.6,0.0,-258.0,-0.0,-0.02,1.0,,29.0,14.0,0.0,29.88,-488.0,,,241.0,,,,,0.0,0.0,,,,,,,,,,,,,,,,,,,0.0,9.0,0.0,0.0,30.6,0.0,,0.0,23.7,,,38.0,0.0,0.0,-0.2,0.6,0.2,,,,,9.0,13.0,10.0,16.0,9.0,14.0,10.0,18.0,,,-2.0,1.1,,23.7,3.0,0.0,,,0.653,0.833,0.0,8.6,,,,,,0.0,2026-01-10 12:11:22-08:00
74.06,2.0,10.0,2026-01-10 20:12:36,37.08155,-121.5997,322.0,0.0,153.0,-12.6,,,,,20:12:35,11.0,-1.1,55.6,0.0,-258.0,0.0,-0.02,1.0,,43.0,14.0,0.0,29.88,-488.0,,,241.0,,,,,0.0,0.0,,,,,,,,,,,,,,,,,,,0.0,9.0,0.0,0.0,30.6,0.0,,0.0,23.7,,,38.0,0.0,0.0,-0.2,0.6,0.2,,,,,9.0,14.0,10.0,16.0,9.0,14.0,10.0,18.0,,,-2.0,1.0,,23.7,3.0,0.0,,,0.653,0.833,0.0,8.6,,,,,,0.0,2026-01-10 12:11:22-08:00
75.06,2.0,10.0,2026-01-10 20:12:37,37.08155,-121.5997,322.0,0.0,153.0,-12.6,,,,,20:12:36,11.0,-1.1,55.6,0.0,-258.0,0.0,-0.02,1.0,,18.0,14.0,0.0,29.88,-478.0,,,241.0,,,,,0.0,0.0,,,,,,,,,,,,,,,,,,,0.0,9.0,0.0,0.0,30.6,0.0,,0.0,23.6,,,38.0,0.0,0.0,-0.2,0.6,0.2,,,,,9.0,13.0,10.0,16.0,9.0,14.0,10.0,18.0,,,-2.0,1.0,,23.6,3.0,0.0,,,0.653,0.833,0.0,8.7,,,,,,0.0,2026-01-10 12:11:22-08:00
76.06,2.0,10.0,2026-01-10 20:12:38,37.08155,-121.5997,322.0,0.1,153.0,-12.6,,,,,20:12:37,11.0,-1.0,55.7,0.0,-258.0,0.0,-0.02,1.0,,5.0,14.0,0.0,29.88,-477.0,,,241.0,,,,,0.0,0.0,,,,,,,,,,,,,,,,,,,0.0,9.0,0.0,0.0,30.6,0.0,,0.0,23.6,,,38.0,0.0,0.0,-0.2,0.6,0.2,,,,,9.0,14.0,10.0,16.0,9.0,14.0,10.0,18.0,,,-2.0,1.0,,23.6,3.0,0.0,,,0.653,0.833,0.0,8.7,,,,,,0.0,2026-01-10 12:11:22-08:00
77.06,2.0,10.0,2026-01-10 20:12:39,37.08158,-121.59969,305.0,0.1,153.0,-12.6,,,,,20:12:38,11.0,-1.0,55.6,0.0,-258.0,0.0,-0.02,1.0,,13.0,14.0,0.0,29.88,-477.0,,,241.0,,,,,0.0,0.0,,,,,,,,,,,,,,,,,,,0.0,9.0,0.0,0.0,30.6,0.0,,0.0,23.5,,,38.0,0.0,0.0,-0.2,0.6,0.2,,,,,9.0,14.0,10.0,16.0,9.0,14.0,10.0,18.0,,,-2.0,1.0,,23.5,3.0,0.0,,,0.653,0.833,0.0,8.7,,,,,,0.0,2026-01-10 12:11:22-08:00
78.06,2.0,10.0,2026-01-10 20:12:40,37.08159,-121.59969,304.0,0.0,153.0,-12.6,,,,,20:12:39,11.0,-1.0,55.6,0.0,-258.0,0.0,-0.02,1.0,,-31.0,14.0,0.0,29.88,-477.0,,,241.0,,,,,0.0,0.0,,,,,,,,,,,,,,,,,,,0.0,9.0,0.0,0.0,30.6,0.0,,0.0,23.5,,,38.0,0.0,0.0,-0.3,0.6,0.2,,,,,9.0,14.0,10.0,16.0,9.0,14.0,10.0,18.0,,,-2.0,1.0,,23.5,3.0,0.0,,,0.653,0.833,0.0,8.7,,,,,,0.0,2026-01-10 12:11:22-08:00
79.06,2.0,10.0,2026-01-10 20:12:41,37.08159,-121.59969,304.0,0.1,153.0,-12.6,,,,,20:12:40,11.0,-1.0,55.6,0.0,-258.0,-0.0,-0.02,1.0,,-19.0,14.0,0.0,29.88,-467.0,,,241.0,,,,,0.0,0.0,,,,,,,,,,,,,,,,,,,0.0,9.0,0.0,0.0,30.6,0.0,,0.0,23.5,,,38.0,0.0,0.0,-0.3,0.6,0.2,,,,,9.0,14.0,10.0,16.0,9.0,14.0,10.0,18.0,,,-2.0,1.0,,23.5,3.0,0.0,,,0.653,0.833,0.0,8.7,,,,,,0.0,2026-01-10 12:11:22-08:00
80.06,2.0,10.0,2026-01-10 20:12:42,37.0816,-121.59969,303.0,0.0,153.0,-12.6,,,,,20:12:41,11.0,-1.0,55.6,0.0,-258.0,-0.0,-0.02,1.0,,-27.0,14.0,0.0,29.88,-467.0,,,241.0,,,,,0.0,0.0,,,,,,,,,,,,,,,,,,,0.0,9.0,0.0,0.0,30.6,0.0,,0.0,23.4,,,38.0,0.0,0.0,-0.3,0.6,0.2,,,,,9.0,14.0,10.0,16.0,9.0,14.0,10.0,18.0,,,-2.0,1.0,,23.4,3.0,0.0,,,0.653,0.831,0.0,8.7,,,,,,0.0,2026-01-10 12:11:22-08:00
81.06,2.0,10.0,2026-01-10 20:12:43,37.0816,-121.59968,303.0,0.1,153.0,-12.6,,,,,20:12:42,11.0,-1.0,55.6,0.0,-258.0,-0.0,-0.02,1.0,,-13.0,14.0,0.0,29.88,-467.0,,,241.0,,,,,0.0,0.0,,,,,,,,,,,,,,,,,,,0.0,9.0,0.0,0.0,30.6,0.0,,0.0,23.4,,,38.0,0.0,0.0,-0.3,0.6,0.2,,,,,9.0,14.0,10.0,17.0,9.0,14.0,10.0,18.0,,,-2.0,1.0,,23.4,3.0,0.0,,,0.653,0.831,0.0,8.7,,,,,,0.0,2026-01-10 12:11:22-08:00
82.06,2.0,10.0,2026-01-10 20:12:44,37.0816,-121.59968,303.0,0.1,153.0,-12.6,,,,,20:12:43,11.0,-1.0,55.6,0.0,-258.0,-0.0,-0.02,1.0,,-11.0,14.0,0.0,29.88,-467.0,,,241.0,,,,,0.0,0.0,,,,,,,,,,,,,,,,,,,0.0,9.0,0.0,0.0,30.6,0.0,,0.0,23.3,,,38.0,0.0,0.0,-0.3,0.6,0.2,,,,,9.0,14.0,10.0,16.0,9.0,14.0,10.0,18.0,,,-2.0,1.0,,23.3,3.0,0.0,,,0.653,0.831,0.0,8.7,,,,,,0.0,2026-01-10 12:11:22-08:00
83.06,2.0,10.0,2026-01-10 20:12:45,37.0816,-121.59968,305.0,0.0,153.0,-12.6,,,,,20:12:44,11.0,-1.0,55.7,0.0,-258.0,0.0,-0.02,1.0,,-47.0,14.0,0.0,29.88,-467.0,,,241.0,,,,,0.0,0.0,,,,,,,,,,,,,,,,,,,0.0,9.0,0.0,0.0,30.6,0.0,,0.0,23.3,,,38.0,0.0,0.0,-0.3,0.6,0.2,,,,,9.0,14.0,10.0,16.0,9.0,14.0,10.0,18.0,,,-2.0,1.0,,23.3,3.0,0.0,,,0.653,0.831,0.0,8.7,,,,,,0.0,2026-01-10 12:11:22-08:00
84.06,2.0,10.0,2026-01-10 20:12:46,37.0816,-121.59968,305.0,0.1,153.0,-12.6,,,,,20:12:45,11.1,-1.0,55.7,0.0,-258.0,0.0,-0.02,1.0,,-22.0,14.0,0.0,29.88,-467.0,,,241.0,,,,,0.0,0.0,,,,,,,,,,,,,,,,,,,0.0,9.0,0.0,0.0,30.6,0.0,,0.0,23.3,,,38.0,0.0,0.0,-0.3,0.6,0.2,,,,,9.0,14.0,10.0,16.0,9.0,14.0,10.0,18.0,,,-2.0,1.0,,23.3,3.0,0.0,,,0.653,0.831,0.0,8.7,,,,,,0.0,2026-01-10 12:11:22-08:00
85.06,2.0,10.0,2026-01-10 20:12:47,37.0816,-121.59968,304.0,0.1,153.0,-12.6,,,,,20:12:46,11.0,-1.1,55.6,0.0,-258.0,-0.0,-0.02,1.0,,-36.0,14.0,0.0,29.88,-467.0,,,241.0,,,,,0.0,0.0,,,,,,,,,,,,,,,,,,,0.0,9.0,0.0,0.0,30.6,0.0,,0.0,23.2,,,38.0,0.0,0.0,-0.3,0.6,0.2,,,,,9.0,14.0,10.0,16.0,9.0,14.0,10.0,18.0,,,-2.0,1.0,,23.2,3.0,0.0,,,0.653,0.831,0.0,8.7,,,,,,0.0,2026-01-10 12:11:22-08:00
86.06,2.0,10.0,2026-01-10 20:12:48,37.08158,-121.59969,307.0,0.1,153.0,-12.6,,,,,20:12:47,11.0,-1.1,55.5,0.0,-258.0,-0.0,-0.02,1.0,,-44.0,14.0,0.0,29.88,-466.0,,,241.0,,,,,0.0,0.0,,,,,,,,,,,,,,,,,,,0.0,5.0,0.0,0.0,30.6,0.0,,0.0,22.8,,,38.0,0.0,0.0,-0.3,0.6,0.2,,,,,2.0,5.0,3.0,8.0,2.0,5.0,3.0,9.0,,,-2.0,1.0,,22.8,3.0,0.0,,,0.651,0.83,0.0,5.3,,,,,,0.0,2026-01-10 12:11:22-08:00
87.06,2.0,10.0,2026-01-10 20:12:49,37.08158,-121.59969,306.0,0.0,153.0,-12.6,,,,,20:12:48,11.0,-1.1,55.4,0.0,-258.0,-0.0,-0.02,1.0,,-35.0,14.0,0.0,29.88,-466.0,,,241.0,,,,,0.0,0.0,,,,,,,,,,,,,,,,,,,0.0,7.0,97.0,97.0,30.9,0.0,,0.0,26.4,,,38.0,0.0,0.0,-0.3,0.6,0.2,,,,,5.0,8.0,6.0,12.0,5.0,9.0,6.0,12.0,,,-2.0,0.0,,26.4,3.0,0.0,,,0.652,0.83,0.0,6.8,,,,,,97.0,2026-01-10 12:11:22-08:00
88.06,2.0,10.0,2026-01-10 20:12:50,37.08158,-121.59969,305.0,0.1,153.0,-12.6,,,,,20:12:49,11.0,-1.1,55.4,0.0,-258.0,0.0,-0.02,1.0,,-34.0,14.0,0.0,29.88,-466.0,,,241.0,,,,,0.0,0.0,,,,,,,,,,,,,,,,,,,0.0,7.0,119.0,119.0,30.5,0.9,,0.9,22.0,,,38.0,0.0,0.0,-0.4,0.6,0.2,,,,,5.0,8.0,6.0,12.0,5.0,8.0,6.0,12.0,,,-2.0,0.0,,22.0,3.0,0.0,,,0.652,0.83,0.1,6.6,,,,,,119.0,2026-01-10 12:11:22-08:00
89.06,2.0,10.0,2026-01-10 20:12:51,37.08158,-121.59969,304.0,0.1,153.0,-12.6,,,,,20:12:50,11.0,-1.2,55.4,0.0,-258.0,-0.0,-0.02,1.0,,-22.0,14.0,0.0,29.88,-456.0,,,241.0,,,,,0.0,0.0,,,,,,,,,,,,,,,,,,,0.0,7.0,121.0,121.0,30.5,1.7,,1.7,20.8,,,38.0,0.0,0.0,-0.4,0.6,0.2,,,,,5.0,8.0,6.0,12.0,5.0,8.0,6.0,12.0,,,-2.0,0.0,,20.8,3.0,0.0,,,0.652,0.83,0.1,6.6,,,,,,121.0,2026-01-10 12:11:22-08:00
90.06,2.0,10.0,2026-01-10 20:12:52,37.08158,-121.59969,302.0,0.1,153.0,-12.6,,,,,20:12:51,11.0,-1.1,55.5,0.0,-258.0,0.0,-0.02,1.0,,-6.0,14.0,0.0,29.88,-456.0,,,241.0,,,,,0.0,0.0,,,,,,,,,,,,,,,,,,,1.0,9.0,624.0,624.0,27.8,2.8,,2.8,25.0,,,38.0,0.0,0.0,-0.4,0.6,0.2,,,,,10.0,41.0,10.0,43.0,10.0,13.0,10.0,36.0,,,-2.0,0.0,,25.0,3.0,0.0,,,0.665,0.831,1.1,8.7,,,10.0,L,,624.0,2026-01-10 12:11:22-08:00
91.06,2.0,10.0,2026-01-10 20:12:53,37.08154,-121.59968,285.0,0.1,153.0,-12.6,,,,,20:12:52,11.0,-1.1,55.6,0.0,-258.0,0.0,-0.02,1.0,,32.0,14.0,0.0,29.88,-456.0,,,241.0,,,,,0.0,0.0,,,,,,,,,,,,,,,,,,,3.0,9.0,990.0,990.0,25.5,3.7,,3.7,25.0,,,38.0,0.0,0.0,-0.3,0.6,0.2,,,,,9.0,91.0,11.0,72.0,9.0,15.0,10.0,63.0,,,-2.0,0.0,,25.0,3.0,0.0,,,0.66,0.831,2.5,8.7,,,20.0,L,,990.0,2026-01-10 12:11:22-08:00
92.06,2.0,10.0,2026-01-10 20:12:54,37.08154,-121.59968,285.0,0.1,153.0,-12.6,,,,,20:12:53,11.0,-1.0,55.6,0.0,-258.0,-0.0,-0.02,1.0,,37.0,14.0,0.0,29.88,-456.0,,,241.0,,,,,0.0,0.0,,,,,,,,,,,,,,,,,,,4.0,9.0,1263.0,1263.0,19.5,4.1,,4.1,25.5,,,38.0,0.0,0.0,-0.3,0.6,0.2,,,,,10.0,154.0,11.0,103.0,10.0,77.0,11.0,101.0,,,-2.0,0.0,,25.5,3.0,0.0,,,0.659,0.83,4.1,8.7,,,20.0,R,,1263.0,2026-01-10 12:11:22-08:00
93.06,2.0,10.0,2026-01-10 20:12:55,37.08155,-121.59967,285.0,0.0,153.0,-12.6,,,,,20:12:54,10.9,-1.0,55.6,0.0,-258.0,-0.0,-0.01,1.0,,14.0,14.0,0.0,29.88,-455.0,,,241.0,,,,,0.0,0.0,,,,,,,,,,,,,,,,,,,6.0,9.0,1382.0,1382.0,17.8,4.3,,4.3,25.6,,,38.0,0.0,0.0,-0.3,0.6,0.2,,,,,10.0,207.0,12.0,143.0,10.0,131.0,12.0,134.0,,,-2.0,0.0,,25.6,3.0,0.0,,,0.657,0.831,5.9,8.7,,,,,,1382.0,2026-01-10 12:11:22-08:00
94.06,2.0,10.0,2026-01-10 20:12:56,37.08155,-121.59967,284.0,0.0,153.0,-12.6,,,,,20:12:55,10.9,-0.9,55.6,0.0,-258.0,0.0,-0.02,1.0,,50.0,14.0,0.0,29.88,-455.0,,,241.0,,,,,0.0,0.0,,,,,,,,,,,,,,,,,,,8.0,9.0,1482.0,1482.0,16.6,4.5,,4.5,25.9,,,38.0,0.0,0.0,-0.3,0.6,0.2,,,,,10.0,254.0,12.0,181.0,10.0,180.0,12.0,166.0,,,-2.0,0.0,,25.9,3.0,0.0,,,0.658,0.831,8.0,8.7,,,,,,1482.0,2026-01-10 12:11:22-08:00
95.06,2.0,10.0,2026-01-10 20:12:57,37.08157,-121.59968,283.0,0.1,153.0,-12.6,,,,,20:12:56,10.9,-1.0,55.6,0.0,-258.0,-0.0,-0.02,1.0,,52.0,14.0,0.0,29.88,-455.0,,,241.0,,,,,0.0,0.0,,,,,,,,,,,,,,,,,,,10.0,9.0,1524.0,1524.0,15.8,4.7,,4.7,26.1,,,38.0,0.0,0.0,-0.3,0.6,0.2,,,,,11.0,297.0,13.0,214.0,11.0,226.0,13.0,196.0,,,-2.0,0.0,,26.1,3.0,0.0,,,0.656,0.831,10.3,8.7,,,,,,1524.0,2026-01-10 12:11:22-08:00
96.06,2.0,10.0,2026-01-10 20:12:58,37.08157,-121.59968,291.0,0.1,153.0,-12.6,,,,,20:12:57,10.9,-1.0,55.6,0.0,-258.0,-0.0,-0.01,1.0,,72.0,14.0,0.0,29.88,-443.0,,,241.0,,,,,0.0,0.0,,,,,,,,,,,,,,,,,,,13.0,9.0,1533.0,1533.0,15.6,4.8,,4.8,26.3,,,38.0,0.0,0.0,-0.3,0.6,0.2,,,,,12.0,336.0,14.0,245.0,12.0,268.0,14.0,225.0,,,-2.0,0.0,,26.3,3.0,0.0,,,0.656,0.831,13.1,8.7,,,,,,1533.0,2026-01-10 12:11:22-08:00
97.06,2.0,10.0,2026-01-10 20:12:59,37.08157,-121.59968,292.0,0.0,153.0,-12.6,,,,,20:12:58,10.9,-0.9,55.6,0.0,-258.0,-0.0,-0.02,1.0,,59.0,14.0,0.0,29.88,-443.0,,,241.0,,,,,0.0,0.0,,,,,,,,,,,,,,,,,,,16.0,9.0,1555.0,1555.0,15.6,4.9,,4.9,26.4,,,38.0,0.0,0.0,-0.3,0.6,0.2,,,,,13.0,371.0,14.0,273.0,12.0,305.0,15.0,252.0,,,-2.0,0.0,,26.4,3.0,0.0,,,0.656,0.831,16.4,8.8,,,,,,1555.0,2026-01-10 12:11:22-08:00
98.06,2.0,10.0,2026-01-10 20:13:00,37.08157,-121.59968,292.0,0.0,153.0,-12.6,,,,,20:12:59,10.9,-0.9,55.6,0.0,-256.0,-0.0,-0.01,1.0,,68.0,14.0,0.0,29.88,-441.0,,,241.0,,,,,0.0,0.0,,,,,,,,,,,,,,,,,,,20.0,9.0,1451.0,1451.0,14.9,4.9,,4.9,26.5,,,38.0,0.0,0.0,-0.3,0.6,0.2,,,,,13.0,400.0,15.0,300.0,13.0,338.0,16.0,277.0,,,-2.0,0.0,,26.5,3.0,0.0,,,0.656,0.831,20.2,8.8,,,,,,1451.0,2026-01-10 12:11:22-08:00
99.06,2.0,10.0,2026-01-10 20:13:01,37.08157,-121.59968,292.0,0.1,153.0,-12.6,,,,,20:13:00,11.0,-1.0,55.6,0.0,-255.0,-0.0,-0.02,0.9,,56.0,14.0,0.0,29.88,-430.0,,,241.0,,,,,0.0,0.0,,,,,,,,,,,,,,,,,,,25.0,9.0,1295.0,1295.0,14.5,4.7,,4.7,26.6,,,38.0,0.0,0.0,-0.3,0.6,0.2,,,,,14.0,420.0,16.0,323.0,14.0,364.0,17.0,297.0,,,-2.0,0.0,,26.6,3.0,0.0,,,0.653,0.83,24.6,8.8,,,,,,1295.0,2026-01-10 12:11:22-08:00
100.06,2.0,10.0,2026-01-10 20:13:02,37.08157,-121.59968,293.0,0.1,153.0,-12.6,,,,,20:13:01,10.9,-0.9,55.6,0.0,-255.0,-0.0,-0.01,1.0,,35.0,14.0,0.0,29.88,-429.0,,,241.0,,,,,0.0,0.0,,,,,,,,,,,,,,,,,,,30.0,9.0,1059.0,1059.0,12.8,4.4,,4.4,26.8,,,38.0,0.0,0.0,-0.3,0.6,0.2,,,,,15.0,435.0,17.0,341.0,14.0,382.0,18.0,315.0,,,-2.0,0.0,,26.8,3.0,0.0,,,0.653,0.83,29.6,8.8,,,,,,1059.0,2026-01-10 12:11:22-08:00
101.06,2.0,10.0,2026-01-10 20:13:03,37.08157,-121.59968,293.0,0.0,153.0,-12.6,,,,,20:13:02,10.9,-1.0,55.5,0.0,-255.0,-0.0,-0.01,0.9,,30.0,14.0,0.0,29.88,-429.0,,,241.0,,,,,0.0,0.0,,,,,,,,,,,,,,,,,,,35.0,9.0,1041.0,1041.0,12.8,4.0,,4.0,26.8,,,38.0,0.0,0.0,-0.3,0.6,0.2,,,,,15.0,443.0,17.0,354.0,15.0,396.0,19.0,329.0,,,-2.0,0.0,,26.8,3.0,0.0,,,0.653,0.83,35.1,8.9,,,,,,1041.0,2026-01-10 12:11:22-08:00
102.06,2.0,10.0,2026-01-10 20:13:04,37.08157,-121.59968,294.0,0.1,153.0,-12.6,,,,,20:13:03,10.9,-1.0,55.6,0.0,-254.0,-0.0,-0.02,1.0,,24.0,14.0,0.0,29.88,-428.0,,,241.0,,,,,0.0,0.0,,,,,,,,,,,,,,,,,,,41.0,9.0,995.0,995.0,12.7,3.7,,3.7,26.8,,,38.0,0.0,0.0,-0.3,0.6,0.2,,,,,16.0,449.0,18.0,367.0,15.0,408.0,19.0,342.0,,,-2.0,0.0,,26.8,3.0,0.0,,,0.653,0.83,40.9,8.9,,,,,,995.0,2026-01-10 12:11:22-08:00
103.06,2.0,10.0,2026-01-10 20:13:05,37.08158,-121.59968,295.0,0.1,153.0,-12.6,,,,,20:13:04,10.9,-1.0,55.6,0.0,-253.0,-0.0,-0.02,1.0,,43.0,14.0,0.0,29.88,-416.0,,,241.0,,,,,0.0,0.0,,,,,,,,,,,,,,,,,,,47.0,9.0,961.0,961.0,12.8,3.4,,3.4,26.8,,,38.0,0.0,0.0,-0.3,0.6,0.2,,,,,17.0,456.0,18.0,378.0,16.0,415.0,20.0,353.0,,,-2.0,0.0,,26.8,3.0,0.0,,,0.654,0.83,46.7,8.9,,,,,,961.0,2026-01-10 12:11:22-08:00
104.06,2.0,10.0,2026-01-10 20:13:06,37.08158,-121.59967,297.0,0.0,153.0,-12.6,,,,,20:13:05,10.9,-1.0,55.6,0.0,-253.0,-0.0,-0.02,1.0,,3.0,14.0,0.0,29.88,-416.0,,,241.0,,,,,0.0,0.0,,,,,,,,,,,,,,,,,,,52.0,9.0,965.0,965.0,12.8,3.2,,3.2,26.8,,,38.0,0.0,0.0,-0.2,0.6,0.2,,,,,17.0,461.0,19.0,386.0,16.0,422.0,21.0,362.0,,,-2.0,0.0,,26.8,3.0,0.0,,,0.653,0.83,52.1,8.9,,,,,,965.0,2026-01-10 12:11:22-08:00
105.06,2.0,10.0,2026-01-10 20:13:07,37.08158,-121.59967,298.0,0.1,153.0,-12.6,,,,,20:13:06,10.9,-1.0,55.6,0.0,-253.0,-0.0,-0.02,1.0,,31.0,14.0,0.0,29.88,-416.0,,,241.0,,,,,0.0,0.0,,,,,,,,,,,,,,,,,,,57.0,9.0,651.0,651.0,12.0,2.9,,2.9,27.1,,,38.0,0.0,0.0,-0.2,0.6,0.2,,,,,18.0,461.0,20.0,392.0,17.0,426.0,21.0,370.0,,,-2.0,0.0,,27.1,3.0,0.0,,,0.653,0.83,56.8,8.9,,,,,,651.0,2026-01-10 12:11:22-08:00
106.06,2.0,10.0,2026-01-10 20:13:08,37.08158,-121.59967,300.0,0.1,153.0,-12.6,,,,,20:13:07,10.9,-1.0,55.6,0.0,-253.0,-0.0,-0.02,1.0,,33.0,14.0,0.0,29.88,-415.0,,,241.0,,,,,0.0,0.0,,,,,,,,,,,,,,,,,,,61.0,9.0,654.0,654.0,13.5,2.6,,2.6,27.0,,,38.0,0.0,0.0,-0.3,0.6,0.2,,,,,18.0,461.0,20.0,394.0,17.0,425.0,22.0,374.0,,,-2.0,0.0,,27.0,3.0,0.0,,,0.653,0.831,60.5,8.9,,,,,,654.0,2026-01-10 12:11:22-08:00
107.06,2.0,10.0,2026-01-10 20:13:09,37.08158,-121.59967,301.0,0.1,153.0,-12.6,,,,,20:13:08,10.9,-1.0,55.7,0.0,-253.0,0.0,-0.02,1.0,,18.0,14.0,0.0,29.88,-404.0,,,241.0,,,,,0.0,0.0,,,,,,,,,,,,,,,,,,,63.0,9.0,640.0,640.0,13.9,2.4,,2.4,26.9,,,38.0,0.0,0.0,-0.2,0.6,0.2,,,,,19.0,462.0,20.0,399.0,18.0,426.0,22.0,375.0,,,-2.0,0.0,,26.9,3.0,0.0,,,0.653,0.83,63.5,8.9,,,,,,640.0,2026-01-10 12:11:22-08:00
108.06,2.0,10.0,2026-01-10 20:13:10,37.08158,-121.59967,303.0,0.0,153.0,-12.6,,,,,20:13:09,10.9,-1.0,55.7,0.0,-250.0,0.0,-0.02,1.0,,67.0,14.0,0.0,29.88,-401.0,,,241.0,,,,,0.0,0.0,,,,,,,,,,,,,,,,,,,66.0,9.0,639.0,639.0,14.1,2.2,,2.2,27.0,,,38.0,0.0,0.0,-0.3,0.6,0.2,,,,,19.0,462.0,21.0,403.0,18.0,428.0,23.0,378.0,,,-2.0,0.0,,27.0,3.0,0.0,,,0.653,0.83,65.6,9.0,,,,,,639.0,2026-01-10 12:11:22-08:00
109.06,2.0,10.0,2026-01-10 20:13:11,37.08158,-121.59966,304.0,0.0,153.0,-12.6,,,,,20:13:10,10.9,-1.0,55.8,0.0,-250.0,0.0,-0.02,0.9,,71.0,14.0,0.0,29.88,-401.0,,,241.0,,,,,0.0,0.0,,,,,,,,,,,,,,,,,,,67.0,9.0,635.0,635.0,14.2,2.1,,2.1,27.0,,,38.0,0.0,0.0,-0.3,0.6,0.2,,,,,20.0,462.0,21.0,407.0,19.0,429.0,23.0,380.0,,,-2.0,0.0,,27.0,3.0,0.0,,,0.653,0.83,67.1,9.0,,,,,,635.0,2026-01-10 12:11:22-08:00
110.06,2.0,10.0,2026-01-10 20:13:12,37.08158,-121.59966,305.0,0.0,153.0,-12.6,,,,,20:13:11,10.9,-1.0,55.7,0.0,-249.0,0.0,-0.02,1.0,,34.0,14.0,0.0,29.88,-400.0,,,241.0,,,,,0.0,0.0,,,,,,,,,,,,,,,,,,,68.0,9.0,628.0,628.0,14.3,2.0,,2.0,26.9,,,38.0,0.0,0.0,-0.3,0.6,0.2,,,,,20.0,462.0,21.0,410.0,19.0,429.0,24.0,383.0,,,-2.0,0.0,,26.9,3.0,0.0,,,0.653,0.83,68.3,9.0,,,,,,628.0,2026-01-10 12:11:22-08:00
111.06,2.0,10.0,2026-01-10 20:13:13,37.08158,-121.59965,314.0,0.1,153.0,-12.6,,,,,20:13:12,10.9,-1.0,55.7,0.0,-249.0,0.0,-0.01,1.0,,37.0,14.0,0.0,29.88,-400.0,,,241.0,,,,,0.0,0.0,,,,,,,,,,,,,,,,,,,69.0,9.0,632.0,632.0,14.3,1.9,,1.9,26.9,,,38.0,0.0,0.0,-0.3,0.6,0.2,,,,,20.0,463.0,22.0,414.0,20.0,431.0,24.0,385.0,,,-2.0,0.0,,26.9,3.0,0.0,,,0.653,0.83,69.1,9.0,,,,,,632.0,2026-01-10 12:11:22-08:00
112.06,2.0,10.0,2026-01-10 20:13:14,37.08158,-121.59964,315.0,0.1,153.0,-12.6,,,,,20:13:13,10.9,-1.0,55.7,0.0,-249.0,0.0,-0.02,1.0,,29.0,14.0,0.0,29.88,-400.0,,,241.0,,,,,0.0,0.0,,,,,,,,,,,,,,,,,,,70.0,9.0,641.0,641.0,14.5,1.9,,1.9,27.0,,,38.0,0.0,0.0,-0.3,0.6,0.2,,,,,21.0,464.0,22.0,417.0,20.0,431.0,24.0,388.0,,,-2.0,0.0,,27.0,3.0,0.0,,,0.653,0.83,69.8,9.0,,,,,,641.0,2026-01-10 12:11:22-08:00
113.06,2.0,10.0,2026-01-10 20:13:15,37.08158,-121.59964,316.0,0.0,153.0,-12.6,,,,,20:13:14,10.9,-1.0,55.7,0.0,-249.0,-0.0,-0.02,1.0,,4.0,14.0,0.0,29.88,-391.0,,,241.0,,,,,0.0,0.0,,,,,,,,,,,,,,,,,,,70.0,9.0,635.0,635.0,14.5,1.8,,1.8,26.9,,,38.0,0.0,0.0,-0.3,0.6,0.2,,,,,22.0,465.0,23.0,420.0,20.0,433.0,25.0,390.0,,,-2.0,0.0,,26.9,3.0,0.0,,,0.653,0.83,70.3,9.0,,,,,,635.0,2026-01-10 12:11:22-08:00
114.06,2.0,10.0,2026-01-10 20:13:16,37.08158,-121.59964,318.0,0.0,153.0,-12.6,,,,,20:13:15,10.9,-1.0,55.7,0.0,-249.0,0.0,-0.02,0.9,,15.0,14.0,0.0,29.88,-389.0,,,241.0,,,,,0.0,0.0,,,,,,,,,,,,,,,,,,,71.0,9.0,646.0,646.0,14.6,1.8,,1.8,26.9,,,38.0,0.0,0.0,-0.3,0.6,0.2,,,,,22.0,465.0,23.0,423.0,21.0,436.0,25.0,392.0,,,-2.0,0.0,,26.9,3.0,0.0,,,0.653,0.83,70.7,9.0,,,,,,646.0,2026-01-10 12:11:22-08:00
115.06,2.0,10.0,2026-01-10 20:13:17,37.08158,-121.59964,319.0,0.0,153.0,-12.6,,,,,20:13:16,10.9,-1.0,55.7,0.0,-249.0,0.0,-0.02,1.0,,-18.0,14.0,0.0,29.88,-389.0,,,241.0,,,,,0.0,0.0,,,,,,,,,,,,,,,,,,,71.0,9.0,632.0,632.0,14.6,1.7,,1.7,26.9,,,38.0,0.0,0.0,-0.3,0.6,0.2,,,,,22.0,466.0,24.0,426.0,21.0,437.0,26.0,394.0,,,-2.0,0.0,,26.9,3.0,0.0,,,0.653,0.83,71.1,9.0,,,,,,632.0,2026-01-10 12:11:22-08:00
116.06,2.0,10.0,2026-01-10 20:13:18,37.0816,-121.59964,320.0,0.0,153.0,-12.6,,,,,20:13:17,10.9,-1.0,55.7,0.0,-249.0,0.1,-0.02,1.0,,-52.0,14.0,0.0,29.88,-389.0,,,241.0,,,,,0.0,0.0,,,,,,,,,,,,,,,,,,,71.0,9.0,647.0,647.0,14.6,1.7,,1.7,27.0,,,38.0,0.0,0.0,-0.3,0.6,0.2,,,,,23.0,467.0,24.0,429.0,22.0,440.0,26.0,397.0,,,-2.0,0.0,,27.0,3.0,0.0,,,0.653,0.83,71.3,9.0,,,,,,647.0,2026-01-10 12:11:22-08:00
117.06,2.0,10.0,2026-01-10 20:13:19,37.0816,-121.59963,329.0,0.1,153.0,-12.6,,,,,20:13:18,10.9,-1.0,55.8,0.0,-249.0,0.1,-0.02,1.0,,-80.0,14.0,0.0,29.88,-380.0,,,241.0,,,,,0.0,0.0,,,,,,,,,,,,,,,,,,,72.0,9.0,657.0,657.0,14.5,1.7,,1.7,26.9,,,38.0,0.0,0.0,-0.3,0.6,0.2,,,,,23.0,469.0,24.0,432.0,22.0,443.0,27.0,398.0,,,-2.0,0.0,,26.9,3.0,0.0,,,0.653,0.83,71.6,9.0,,,,,,657.0,2026-01-10 12:11:22-08:00
118.06,2.0,10.0,2026-01-10 20:13:20,37.0816,-121.59963,330.0,0.1,153.0,-12.6,,,,,20:13:19,10.9,-0.9,55.7,0.0,-249.0,0.0,-0.02,1.0,,-52.0,14.0,0.0,29.88,-380.0,,,241.0,,,,,0.0,0.0,,,,,,,,,,,,,,,,,,,72.0,9.0,652.0,652.0,14.4,1.6,,1.6,27.0,,,38.0,0.0,0.0,-0.3,0.6,0.2,,,,,24.0,469.0,25.0,435.0,22.0,446.0,27.0,400.0,,,-2.0,0.0,,27.0,3.0,0.0,,,0.653,0.83,71.7,9.0,,,,,,652.0,2026-01-10 12:11:22-08:00
119.06,2.0,10.0,2026-01-10 20:13:21,37.08161,-121.59963,331.0,0.1,153.0,-12.6,,,,,20:13:20,10.9,-1.0,55.7,0.0,-249.0,-0.0,-0.02,1.0,,-45.0,14.0,0.0,29.88,-380.0,,,241.0,,,,,0.0,0.0,,,,,,,,,,,,,,,,,,,72.0,9.0,661.0,661.0,14.5,1.6,,1.6,26.9,,,38.0,0.0,0.0,-0.3,0.6,0.2,,,,,24.0,471.0,25.0,437.0,23.0,450.0,28.0,402.0,,,-2.0,0.0,,26.9,3.0,0.0,,,0.653,0.83,71.8,9.0,,,,,,661.0,2026-01-10 12:11:22-08:00
120.06,2.0,10.0,2026-01-10 20:13:22,37.0816,-121.59963,332.0,0.1,153.0,-12.6,,,,,20:13:21,10.9,-1.0,55.8,0.0,-249.0,0.0,-0.02,1.0,,-32.0,14.0,0.0,29.88,-380.0,,,241.0,,,,,0.0,0.0,,,,,,,,,,,,,,,,,,,72.0,9.0,659.0,659.0,14.5,1.6,,1.6,27.0,,,38.0,0.0,0.0,-0.3,0.6,0.2,,,,,25.0,472.0,26.0,440.0,24.0,454.0,28.0,404.0,,,-2.0,0.0,,27.0,3.0,0.0,,,0.653,0.83,71.9,9.0,,,,,,659.0,2026-01-10 12:11:22-08:00
121.06,2.0,10.0,2026-01-10 20:13:23,37.0816,-121.59963,332.0,0.0,153.0,-12.6,,,,,20:13:22,11.0,-1.0,55.7,0.0,-249.0,0.0,-0.02,1.0,,-34.0,14.0,0.0,29.88,-380.0,,,241.0,,,,,0.0,0.0,,,,,,,,,,,,,,,,,,,72.0,9.0,652.0,652.0,14.5,1.5,,1.5,26.9,,,38.0,0.0,0.0,-0.3,0.6,0.2,,,,,25.0,473.0,26.0,441.0,24.0,458.0,29.0,407.0,,,-2.0,0.0,,26.9,3.0,0.0,,,0.653,0.83,72.0,9.0,,,,,,652.0,2026-01-10 12:11:22-08:00
122.06,2.0,10.0,2026-01-10 20:13:24,37.0816,-121.59963,332.0,0.0,153.0,-12.6,,,,,20:13:23,11.0,-0.9,55.7,0.0,-249.0,0.0,-0.02,1.0,,-62.0,14.0,0.0,29.88,-378.0,,,241.0,,,,,0.0,0.0,,,,,,,,,,,,,,,,,,,72.0,9.0,648.0,648.0,14.5,1.5,,1.5,27.0,,,38.0,0.0,0.0,-0.3,0.6,0.2,,,,,25.0,474.0,27.0,443.0,24.0,463.0,29.0,409.0,,,-2.0,0.0,,27.0,3.0,0.0,,,0.653,0.83,72.1,9.0,,,,,,648.0,2026-01-10 12:11:22-08:00
123.06,2.0,10.0,2026-01-10 20:13:25,37.0816,-121.59962,331.0,0.0,153.0,-12.6,,,,,20:13:24,11.0,-0.9,55.6,0.0,-252.0,-0.0,-0.02,1.0,,-121.0,14.0,0.0,29.88,-378.0,,,241.0,,,,,0.0,0.0,,,,,,,,,,,,,,,,,,,72.0,9.0,654.0,654.0,14.6,1.5,,1.5,27.0,,,38.0,0.0,0.0,-0.3,0.6,0.2,,,,,26.0,474.0,27.0,446.0,25.0,468.0,30.0,412.0,,,-2.0,0.0,,27.0,3.0,0.0,,,0.653,0.83,72.1,9.0,,,,,,654.0,2026-01-10 12:11:22-08:00
124.06,2.0,10.0,2026-01-10 20:13:26,37.0816,-121.59962,329.0,0.0,153.0,-12.6,,,,,20:13:25,11.0,-0.9,55.7,0.0,-252.0,0.0,-0.02,1.0,,-66.0,14.0,0.0,29.88,-378.0,,,241.0,,,,,0.0,0.0,,,,,,,,,,,,,,,,,,,72.0,9.0,662.0,662.0,14.5,1.5,,1.5,27.0,,,38.0,0.0,0.0,-0.3,0.6,0.2,,,,,26.0,474.0,27.0,447.0,25.0,472.0,30.0,415.0,,,-2.0,0.0,,27.0,3.0,0.0,,,0.653,0.83,72.2,9.0,,,,,,662.0,2026-01-10 12:11:22-08:00
125.06,2.0,10.0,2026-01-10 20:13:27,37.08159,-121.59963,329.0,0.0,153.0,-12.6,,,,,20:13:26,11.0,-0.9,55.6,0.0,-252.0,0.0,-0.02,1.0,,-35.0,14.0,0.0,29.88,-372.0,,,241.0,,,,,0.0,0.0,,,,,,,,,,,,,,,,,,,72.0,9.0,657.0,657.0,14.5,1.5,,1.5,27.0,,,38.0,0.0,0.0,-0.3,0.6,0.2,,,,,27.0,475.0,28.0,448.0,26.0,477.0,31.0,417.0,,,-2.0,0.0,,27.0,3.0,0.0,,,0.653,0.83,72.2,9.1,,,,,,657.0,2026-01-10 12:11:22-08:00
126.06,2.0,10.0,2026-01-10 20:13:28,37.08159,-121.59963,327.0,0.1,153.0,-12.6,,,,,20:13:27,11.0,-1.0,55.6,0.0,-252.0,-0.0,-0.02,1.0,,-42.0,14.0,0.0,29.88,-372.0,,,241.0,,,,,0.0,0.0,,,,,,,,,,,,,,,,,,,72.0,9.0,659.0,659.0,14.6,1.5,,1.5,27.0,,,38.0,0.0,0.0,-0.3,0.6,0.2,,,,,27.0,475.0,28.0,450.0,26.0,482.0,31.0,420.0,,,-2.0,0.0,,27.0,3.0,0.0,,,0.653,0.83,72.3,9.1,,,,,,659.0,2026-01-10 12:11:22-08:00
127.06,2.0,10.0,2026-01-10 20:13:29,37.08159,-121.59963,326.0,0.0,153.0,-12.6,,,,,20:13:28,10.9,-1.0,55.6,0.0,-252.0,-0.0,-0.02,1.0,,-4.0,14.0,0.0,29.88,-372.0,,,241.0,,,,,0.0,0.0,,,,,,,,,,,,,,,,,,,72.0,9.0,659.0,659.0,14.7,1.5,,1.5,27.0,,,38.0,0.0,0.0,-0.3,0.6,0.2,,,,,28.0,475.0,29.0,451.0,26.0,487.0,31.0,422.0,,,-2.0,0.0,,27.0,3.0,0.0,,,0.653,0.829,72.4,9.1,,,,,,659.0,2026-01-10 12:11:22-08:00
128.06,2.0,10.0,2026-01-10 20:13:30,37.08159,-121.59963,325.0,0.0,153.0,-12.6,,,,,20:13:29,10.9,-1.0,55.7,0.0,-252.0,-0.0,-0.02,1.0,,38.0,14.0,0.0,29.88,-372.0,,,241.0,,,,,0.0,0.0,,,,,,,,,,,,,,,,,,,72.0,9.0,664.0,664.0,14.5,1.5,,1.5,27.0,,,38.0,0.0,0.0,-0.3,0.6,0.2,,,,,28.0,476.0,29.0,453.0,27.0,491.0,32.0,425.0,,,-2.0,0.0,,27.0,3.0,0.0,,,0.653,0.829,72.5,9.1,,,,,,664.0,2026-01-10 12:11:22-08:00
129.06,2.0,10.0,2026-01-10 20:13:31,37.08159,-121.59963,325.0,0.0,153.0,-12.6,,,,,20:13:30,10.9,-0.9,55.7,0.0,-252.0,0.0,-0.01,1.0,,33.0,14.0,0.0,29.88,-370.0,,,241.0,,,,,0.0,0.0,,,,,,,,,,,,,,,,,,,73.0,9.0,660.0,660.0,14.5,1.5,,1.5,26.9,,,38.0,0.0,0.0,-0.3,0.6,0.2,,,,,29.0,475.0,30.0,455.0,27.0,496.0,32.0,427.0,,,-2.0,0.0,,26.9,3.0,0.0,,,0.653,0.829,72.6,9.1,,,,,,660.0,2026-01-10 12:11:22-08:00
130.06,2.0,10.0,2026-01-10 20:13:32,37.08158,-121.59963,325.0,0.0,153.0,-12.6,,,,,20:13:31,10.9,-0.9,55.7,0.0,-252.0,0.0,-0.02,1.0,,75.0,15.0,0.0,29.88,-370.0,,,241.0,,,,,0.0,0.0,,,,,,,,,,,,,,,,,,,73.0,9.0,664.0,664.0,14.6,1.5,,1.5,27.0,,,38.0,0.0,0.0,-0.3,0.6,0.2,,,,,29.0,476.0,30.0,456.0,28.0,500.0,33.0,430.0,,,-2.0,0.0,,27.0,3.0,0.0,,,0.653,0.829,72.6,9.1,,,,,,664.0,2026-01-10 12:11:22-08:00
131.06,2.0,10.0,2026-01-10 20:13:33,37.08158,-121.59963,325.0,0.1,153.0,-12.6,,,,,20:13:32,10.9,-1.0,55.7,0.0,-252.0,0.0,-0.02,1.0,,59.0,15.0,0.0,29.88,-370.0,,,241.0,,,,,0.0,0.0,,,,,,,0.0,,,0.0,,,,,,,,,73.0,9.0,668.0,668.0,14.6,1.5,,1.5,26.9,,,38.0,0.0,0.0,-0.3,0.6,0.2,,,,,30.0,478.0,31.0,457.0,28.0,503.0,34.0,433.0,,,-2.0,0.0,,26.9,3.0,0.0,,,0.653,0.829,72.6,9.2,,,,,,668.0,2026-01-10 12:11:22-08:00
132.06,2.0,10.0,2026-01-10 20:13:34,37.08158,-121.59963,324.0,0.1,153.0,-12.6,,,,,20:13:33,10.9,-1.0,55.7,0.0,-252.0,-0.0,-0.02,1.0,,8.0,15.0,0.0,29.88,-361.0,,,241.0,,,,,0.0,0.0,,,,,,,0.0,,,0.0,,,,,,,,,73.0,9.0,675.0,675.0,14.6,1.5,,1.5,27.0,,,38.0,0.0,0.0,-0.3,0.6,0.2,,,,,30.0,479.0,31.0,459.0,29.0,507.0,34.0,435.0,,,-2.0,0.0,,27.0,3.0,0.0,,,0.653,0.829,72.7,9.2,,,,,,675.0,2026-01-10 12:11:22-08:00
133.06,2.0,10.0,2026-01-10 20:13:35,37.08158,-121.59964,325.0,0.0,153.0,-12.6,,,,,20:13:34,10.9,-1.0,55.7,0.0,-252.0,0.0,-0.02,1.0,,-19.0,15.0,0.0,29.88,-361.0,,,241.0,,,,,0.0,0.0,,,,,,,0.0,,,0.0,,,,,,,,,73.0,10.0,610.0,610.0,14.7,1.5,,1.5,26.9,,,38.0,0.0,0.0,7.1,0.6,0.2,,,,,32.0,480.0,33.0,460.0,30.0,511.0,36.0,437.0,,,-2.0,0.0,,26.9,3.0,0.0,,,0.653,0.829,72.6,9.7,,,,,,610.0,2026-01-10 12:11:22-08:00
134.06,2.0,10.0,2026-01-10 20:13:36,37.08159,-121.59964,325.0,0.0,153.0,-12.6,,,,,20:13:35,10.9,-1.0,55.6,0.0,-252.0,0.0,-0.01,1.0,,5.0,15.0,0.0,29.88,-361.0,,,241.0,,,,,0.0,0.0,,,,,,,0.0,,,0.0,,,,,0.0,0.0,0.0,1200.0,73.0,10.0,632.0,632.0,15.5,1.5,,1.5,26.9,,,38.0,0.0,0.0,20.3,0.6,0.2,,,,,32.0,481.0,33.0,461.0,31.0,514.0,36.0,439.0,,,-2.0,0.0,,26.9,3.0,0.0,,,0.653,0.829,72.6,9.7,,,,,,632.0,2026-01-10 12:11:22-08:00
135.06,2.0,10.0,2026-01-10 20:13:37,37.08159,-121.59964,325.0,0.0,153.0,-12.6,,,,,20:13:36,10.9,-0.9,55.5,0.0,-252.0,-0.0,-0.02,1.0,,53.0,15.0,0.0,29.88,-359.0,,,241.0,,,,,0.0,0.0,,,,,,,0.0,,,0.0,,,,,0.0,0.0,0.0,1200.0,73.0,10.0,623.0,623.0,15.6,1.6,,1.6,26.9,,,38.0,0.0,0.0,28.2,0.6,0.2,,,,,33.0,480.0,33.0,462.0,31.0,516.0,37.0,441.0,,,-2.0,0.0,,26.9,3.0,0.0,,,0.653,0.829,72.6,9.7,,,,,,623.0,2026-01-10 12:11:22-08:00
136.06,2.0,10.0,2026-01-10 20:13:38,37.08159,-121.59964,325.0,0.0,153.0,-12.6,,,,,20:13:37,11.0,-1.0,55.5,0.0,-252.0,-0.0,-0.02,1.0,,11.0,15.0,0.0,29.88,-359.0,,,241.0,,,,,0.0,0.0,,,,,,,0.0,,,0.0,,,,,0.0,0.0,0.0,1200.0,73.0,10.0,630.0,630.0,15.7,1.7,,1.7,26.9,,,38.0,0.0,0.0,32.7,0.6,0.2,,,,,33.0,480.0,34.0,463.0,32.0,518.0,37.0,443.0,,,-2.0,0.0,,26.9,3.0,0.0,,,0.653,0.829,72.6,9.7,,,,,,630.0,2026-01-10 12:11:22-08:00
137.06,2.0,10.0,2026-01-10 20:13:39,37.08158,-121.59964,326.0,0.0,153.0,-12.6,,,,,20:13:38,11.0,-1.0,55.5,0.0,-252.0,0.0,-0.02,1.0,,35.0,15.0,0.0,29.88,-359.0,,,241.0,,,,,0.0,0.0,,,,,,,0.0,,,0.0,,,,,0.0,0.0,0.0,1200.0,73.0,10.0,630.0,630.0,15.7,1.7,,1.7,26.9,,,38.0,0.0,0.0,35.6,0.6,0.2,,,,,34.0,480.0,34.0,463.0,32.0,519.0,37.0,445.0,,,-2.0,0.0,,26.9,3.0,0.0,,,0.653,0.834,72.7,9.7,,,,,,630.0,2026-01-10 12:11:22-08:00
138.06,2.0,10.0,2026-01-10 20:13:40,37.08158,-121.59964,326.0,0.1,153.0,-12.6,,,,,20:13:39,11.0,-1.0,55.5,0.0,-252.0,0.0,-0.02,1.0,,15.0,15.0,0.0,29.88,-350.0,,,241.0,,,,,0.0,0.0,,,,,,,0.0,,,0.0,,,,,,,,,73.0,10.0,635.0,635.0,15.8,1.7,,1.7,26.9,,,38.0,0.0,0.0,37.1,0.6,0.2,,,,,34.0,480.0,35.0,464.0,32.0,519.0,38.0,446.0,,,-2.0,0.0,,26.9,3.0,0.0,,,0.653,0.834,72.7,9.7,,,,,,635.0,2026-01-10 12:11:22-08:00
139.06,2.0,10.0,2026-01-10 20:13:41,37.08158,-121.59964,325.0,0.1,153.0,-12.6,,,,,20:13:40,11.0,-1.0,55.5,0.0,-252.0,0.0,-0.02,1.0,,42.0,15.0,0.0,29.88,-350.0,,,241.0,,,,,0.0,0.0,,,,,,,0.0,,,0.0,,,,,,,,,73.0,10.0,679.0,679.0,15.9,1.7,,1.7,26.9,,,38.0,0.0,0.0,38.3,0.6,0.2,,,,,35.0,480.0,35.0,465.0,33.0,521.0,38.0,448.0,,,-2.0,0.0,,26.9,3.0,0.0,,,0.653,0.834,72.8,9.8,,,,,,679.0,2026-01-10 12:11:22-08:00
140.06,2.0,10.0,2026-01-10 20:13:42,37.08158,-121.59964,324.0,0.0,153.0,-12.6,,,,,20:13:41,11.0,-1.0,55.5,0.0,-252.0,0.0,-0.02,1.0,,65.0,15.0,0.0,29.88,-350.0,,,241.0,,,,,0.0,0.0,,,,,,,0.0,,,0.0,,,,,,,,,73.0,10.0,730.0,730.0,15.9,1.7,,1.7,26.9,,,38.0,0.0,0.0,41.1,0.6,0.2,,,,,35.0,483.0,36.0,466.0,33.0,529.0,39.0,451.0,,,-2.0,0.0,,26.9,3.0,0.0,,,0.653,0.834,72.9,9.8,,,,,,730.0,2026-01-10 12:11:22-08:00
141.06,2.0,10.0,2026-01-10 20:13:43,37.08158,-121.59964,327.0,0.0,153.0,-12.6,,,,,20:13:42,10.9,-0.9,55.5,0.0,-252.0,0.0,-0.02,1.0,,27.0,15.0,0.0,29.88,-350.0,,,241.0,,,,,0.0,0.0,,,,,,,0.0,,,0.0,,,,,,,,,73.0,10.0,738.0,738.0,15.3,1.7,,1.7,26.9,,,38.0,0.0,0.0,43.6,0.6,0.2,,,,,36.0,485.0,36.0,468.0,34.0,533.0,39.0,453.0,,,-2.0,0.0,,26.9,3.0,0.0,,,0.653,0.834,73.0,9.9,,,,,,738.0,2026-01-10 12:11:22-08:00
142.06,2.0,10.0,2026-01-10 20:13:44,37.08158,-121.59964,327.0,0.1,153.0,-12.6,,,,,20:13:43,11.0,-0.9,55.5,0.0,-251.0,0.0,-0.02,0.9,,23.0,15.0,0.0,29.88,-350.0,,,241.0,,,,,0.0,0.0,,,,,,,0.0,,,0.0,,,,,,,,,73.0,10.0,709.0,709.0,15.3,1.6,,1.6,26.9,,,38.0,0.0,0.0,44.9,0.6,0.2,,,,,36.0,488.0,37.0,470.0,34.0,536.0,40.0,456.0,,,-2.0,0.0,,26.9,3.0,0.0,,,0.653,0.834,73.0,9.9,,,,,,709.0,2026-01-10 12:11:22-08:00
143.06,2.0,10.0,2026-01-10 20:13:45,37.08158,-121.59964,327.0,0.1,153.0,-12.6,,,,,20:13:44,11.0,-0.9,55.5,0.0,-251.0,-0.0,-0.02,0.9,,4.0,15.0,0.0,29.88,-347.0,,,241.0,,,,,0.0,0.0,,,,,,,0.0,,,0.0,,,,,,,,,73.0,10.0,732.0,732.0,15.3,1.6,,1.6,26.9,,,38.0,0.0,0.0,45.1,0.6,0.2,,,,,37.0,490.0,38.0,471.0,35.0,542.0,40.0,459.0,,,-2.0,0.0,,26.9,3.0,0.0,,,0.653,0.834,73.0,9.9,,,,,,732.0,2026-01-10 12:11:22-08:00
144.06,2.0,10.0,2026-01-10 20:13:46,37.08158,-121.59964,327.0,0.1,153.0,-12.6,,,,,20:13:45,11.0,-0.9,55.5,0.0,-251.0,0.0,-0.02,1.0,,8.0,15.0,0.0,29.88,-347.0,,,241.0,,,,,0.0,0.0,,,,,,,0.0,,,0.0,,,,,,,,,73.0,10.0,723.0,723.0,15.3,1.7,,1.7,26.8,,,38.0,0.0,0.0,45.7,0.6,0.2,,,,,38.0,493.0,38.0,473.0,35.0,542.0,41.0,461.0,,,-2.0,0.0,,26.8,3.0,0.0,,,0.653,0.834,73.0,9.9,,,,,,723.0,2026-01-10 12:11:22-08:00
145.06,2.0,10.0,2026-01-10 20:13:47,37.08158,-121.59964,327.0,0.1,153.0,-12.6,,,,,20:13:46,11.0,-0.9,55.5,0.0,-251.0,0.0,-0.02,1.0,,21.0,15.0,0.0,29.88,-347.0,,,241.0,,,,,0.0,0.0,,,,,,,0.0,,,0.0,,,,,,,,,73.0,10.0,730.0,730.0,15.2,1.7,,1.7,26.8,,,38.0,0.0,0.0,46.1,0.6,0.2,,,,,38.0,494.0,38.0,476.0,36.0,541.0,42.0,462.0,,,-2.0,0.0,,26.8,3.0,0.0,,,0.653,0.834,72.9,9.9,,,,,,730.0,2026-01-10 12:11:22-08:00
146.06,2.0,10.0,2026-01-10 20:13:48,37.08158,-121.59964,322.0,0.0,153.0,-12.6,,,,,20:13:47,11.0,-0.9,55.5,0.0,-249.0,0.0,-0.02,0.9,,53.0,15.0,0.0,29.88,-338.0,,,241.0,,,,,0.0,0.0,,,,,,,0.0,,,0.0,,,,,,,,,73.0,10.0,726.0,726.0,15.2,1.7,,1.7,26.8,,,38.0,0.0,0.0,46.2,0.6,0.2,,,,,39.0,496.0,39.0,478.0,36.0,540.0,42.0,462.0,,,-2.0,0.0,,26.8,3.0,0.0,,,0.653,0.834,72.9,9.9,,,,,,726.0,2026-01-10 12:11:22-08:00
147.06,2.0,10.0,2026-01-10 20:13:49,37.08158,-121.59964,321.0,0.0,153.0,-12.6,,,,,20:13:48,11.0,-0.9,55.5,0.0,-249.0,-0.0,-0.02,1.0,,-7.0,15.0,0.0,29.88,-338.0,,,241.0,,,,,0.0,0.0,,,,,,,0.0,,,0.0,,,,,,,,,73.0,10.0,734.0,734.0,15.2,1.7,,1.7,26.8,,,38.0,0.0,0.0,46.3,0.6,0.2,,,,,39.0,497.0,39.0,480.0,37.0,539.0,43.0,464.0,,,-2.0,0.0,,26.8,3.0,0.0,,,0.653,0.834,72.9,10.0,,,,,,734.0,2026-01-10 12:11:22-08:00
148.06,2.0,10.0,2026-01-10 20:13:50,37.08158,-121.59964,321.0,0.1,153.0,-12.6,,,,,20:13:49,11.0,-0.9,55.5,0.0,-249.0,0.0,-0.02,0.9,,2.0,15.0,0.0,29.88,-338.0,,,241.0,,,,,0.0,0.0,,,,,,,0.0,,,0.0,,,,,,,,,73.0,10.0,735.0,735.0,15.2,1.7,,1.7,26.8,,,38.0,0.0,0.0,46.3,0.6,0.2,,,,,40.0,499.0,40.0,482.0,37.0,539.0,43.0,465.0,,,-2.0,0.0,,26.8,3.0,0.0,,,0.653,0.833,72.9,10.0,,,,,,735.0,2026-01-10 12:11:22-08:00
