Session Time,GPS Fix Quality,Number of Satellites,GPS Date & Time,Latitude (deg),Longitude (deg),GPS Altitude (feet),Ground Speed (knots),Ground Track (deg),Mag Var (deg),Cross Track Error (NM),Destination Waypoint ID,Range to Destination (NM),Bearing to Destination (deg),System Time,Pitch (deg),Roll (deg),Magnetic Heading (deg),Indicated Airspeed (knots),Pressure Altitude (ft),Turn Rate (deg/s),Lateral Accel (g),Vertical Accel(g),Angle of Attack (%),Vertical Speed (ft/min),OAT (deg C),True Airspeed (knots),Barometer Setting (inHg),Density Altitude (ft),Wind Direction (deg),Wind Speed (knots),Heading Bug (deg),Altitude Bug (ft),Airspeed Bug (knots),Vertical Speed Bug (ft/min),Course (deg),CDI Source Type,CDI Source Port,CDI Scale (NM),CDI Deflection (%),Glideslope (%),AP Engaged,AP Roll Mode,AP Roll Force,AP Roll Position (steps),AP Roll Slip (bool),AP Pitch Force,AP Pitch Position (steps),AP Pitch Slip (bool),AP Yaw Force,AP Yaw Position,AP Yaw Slip (bool),Transponder Status,Transponder Reply (bool),Transponder Identing (bool),Transponder Code (octal),Oil Pressure (PSI),Oil Temp (deg C),RPM L,RPM R,Manifold Pressure (inHg),Fuel Flow 1 (gal/hr),Fuel Flow 2 (gal/hr),Total Fuel Flow (gal/hr),Fuel Pressure (PSI),Fuel Level L (gal),Fuel Level R (gal),Fuel Remaining (gal),Volts 1,Volts 2,Amps,Hobbs Time,Tach Time,Thermocouple 1 (deg C),Thermocouple 2 (deg C),Thermocouple 3 (deg C),Thermocouple 4 (deg C),CHT 4 (deg C),EGT 4 (deg C),CHT 3 (deg C),EGT 3 (deg C),CHT 2 (deg C),EGT 2 (deg C),CHT 1 (deg C),EGT 1 (deg C),Thermocouple 13 (deg C),Thermocouple 14 (deg C),ELEV POSITION (%),CO PPM PRESSURE (PSI),GP Input 3,FUEL PRESSURE (PSI),AILERN POSITION (%),CANOPY CONTACT (V),GP Input 7,GP Input 8,LEFT LEVEL (Sensor V),RIGHT LEVEL (Sensor V),OIL PRESSURE (PSI),OIL TEMPERATURE (deg C),GP Input 13,Contacts,Percent Power,EGT Leaning State,Unnamed: 103,OAT (deg F),Oil Temp (deg F),Thermocouple 1 (deg F),Thermocouple 2 (deg F),Thermocouple 3 (deg F),Thermocouple 4 (deg F),CHT 4 (deg F),EGT 4 (deg F),CHT 3 (deg F),EGT 3 (deg F),CHT 2 (deg F),EGT 2 (deg F),CHT 1 (deg F),EGT 1 (deg F),Thermocouple 13 (deg F),Thermocouple 14 (deg F),OIL TEMPERATURE (deg F),RPM,AVG_CHT,CHT_Delta_T,OIL_Delta_T,Fuel Flow Integral,Distance Traveled,MPG,Max CHT,Engine Run,Flight ID
7.06,1,9,2026-05-13 17:41:18,37.08141,-121.59962,454.0,0.0,84.2,-12.6,0.0,,0.0,0.0,0.0,10.8,-0.4,6.8,0.0,107.0,0.1,-0.01,1.0,99.0,-82.0,21,0.0,29.99,877.0,0.0,0.0,309,0.0,0.0,0.0,0.0,0,0,0.0,0.0,0.0,0.0,0.0,0.0,0.0,0.0,0.0,0.0,0.0,0.0,0.0,0.0,0.0,0.0,0.0,0.0,0.0,16.0,0.0,0.0,30.2,0.0,0.0,0.0,0.0,0.0,0.0,37.0,0.0,0.0,-0.6,14.9,12.3,0.0,0.0,0.0,0.0,17.0,18.0,17.0,19.0,17.0,18.0,17.0,19.0,0.0,0.0,-31.0,254.5,0.0,0.0,8.0,0.0,0.0,0.0,0.654,0.814,0.0,16.4,0.0,0.0,0.0,,0.0,69.8,60.8,0.0,0.0,0.0,0.0,62.6,64.4,62.6,66.2,62.6,64.4,62.6,66.2,0.0,0.0,61.519999999999996,0.0,62.6,-7.199999999999996,-8.280000000000001,0.0,0.0,0.0,383.0,True,2026-05-13 10:41:18-07:00
8.06,1,9,2026-05-13 17:41:19,37.08144,-121.59962,390.0,0.0,84.2,-12.6,0.0,,0.0,0.0,0.0,10.8,-0.4,6.8,0.0,106.0,0.1,-0.01,1.0,99.0,-70.0,21,0.0,29.99,877.0,0.0,0.0,309,0.0,0.0,0.0,0.0,0,0,0.0,0.0,0.0,0.0,0.0,0.0,0.0,0.0,0.0,0.0,0.0,0.0,0.0,0.0,0.0,0.0,0.0,0.0,0.0,16.0,0.0,0.0,30.2,0.0,0.0,0.0,0.0,0.0,0.0,37.0,0.0,0.0,-0.6,14.9,12.3,0.0,0.0,0.0,0.0,17.0,18.0,17.0,19.0,17.0,18.0,17.0,19.0,0.0,0.0,-31.0,254.5,0.0,0.0,8.0,0.0,0.0,0.0,0.654,0.815,0.0,16.4,0.0,0.0,0.0,,0.0,69.8,60.8,0.0,0.0,0.0,0.0,62.6,64.4,62.6,66.2,62.6,64.4,62.6,66.2,0.0,0.0,61.519999999999996,0.0,62.6,-7.199999999999996,-8.280000000000001,0.0,0.0,0.0,383.0,True,2026-05-13 10:41:18-07:00
9.06,1,9,2026-05-13 17:41:20,37.08144,-121.59962,388.0,0.0,84.2,-12.6,0.0,,0.0,0.0,0.0,10.8,-0.4,6.8,0.0,105.0,0.1,-0.01,1.0,99.0,-65.0,21,0.0,29.99,877.0,0.0,0.0,309,0.0,0.0,0.0,0.0,0,0,0.0,0.0,0.0,0.0,0.0,0.0,0.0,0.0,0.0,0.0,0.0,0.0,0.0,0.0,0.0,0.0,0.0,0.0,0.0,16.0,0.0,0.0,30.2,0.0,0.0,0.0,0.0,0.0,0.0,37.0,0.0,0.0,-0.6,14.9,12.3,0.0,0.0,0.0,0.0,17.0,18.0,17.0,19.0,17.0,18.0,18.0,19.0,0.0,0.0,-31.0,254.5,0.0,0.0,8.0,0.0,0.0,0.0,0.653,0.814,0.0,16.4,0.0,0.0,0.0,,0.0,69.8,60.8,0.0,0.0,0.0,0.0,62.6,64.4,62.6,66.2,62.6,64.4,64.4,66.2,0.0,0.0,61.519999999999996,0.0,63.05,-6.75,-8.280000000000001,0.0,0.0,0.0,383.0,True,2026-05-13 10:41:18-07:00
10.06,1,9,2026-05-13 17:41:21,37.08144,-121.59962,386.0,0.0,84.2,-12.6,0.0,,0.0,0.0,0.0,10.8,-0.4,6.8,0.0,103.0,0.1,-0.01,1.0,99.0,-82.0,21,0.0,29.99,883.0,0.0,0.0,309,0.0,0.0,0.0,0.0,0,0,0.0,0.0,0.0,0.0,0.0,0.0,0.0,0.0,0.0,0.0,0.0,0.0,0.0,0.0,0.0,0.0,0.0,0.0,0.0,16.0,0.0,0.0,30.2,0.0,0.0,0.0,0.0,0.0,0.0,37.0,0.0,0.0,-0.6,14.9,12.3,0.0,0.0,0.0,0.0,17.0,18.0,17.0,19.0,17.0,18.0,18.0,19.0,0.0,0.0,-31.0,254.5,0.0,0.0,8.0,0.0,0.0,0.0,0.653,0.814,0.0,16.4,0.0,0.0,0.0,,0.0,69.8,60.8,0.0,0.0,0.0,0.0,62.6,64.4,62.6,66.2,62.6,64.4,64.4,66.2,0.0,0.0,61.519999999999996,0.0,63.05,-6.75,-8.280000000000001,0.0,0.0,0.0,383.0,True,2026-05-13 10:41:18-07:00
11.06,1,9,2026-05-13 17:41:22,37.08144,-121.59962,385.0,0.0,84.2,-12.6,0.0,,0.0,0.0,0.0,10.8,-0.4,6.8,0.0,102.0,0.1,-0.01,1.0,99.0,-55.0,21,0.0,29.99,881.0,0.0,0.0,309,0.0,0.0,0.0,0.0,0,0,0.0,0.0,0.0,0.0,0.0,0.0,0.0,0.0,0.0,0.0,0.0,0.0,0.0,0.0,0.0,0.0,0.0,0.0,0.0,16.0,0.0,0.0,30.2,0.0,0.0,0.0,0.0,0.0,0.0,37.0,0.0,0.0,-0.6,14.9,12.3,0.0,0.0,0.0,0.0,17.0,18.0,17.0,19.0,17.0,18.0,18.0,19.0,0.0,0.0,-31.0,254.5,0.0,0.0,8.0,0.0,0.0,0.0,0.654,0.814,0.0,16.4,0.0,0.0,0.0,,0.0,69.8,60.8,0.0,0.0,0.0,0.0,62.6,64.4,62.6,66.2,62.6,64.4,64.4,66.2,0.0,0.0,61.519999999999996,0.0,63.05,-6.75,-8.280000000000001,0.0,0.0,0.0,383.0,True,2026-05-13 10:41:18-07:00
12.06,1,9,2026-05-13 17:41:23,37.08145,-121.59962,384.0,0.0,84.2,-12.6,0.0,,0.0,0.0,0.0,10.8,-0.4,6.7,0.0,100.0,0.1,-0.01,1.0,99.0,-99.0,21,0.0,29.99,881.0,0.0,0.0,309,0.0,0.0,0.0,0.0,0,0,0.0,0.0,0.0,0.0,0.0,0.0,0.0,0.0,0.0,0.0,0.0,0.0,0.0,0.0,0.0,0.0,0.0,0.0,0.0,16.0,0.0,0.0,30.2,0.0,0.0,0.0,0.0,0.0,0.0,37.0,0.0,0.0,-0.6,14.9,12.3,0.0,0.0,0.0,0.0,17.0,18.0,17.0,19.0,17.0,18.0,18.0,19.0,0.0,0.0,-31.0,254.5,0.0,0.0,8.0,0.0,0.0,0.0,0.654,0.814,0.0,16.4,0.0,0.0,0.0,,0.0,69.8,60.8,0.0,0.0,0.0,0.0,62.6,64.4,62.6,66.2,62.6,64.4,64.4,66.2,0.0,0.0,61.519999999999996,0.0,63.05,-6.75,-8.280000000000001,0.0,0.0,0.0,383.0,True,2026-05-13 10:41:18-07:00
13.06,1,9,2026-05-13 17:41:24,37.08145,-121.59962,383.0,0.0,84.2,-12.6,0.0,,0.0,0.0,0.0,10.8,-0.5,6.7,0.0,97.0,0.1,-0.01,1.0,99.0,-139.0,21,0.0,29.99,881.0,0.0,0.0,309,0.0,0.0,0.0,0.0,0,0,0.0,0.0,0.0,0.0,0.0,0.0,0.0,0.0,0.0,0.0,0.0,0.0,0.0,0.0,0.0,0.0,0.0,0.0,0.0,16.0,0.0,0.0,30.2,0.0,0.0,0.0,0.0,0.0,0.0,37.0,0.0,0.0,-0.6,14.9,12.3,0.0,0.0,0.0,0.0,17.0,18.0,17.0,19.0,17.0,18.0,18.0,19.0,0.0,0.0,-30.0,254.5,0.0,0.0,8.0,0.0,0.0,0.0,0.653,0.815,0.0,16.4,0.0,0.0,0.0,,0.0,69.8,60.8,0.0,0.0,0.0,0.0,62.6,64.4,62.6,66.2,62.6,64.4,64.4,66.2,0.0,0.0,61.519999999999996,0.0,63.05,-6.75,-8.280000000000001,0.0,0.0,0.0,383.0,True,2026-05-13 10:41:18-07:00
14.06,1,9,2026-05-13 17:41:25,37.08145,-121.59962,381.0,0.0,84.2,-12.6,0.0,,0.0,0.0,0.0,10.8,-0.5,6.7,0.0,94.0,0.1,-0.01,1.0,99.0,-132.0,21,0.0,29.99,875.0,0.0,0.0,309,0.0,0.0,0.0,0.0,0,0,0.0,0.0,0.0,0.0,0.0,0.0,0.0,0.0,0.0,0.0,0.0,0.0,0.0,0.0,0.0,0.0,0.0,0.0,0.0,16.0,0.0,0.0,30.2,0.0,0.0,0.0,0.0,0.0,0.0,37.0,0.0,0.0,-0.6,14.9,12.3,0.0,0.0,0.0,0.0,17.0,18.0,17.0,19.0,17.0,18.0,18.0,19.0,0.0,0.0,-31.0,254.5,0.0,0.0,8.0,0.0,0.0,0.0,0.653,0.814,0.0,16.4,0.0,0.0,0.0,,0.0,69.8,60.8,0.0,0.0,0.0,0.0,62.6,64.4,62.6,66.2,62.6,64.4,64.4,66.2,0.0,0.0,61.519999999999996,0.0,63.05,-6.75,-8.280000000000001,0.0,0.0,0.0,383.0,True,2026-05-13 10:41:18-07:00
15.06,1,9,2026-05-13 17:41:26,37.08145,-121.59962,379.0,0.0,84.2,-12.6,0.0,,0.0,0.0,0.0,10.8,-0.5,6.7,0.0,91.0,0.1,-0.01,1.0,99.0,-160.0,21,0.0,29.99,875.0,0.0,0.0,309,0.0,0.0,0.0,0.0,0,0,0.0,0.0,0.0,0.0,0.0,0.0,0.0,0.0,0.0,0.0,0.0,0.0,0.0,0.0,0.0,0.0,0.0,0.0,0.0,16.0,0.0,0.0,30.2,0.0,0.0,0.0,0.0,0.0,0.0,37.0,0.0,0.0,-0.6,14.9,12.3,0.0,0.0,0.0,0.0,17.0,18.0,17.0,19.0,17.0,18.0,18.0,19.0,0.0,0.0,-31.0,254.5,0.0,0.0,8.0,0.0,0.0,0.0,0.654,0.814,0.0,16.4,0.0,0.0,0.0,,0.0,69.8,60.8,0.0,0.0,0.0,0.0,62.6,64.4,62.6,66.2,62.6,64.4,64.4,66.2,0.0,0.0,61.519999999999996,0.0,63.05,-6.75,-8.280000000000001,0.0,0.0,0.0,383.0,True,2026-05-13 10:41:18-07:00
16.06,1,9,2026-05-13 17:41:27,37.08146,-121.59962,376.0,0.0,84.2,-12.6,0.0,,0.0,0.0,0.0,10.7,-0.5,6.7,0.0,88.0,0.1,-0.01,1.0,99.0,-200.0,21,0.0,29.99,874.0,0.0,0.0,309,0.0,0.0,0.0,0.0,0,0,0.0,0.0,0.0,0.0,0.0,0.0,0.0,0.0,0.0,0.0,0.0,0.0,0.0,0.0,0.0,0.0,0.0,0.0,0.0,16.0,0.0,0.0,30.2,0.0,0.0,0.0,0.0,0.0,0.0,37.0,0.0,0.0,-0.6,14.9,12.3,0.0,0.0,0.0,0.0,17.0,18.0,17.0,19.0,17.0,18.0,18.0,19.0,0.0,0.0,-31.0,254.5,0.0,0.0,8.0,0.0,0.0,0.0,0.653,0.814,0.0,16.4,0.0,0.0,0.0,,0.0,69.8,60.8,0.0,0.0,0.0,0.0,62.6,64.4,62.6,66.2,62.6,64.4,64.4,66.2,0.0,0.0,61.519999999999996,0.0,63.05,-6.75,-8.280000000000001,0.0,0.0,0.0,383.0,True,2026-05-13 10:41:18-07:00
17.06,1,9,2026-05-13 17:41:28,37.08146,-121.59962,374.0,0.0,84.2,-12.6,0.0,,0.0,0.0,0.0,10.8,-0.5,6.7,0.0,85.0,0.1,-0.01,1.0,99.0,-171.0,21,0.0,29.99,871.0,0.0,0.0,309,0.0,0.0,0.0,0.0,0,0,0.0,0.0,0.0,0.0,0.0,0.0,0.0,0.0,0.0,0.0,0.0,0.0,0.0,0.0,0.0,0.0,0.0,0.0,0.0,16.0,0.0,0.0,30.2,0.0,0.0,0.0,0.0,0.0,0.0,37.0,0.0,0.0,-0.6,14.9,12.3,0.0,0.0,0.0,0.0,17.0,18.0,17.0,19.0,17.0,18.0,18.0,19.0,0.0,0.0,-31.0,254.5,0.0,0.0,8.0,0.0,0.0,0.0,0.653,0.814,0.0,16.4,0.0,0.0,0.0,,0.0,69.8,60.8,0.0,0.0,0.0,0.0,62.6,64.4,62.6,66.2,62.6,64.4,64.4,66.2,0.0,0.0,61.519999999999996,0.0,63.05,-6.75,-8.280000000000001,0.0,0.0,0.0,383.0,True,2026-05-13 10:41:18-07:00
18.06,1,9,2026-05-13 17:41:29,37.08146,-121.59962,371.0,0.0,84.2,-12.6,0.0,,0.0,0.0,0.0,10.8,-0.5,6.7,0.0,84.0,0.1,-0.01,1.0,99.0,-125.0,21,0.0,29.99,870.0,0.0,0.0,309,0.0,0.0,0.0,0.0,0,0,0.0,0.0,0.0,0.0,0.0,0.0,0.0,0.0,0.0,0.0,0.0,0.0,0.0,0.0,0.0,0.0,0.0,0.0,0.0,16.0,0.0,0.0,30.2,0.0,0.0,0.0,0.0,0.0,0.0,37.0,0.0,0.0,-0.6,14.9,12.3,0.0,0.0,0.0,0.0,17.0,18.0,17.0,19.0,17.0,18.0,18.0,19.0,0.0,0.0,-30.0,254.5,0.0,0.0,8.0,0.0,0.0,0.0,0.653,0.814,0.0,16.4,0.0,0.0,0.0,,0.0,69.8,60.8,0.0,0.0,0.0,0.0,62.6,64.4,62.6,66.2,62.6,64.4,64.4,66.2,0.0,0.0,61.519999999999996,0.0,63.05,-6.75,-8.280000000000001,0.0,0.0,0.0,383.0,True,2026-05-13 10:41:18-07:00
19.06,1,9,2026-05-13 17:41:30,37.08146,-121.59962,369.0,0.0,84.2,-12.6,0.0,,0.0,0.0,0.0,10.8,-0.5,6.6,0.0,84.0,0.1,-0.01,1.0,99.0,-98.0,21,0.0,29.99,870.0,0.0,0.0,309,0.0,0.0,0.0,0.0,0,0,0.0,0.0,0.0,0.0,0.0,0.0,0.0,0.0,0.0,0.0,0.0,0.0,0.0,0.0,0.0,0.0,0.0,0.0,0.0,16.0,0.0,0.0,30.2,0.0,0.0,0.0,0.0,0.0,0.0,37.0,0.0,0.0,-0.6,14.9,12.3,0.0,0.0,0.0,0.0,17.0,18.0,17.0,19.0,17.0,18.0,18.0,19.0,0.0,0.0,-31.0,254.5,0.0,0.0,8.0,0.0,0.0,0.0,0.653,0.814,0.0,16.4,0.0,0.0,0.0,,0.0,69.8,60.8,0.0,0.0,0.0,0.0,62.6,64.4,62.6,66.2,62.6,64.4,64.4,66.2,0.0,0.0,61.519999999999996,0.0,63.05,-6.75,-8.280000000000001,0.0,0.0,0.0,383.0,True,2026-05-13 10:41:18-07:00
20.06,1,9,2026-05-13 17:41:31,37.08147,-121.59962,366.0,0.0,84.2,-12.6,0.0,,0.0,0.0,0.0,10.8,-0.6,6.5,0.0,83.0,0.1,-0.01,1.0,99.0,-73.0,21,0.0,29.99,870.0,0.0,0.0,309,0.0,0.0,0.0,0.0,0,0,0.0,0.0,0.0,0.0,0.0,0.0,0.0,0.0,0.0,0.0,0.0,0.0,0.0,0.0,0.0,0.0,0.0,0.0,0.0,16.0,0.0,0.0,30.2,0.0,0.0,0.0,0.0,0.0,0.0,37.0,0.0,0.0,-0.6,14.9,12.3,0.0,0.0,0.0,0.0,17.0,18.0,18.0,19.0,18.0,19.0,18.0,19.0,0.0,0.0,-31.0,254.5,0.0,0.0,8.0,0.0,0.0,0.0,0.653,0.814,0.0,16.4,0.0,0.0,0.0,,0.0,69.8,60.8,0.0,0.0,0.0,0.0,62.6,64.4,64.4,66.2,64.4,66.2,64.4,66.2,0.0,0.0,61.519999999999996,0.0,63.95,-5.849999999999994,-8.280000000000001,0.0,0.0,0.0,383.0,True,2026-05-13 10:41:18-07:00
21.06,1,9,2026-05-13 17:41:32,37.08147,-121.59962,363.0,0.0,84.2,-12.6,0.0,,0.0,0.0,0.0,10.8,-0.5,6.6,0.0,83.0,0.1,-0.01,1.0,99.0,-26.0,21,0.0,29.99,869.0,0.0,0.0,309,0.0,0.0,0.0,0.0,0,0,0.0,0.0,0.0,0.0,0.0,0.0,0.0,0.0,0.0,0.0,0.0,0.0,0.0,0.0,0.0,0.0,0.0,0.0,0.0,16.0,0.0,0.0,30.2,0.0,0.0,0.0,0.0,0.0,0.0,37.0,0.0,0.0,-0.6,14.9,12.3,0.0,0.0,0.0,0.0,17.0,18.0,17.0,19.0,17.0,18.0,18.0,19.0,0.0,0.0,-32.0,254.4,0.0,0.0,8.0,0.0,0.0,0.0,0.653,0.814,0.0,16.4,0.0,0.0,0.0,,0.0,69.8,60.8,0.0,0.0,0.0,0.0,62.6,64.4,62.6,66.2,62.6,64.4,64.4,66.2,0.0,0.0,61.519999999999996,0.0,63.05,-6.75,-8.280000000000001,0.0,0.0,0.0,383.0,True,2026-05-13 10:41:18-07:00
22.06,1,9,2026-05-13 17:41:33,37.08147,-121.59962,360.0,0.0,84.2,-12.6,0.0,,0.0,0.0,0.0,10.8,-0.6,6.5,0.0,83.0,0.1,-0.01,1.0,99.0,-27.0,21,0.0,29.99,869.0,0.0,0.0,309,0.0,0.0,0.0,0.0,0,0,0.0,0.0,0.0,0.0,0.0,0.0,0.0,0.0,0.0,0.0,0.0,0.0,0.0,0.0,0.0,0.0,0.0,0.0,0.0,16.0,0.0,0.0,30.2,0.0,0.0,0.0,0.0,0.0,0.0,37.0,0.0,0.0,-0.6,14.9,12.3,0.0,0.0,0.0,0.0,17.0,18.0,18.0,19.0,18.0,19.0,18.0,19.0,0.0,0.0,-32.0,254.4,0.0,0.0,8.0,0.0,0.0,0.0,0.654,0.814,0.0,16.4,0.0,0.0,0.0,,0.0,69.8,60.8,0.0,0.0,0.0,0.0,62.6,64.4,64.4,66.2,64.4,66.2,64.4,66.2,0.0,0.0,61.519999999999996,0.0,63.95,-5.849999999999994,-8.280000000000001,0.0,0.0,0.0,383.0,True,2026-05-13 10:41:18-07:00
23.06,1,9,2026-05-13 17:41:34,37.08148,-121.59962,357.0,0.0,84.2,-12.6,0.0,,0.0,0.0,0.0,10.8,-0.6,6.5,0.0,81.0,0.1,-0.01,1.0,99.0,-64.0,21,0.0,29.99,869.0,0.0,0.0,309,0.0,0.0,0.0,0.0,0,0,0.0,0.0,0.0,0.0,0.0,0.0,0.0,0.0,0.0,0.0,0.0,0.0,0.0,0.0,0.0,0.0,0.0,0.0,0.0,16.0,0.0,0.0,30.2,0.0,0.0,0.0,0.0,0.0,0.0,37.0,0.0,0.0,-0.6,14.9,12.3,0.0,0.0,0.0,0.0,17.0,18.0,17.0,19.0,18.0,18.0,18.0,19.0,0.0,0.0,-33.0,254.4,0.0,0.0,8.0,0.0,0.0,0.0,0.653,0.814,0.0,16.4,0.0,0.0,0.0,,0.0,69.8,60.8,0.0,0.0,0.0,0.0,62.6,64.4,62.6,66.2,64.4,64.4,64.4,66.2,0.0,0.0,61.519999999999996,0.0,63.5,-6.299999999999997,-8.280000000000001,0.0,0.0,0.0,383.0,True,2026-05-13 10:41:18-07:00
24.06,1,9,2026-05-13 17:41:35,37.08148,-121.59962,355.0,0.0,84.2,-12.6,0.0,,0.0,0.0,0.0,10.8,-0.6,6.5,0.0,80.0,0.1,-0.01,1.0,99.0,-71.0,21,0.0,29.99,868.0,0.0,0.0,309,0.0,0.0,0.0,0.0,0,0,0.0,0.0,0.0,0.0,0.0,0.0,0.0,0.0,0.0,0.0,0.0,0.0,0.0,0.0,0.0,0.0,0.0,0.0,0.0,16.0,0.0,0.0,30.2,0.0,0.0,0.0,0.0,0.0,0.0,37.0,0.0,0.0,-0.6,14.9,12.3,0.0,0.0,0.0,0.0,17.0,18.0,17.0,19.0,18.0,18.0,18.0,19.0,0.0,0.0,-33.0,254.4,0.0,0.0,8.0,0.0,0.0,0.0,0.653,0.814,0.0,16.4,0.0,0.0,0.0,,0.0,69.8,60.8,0.0,0.0,0.0,0.0,62.6,64.4,62.6,66.2,64.4,64.4,64.4,66.2,0.0,0.0,61.519999999999996,0.0,63.5,-6.299999999999997,-8.280000000000001,0.0,0.0,0.0,383.0,True,2026-05-13 10:41:18-07:00
25.06,1,9,2026-05-13 17:41:36,37.08148,-121.59961,353.0,0.0,84.2,-12.6,0.0,,0.0,0.0,0.0,10.8,-0.6,6.4,0.0,79.0,0.1,-0.01,1.0,99.0,-80.0,21,0.0,29.99,868.0,0.0,0.0,309,0.0,0.0,0.0,0.0,0,0,0.0,0.0,0.0,0.0,0.0,0.0,0.0,0.0,0.0,0.0,0.0,0.0,0.0,0.0,0.0,0.0,0.0,0.0,0.0,16.0,0.0,0.0,30.2,0.0,0.0,0.0,0.0,0.0,0.0,37.0,0.0,0.0,-0.6,14.9,12.3,0.0,0.0,0.0,0.0,17.0,18.0,17.0,19.0,18.0,18.0,18.0,19.0,0.0,0.0,-33.0,254.4,0.0,0.0,8.0,0.0,0.0,0.0,0.653,0.814,0.0,16.4,0.0,0.0,0.0,,0.0,69.8,60.8,0.0,0.0,0.0,0.0,62.6,64.4,62.6,66.2,64.4,64.4,64.4,66.2,0.0,0.0,61.519999999999996,0.0,63.5,-6.299999999999997,-8.280000000000001,0.0,0.0,0.0,383.0,True,2026-05-13 10:41:18-07:00
26.06,1,9,2026-05-13 17:41:37,37.08149,-121.59961,352.0,0.0,84.2,-12.6,0.0,,0.0,0.0,0.0,10.8,-0.6,6.4,0.0,78.0,0.1,-0.01,1.0,99.0,-69.0,22,0.0,29.99,868.0,0.0,0.0,309,0.0,0.0,0.0,0.0,0,0,0.0,0.0,0.0,0.0,0.0,0.0,0.0,0.0,0.0,0.0,0.0,0.0,0.0,0.0,0.0,0.0,0.0,0.0,0.0,16.0,0.0,0.0,30.2,0.0,0.0,0.0,0.0,0.0,0.0,37.0,0.0,0.0,-0.6,14.9,12.3,0.0,0.0,0.0,0.0,17.0,18.0,17.0,19.0,18.0,18.0,18.0,19.0,0.0,0.0,-34.0,254.4,0.0,0.0,8.0,0.0,0.0,0.0,0.653,0.814,0.0,16.4,0.0,0.0,0.0,,0.0,71.6,60.8,0.0,0.0,0.0,0.0,62.6,64.4,62.6,66.2,64.4,64.4,64.4,66.2,0.0,0.0,61.519999999999996,0.0,63.5,-8.099999999999994,-10.079999999999998,0.0,0.0,0.0,383.0,True,2026-05-13 10:41:18-07:00
27.06,1,9,2026-05-13 17:41:38,37.08149,-121.59961,350.0,0.0,84.2,-12.6,0.0,,0.0,0.0,0.0,10.8,-0.6,6.4,0.0,77.0,0.1,-0.01,1.0,99.0,-48.0,22,0.0,29.99,873.0,0.0,0.0,309,0.0,0.0,0.0,0.0,0,0,0.0,0.0,0.0,0.0,0.0,0.0,0.0,0.0,0.0,0.0,0.0,0.0,0.0,0.0,0.0,0.0,0.0,0.0,0.0,16.0,0.0,0.0,30.2,0.0,0.0,0.0,0.0,0.0,0.0,37.0,0.0,0.0,-0.6,14.9,12.3,0.0,0.0,0.0,0.0,17.0,18.0,17.0,19.0,18.0,18.0,18.0,19.0,0.0,0.0,-34.0,254.4,0.0,0.0,8.0,0.0,0.0,0.0,0.653,0.814,0.0,16.4,0.0,0.0,0.0,,0.0,71.6,60.8,0.0,0.0,0.0,0.0,62.6,64.4,62.6,66.2,64.4,64.4,64.4,66.2,0.0,0.0,61.519999999999996,0.0,63.5,-8.099999999999994,-10.079999999999998,0.0,0.0,0.0,383.0,True,2026-05-13 10:41:18-07:00
28.06,1,9,2026-05-13 17:41:39,37.08149,-121.59961,350.0,0.0,84.2,-12.6,0.0,,0.0,0.0,0.0,10.8,-0.6,6.4,0.0,77.0,0.1,-0.01,1.0,99.0,-15.0,22,0.0,29.99,873.0,0.0,0.0,309,0.0,0.0,0.0,0.0,0,0,0.0,0.0,0.0,0.0,0.0,0.0,0.0,0.0,0.0,0.0,0.0,0.0,0.0,0.0,0.0,0.0,0.0,0.0,0.0,16.0,0.0,0.0,30.2,0.0,0.0,0.0,0.0,0.0,0.0,37.0,0.0,0.0,-0.6,14.9,12.3,0.0,0.0,0.0,0.0,17.0,18.0,17.0,19.0,18.0,18.0,18.0,19.0,0.0,0.0,-33.0,254.4,0.0,0.0,8.0,0.0,0.0,0.0,0.653,0.814,0.0,16.4,0.0,0.0,0.0,,0.0,71.6,60.8,0.0,0.0,0.0,0.0,62.6,64.4,62.6,66.2,64.4,64.4,64.4,66.2,0.0,0.0,61.519999999999996,0.0,63.5,-8.099999999999994,-10.079999999999998,0.0,0.0,0.0,383.0,True,2026-05-13 10:41:18-07:00
29.06,1,9,2026-05-13 17:41:40,37.08149,-121.59961,349.0,0.0,84.2,-12.6,0.0,,0.0,0.0,0.0,10.8,-0.6,6.4,0.0,77.0,0.1,-0.01,1.0,99.0,-2.0,22,0.0,29.99,873.0,0.0,0.0,309,0.0,0.0,0.0,0.0,0,0,0.0,0.0,0.0,0.0,0.0,0.0,0.0,0.0,0.0,0.0,0.0,0.0,0.0,0.0,0.0,0.0,0.0,0.0,0.0,16.0,0.0,0.0,30.2,0.0,0.0,0.0,0.0,0.0,0.0,37.0,0.0,0.0,-0.6,14.9,12.3,0.0,0.0,0.0,0.0,17.0,18.0,17.0,19.0,17.0,18.0,18.0,19.0,0.0,0.0,-33.0,254.4,0.0,0.0,8.0,0.0,0.0,0.0,0.653,0.814,0.0,16.4,0.0,0.0,0.0,,0.0,71.6,60.8,0.0,0.0,0.0,0.0,62.6,64.4,62.6,66.2,62.6,64.4,64.4,66.2,0.0,0.0,61.519999999999996,0.0,63.05,-8.549999999999997,-10.079999999999998,0.0,0.0,0.0,383.0,True,2026-05-13 10:41:18-07:00
30.06,1,9,2026-05-13 17:41:41,37.08149,-121.59961,349.0,0.0,84.2,-12.6,-9.99,KTCY,37.2,11.7,0.0,10.8,-0.6,6.5,0.0,77.0,0.1,-0.01,1.0,99.0,25.0,22,0.0,29.99,872.0,0.0,0.0,309,0.0,0.0,0.0,30.0,0,0,5.0,-99.0,0.0,0.0,0.0,0.0,0.0,0.0,0.0,0.0,0.0,0.0,0.0,0.0,0.0,0.0,0.0,0.0,0.0,16.0,0.0,0.0,30.2,0.0,0.0,0.0,0.0,0.0,0.0,37.0,0.0,0.0,-0.6,14.9,12.3,0.0,0.0,0.0,0.0,17.0,18.0,17.0,19.0,17.0,18.0,18.0,19.0,0.0,0.0,-33.0,254.4,0.0,0.0,8.0,0.0,0.0,0.0,0.653,0.814,0.0,16.4,0.0,0.0,0.0,,0.0,71.6,60.8,0.0,0.0,0.0,0.0,62.6,64.4,62.6,66.2,62.6,64.4,64.4,66.2,0.0,0.0,61.519999999999996,0.0,63.05,-8.549999999999997,-10.079999999999998,0.0,0.0,0.0,383.0,True,2026-05-13 10:41:18-07:00
31.06,1,9,2026-05-13 17:41:42,37.08149,-121.59961,349.0,0.0,84.2,-12.6,-9.99,KTCY,37.2,11.7,0.0,10.8,-0.5,6.5,0.0,77.0,0.1,-0.01,1.0,99.0,5.0,22,0.0,29.99,872.0,0.0,0.0,309,0.0,0.0,0.0,30.0,0,0,5.0,-99.0,0.0,0.0,0.0,0.0,0.0,0.0,0.0,0.0,0.0,0.0,0.0,0.0,0.0,0.0,0.0,0.0,0.0,16.0,0.0,0.0,30.2,0.0,0.0,0.0,0.0,0.0,0.0,37.0,0.0,0.0,-0.6,14.9,12.3,0.0,0.0,0.0,0.0,17.0,18.0,17.0,19.0,17.0,18.0,18.0,19.0,0.0,0.0,-33.0,254.4,0.0,0.0,8.0,0.0,0.0,0.0,0.653,0.814,0.0,16.4,0.0,0.0,0.0,,0.0,71.6,60.8,0.0,0.0,0.0,0.0,62.6,64.4,62.6,66.2,62.6,64.4,64.4,66.2,0.0,0.0,61.519999999999996,0.0,63.05,-8.549999999999997,-10.079999999999998,0.0,0.0,0.0,383.0,True,2026-05-13 10:41:18-07:00
32.06,1,9,2026-05-13 17:41:43,37.08149,-121.59961,349.0,0.0,84.2,-12.6,-9.99,KTCY,37.2,11.7,0.0,10.7,-0.6,6.5,0.0,77.0,0.1,-0.01,1.0,99.0,5.0,22,0.0,29.99,872.0,0.0,0.0,309,0.0,0.0,0.0,30.0,0,0,5.0,-99.0,0.0,0.0,0.0,0.0,0.0,0.0,0.0,0.0,0.0,0.0,0.0,0.0,0.0,0.0,0.0,0.0,0.0,16.0,0.0,0.0,30.2,0.0,0.0,0.0,0.0,0.0,0.0,37.0,0.0,0.0,-0.6,14.9,12.3,0.0,0.0,0.0,0.0,17.0,18.0,17.0,19.0,17.0,18.0,18.0,19.0,0.0,0.0,-34.0,254.4,0.0,0.0,8.0,0.0,0.0,0.0,0.653,0.814,0.0,16.4,0.0,0.0,0.0,,0.0,71.6,60.8,0.0,0.0,0.0,0.0,62.6,64.4,62.6,66.2,62.6,64.4,64.4,66.2,0.0,0.0,61.519999999999996,0.0,63.05,-8.549999999999997,-10.079999999999998,0.0,0.0,0.0,383.0,True,2026-05-13 10:41:18-07:00
33.06,1,9,2026-05-13 17:41:44,37.08149,-121.59961,350.0,0.0,84.2,-12.6,-9.99,KTCY,37.2,11.7,0.0,10.7,-0.6,6.6,0.0,77.0,0.1,-0.01,1.0,99.0,-5.0,22,0.0,29.99,873.0,0.0,0.0,309,0.0,0.0,0.0,30.0,0,0,5.0,-99.0,0.0,0.0,0.0,0.0,0.0,0.0,0.0,0.0,0.0,0.0,0.0,0.0,0.0,0.0,0.0,0.0,0.0,16.0,0.0,0.0,30.2,0.0,0.0,0.0,0.0,0.0,0.0,37.0,0.0,0.0,-0.6,14.9,12.3,0.0,0.0,0.0,0.0,17.0,18.0,17.0,19.0,17.0,18.0,18.0,19.0,0.0,0.0,-34.0,254.4,0.0,0.0,8.0,0.0,0.0,0.0,0.653,0.814,0.0,16.4,0.0,0.0,0.0,,0.0,71.6,60.8,0.0,0.0,0.0,0.0,62.6,64.4,62.6,66.2,62.6,64.4,64.4,66.2,0.0,0.0,61.519999999999996,0.0,63.05,-8.549999999999997,-10.079999999999998,0.0,0.0,0.0,383.0,True,2026-05-13 10:41:18-07:00
34.06,1,9,2026-05-13 17:41:45,37.08149,-121.59961,350.0,0.0,84.2,-12.6,-9.99,KTCY,37.2,11.7,0.0,10.7,-0.5,6.6,0.0,77.0,0.1,-0.01,1.0,99.0,-21.0,22,0.0,29.99,873.0,0.0,0.0,309,0.0,0.0,0.0,30.0,0,0,5.0,-99.0,0.0,0.0,0.0,0.0,0.0,0.0,0.0,0.0,0.0,0.0,0.0,0.0,0.0,0.0,0.0,0.0,0.0,16.0,0.0,0.0,30.2,0.0,0.0,0.0,0.0,0.0,0.0,37.0,0.0,0.0,-0.6,14.9,12.3,0.0,0.0,0.0,0.0,18.0,19.0,18.0,19.0,18.0,19.0,18.0,19.0,0.0,0.0,-33.0,254.4,0.0,0.0,8.0,0.0,0.0,0.0,0.653,0.814,0.0,16.4,0.0,0.0,0.0,,0.0,71.6,60.8,0.0,0.0,0.0,0.0,64.4,66.2,64.4,66.2,64.4,66.2,64.4,66.2,0.0,0.0,61.519999999999996,0.0,64.4,-7.199999999999989,-10.079999999999998,0.0,0.0,0.0,383.0,True,2026-05-13 10:41:18-07:00
35.06,1,9,2026-05-13 17:41:46,37.08149,-121.59961,351.0,0.0,84.2,-12.6,-9.99,KTCY,37.2,11.7,0.0,10.7,-0.5,6.6,0.0,77.0,0.1,-0.01,1.0,99.0,-37.0,22,0.0,29.99,873.0,0.0,0.0,309,0.0,0.0,0.0,30.0,0,0,5.0,-99.0,0.0,0.0,0.0,0.0,0.0,0.0,0.0,0.0,0.0,0.0,0.0,0.0,0.0,0.0,0.0,0.0,0.0,16.0,0.0,0.0,30.2,0.0,0.0,0.0,0.0,0.0,0.0,37.0,0.0,0.0,-0.6,14.9,12.3,0.0,0.0,0.0,0.0,18.0,19.0,18.0,19.0,18.0,19.0,18.0,19.0,0.0,0.0,-34.0,254.4,0.0,0.0,8.0,0.0,0.0,0.0,0.654,0.814,0.0,16.4,0.0,0.0,0.0,,0.0,71.6,60.8,0.0,0.0,0.0,0.0,64.4,66.2,64.4,66.2,64.4,66.2,64.4,66.2,0.0,0.0,61.519999999999996,0.0,64.4,-7.199999999999989,-10.079999999999998,0.0,0.0,0.0,383.0,True,2026-05-13 10:41:18-07:00
36.06,1,9,2026-05-13 17:41:47,37.08149,-121.5996,352.0,0.0,84.2,-12.6,-9.99,KTCY,37.2,11.7,0.0,10.7,-0.5,6.6,0.0,76.0,0.1,-0.01,1.0,99.0,-46.0,22,0.0,29.99,883.0,0.0,0.0,309,0.0,0.0,0.0,30.0,0,0,5.0,-99.0,0.0,0.0,0.0,0.0,0.0,0.0,0.0,0.0,0.0,0.0,0.0,0.0,0.0,0.0,0.0,0.0,0.0,16.0,0.0,0.0,30.2,0.0,0.0,0.0,0.0,0.0,0.0,37.0,0.0,0.0,-0.6,14.9,12.3,0.0,0.0,0.0,0.0,18.0,19.0,18.0,19.0,18.0,19.0,18.0,19.0,0.0,0.0,-34.0,254.4,0.0,0.0,8.0,0.0,0.0,0.0,0.653,0.814,0.0,16.4,0.0,0.0,0.0,,0.0,71.6,60.8,0.0,0.0,0.0,0.0,64.4,66.2,64.4,66.2,64.4,66.2,64.4,66.2,0.0,0.0,61.519999999999996,0.0,64.4,-7.199999999999989,-10.079999999999998,0.0,0.0,0.0,383.0,True,2026-05-13 10:41:18-07:00
37.06,1,9,2026-05-13 17:41:48,37.08149,-121.5996,349.0,0.0,84.2,-12.6,-9.99,KTCY,37.2,11.7,0.0,10.8,-0.6,6.5,0.0,75.0,0.1,-0.01,1.0,99.0,-52.0,22,0.0,29.99,883.0,0.0,0.0,309,0.0,0.0,0.0,30.0,0,0,5.0,-99.0,0.0,0.0,0.0,0.0,0.0,0.0,0.0,0.0,0.0,0.0,0.0,0.0,0.0,0.0,0.0,0.0,0.0,16.0,0.0,0.0,30.2,0.0,0.0,0.0,0.0,0.0,0.0,37.0,0.0,0.0,-0.6,14.9,12.3,0.0,0.0,0.0,0.0,18.0,19.0,18.0,19.0,18.0,19.0,18.0,19.0,0.0,0.0,-34.0,254.4,0.0,0.0,8.0,0.0,0.0,0.0,0.653,0.814,0.0,16.4,0.0,0.0,0.0,,0.0,71.6,60.8,0.0,0.0,0.0,0.0,64.4,66.2,64.4,66.2,64.4,66.2,64.4,66.2,0.0,0.0,61.519999999999996,0.0,64.4,-7.199999999999989,-10.079999999999998,0.0,0.0,0.0,383.0,True,2026-05-13 10:41:18-07:00
38.06,1,9,2026-05-13 17:41:49,37.08149,-121.5996,350.0,0.0,84.2,-12.6,-9.99,KTCY,37.2,11.7,0.0,10.8,-0.6,6.5,0.0,74.0,0.1,-0.01,1.0,99.0,-58.0,22,0.0,29.99,883.0,0.0,0.0,309,0.0,0.0,0.0,30.0,0,0,5.0,-99.0,0.0,0.0,0.0,0.0,0.0,0.0,0.0,0.0,0.0,0.0,0.0,0.0,0.0,0.0,0.0,0.0,0.0,16.0,0.0,0.0,30.2,0.0,0.0,0.0,0.0,0.0,0.0,37.0,0.0,0.0,-0.6,14.9,12.3,0.0,0.0,0.0,0.0,18.0,19.0,18.0,19.0,18.0,19.0,18.0,19.0,0.0,0.0,-34.0,254.4,0.0,0.0,8.0,0.0,0.0,0.0,0.653,0.814,0.0,16.4,0.0,0.0,0.0,,0.0,71.6,60.8,0.0,0.0,0.0,0.0,64.4,66.2,64.4,66.2,64.4,66.2,64.4,66.2,0.0,0.0,61.519999999999996,0.0,64.4,-7.199999999999989,-10.079999999999998,0.0,0.0,0.0,383.0,True,2026-05-13 10:41:18-07:00
39.06,1,9,2026-05-13 17:41:50,37.08149,-121.5996,350.0,0.0,84.2,-12.6,-9.99,KTCY,37.2,11.7,0.0,10.7,-0.6,6.5,0.0,72.0,0.1,-0.01,1.0,99.0,-75.0,22,0.0,29.99,879.0,0.0,0.0,309,0.0,0.0,0.0,30.0,0,0,5.0,-99.0,0.0,0.0,0.0,0.0,0.0,0.0,0.0,0.0,0.0,0.0,0.0,0.0,0.0,0.0,0.0,0.0,0.0,16.0,0.0,0.0,30.2,0.0,0.0,0.0,0.0,0.0,0.0,37.0,0.0,0.0,-0.6,14.9,12.3,0.0,0.0,0.0,0.0,18.0,19.0,18.0,19.0,18.0,19.0,18.0,19.0,0.0,0.0,-34.0,254.4,0.0,0.0,8.0,0.0,0.0,0.0,0.653,0.814,0.0,16.4,0.0,0.0,0.0,,0.0,71.6,60.8,0.0,0.0,0.0,0.0,64.4,66.2,64.4,66.2,64.4,66.2,64.4,66.2,0.0,0.0,61.519999999999996,0.0,64.4,-7.199999999999989,-10.079999999999998,0.0,0.0,0.0,383.0,True,2026-05-13 10:41:18-07:00
40.06,1,9,2026-05-13 17:41:51,37.08149,-121.5996,351.0,0.0,84.2,-12.6,-9.99,KTCY,37.2,11.7,0.0,10.8,-0.6,6.5,0.0,71.0,0.1,-0.01,1.0,99.0,-85.0,22,0.0,29.99,879.0,0.0,0.0,309,0.0,0.0,0.0,30.0,0,0,5.0,-99.0,0.0,0.0,0.0,0.0,0.0,0.0,0.0,0.0,0.0,0.0,0.0,0.0,0.0,0.0,0.0,0.0,0.0,16.0,0.0,0.0,30.2,0.0,0.0,0.0,0.0,0.0,0.0,37.0,0.0,0.0,-0.6,14.9,12.3,0.0,0.0,0.0,0.0,18.0,19.0,18.0,19.0,18.0,19.0,18.0,19.0,0.0,0.0,-34.0,254.4,0.0,0.0,8.0,0.0,0.0,0.0,0.653,0.814,0.0,16.4,0.0,0.0,0.0,,0.0,71.6,60.8,0.0,0.0,0.0,0.0,64.4,66.2,64.4,66.2,64.4,66.2,64.4,66.2,0.0,0.0,61.519999999999996,0.0,64.4,-7.199999999999989,-10.079999999999998,0.0,0.0,0.0,383.0,True,2026-05-13 10:41:18-07:00
41.06,1,9,2026-05-13 17:41:52,37.08149,-121.5996,352.0,0.0,84.2,-12.6,-9.99,KTCY,37.2,11.7,0.0,10.8,-0.6,6.5,0.0,69.0,0.1,-0.01,1.0,99.0,-106.0,22,0.0,29.99,879.0,0.0,0.0,309,0.0,0.0,0.0,30.0,0,0,5.0,-99.0,0.0,0.0,0.0,0.0,0.0,0.0,0.0,0.0,0.0,0.0,0.0,0.0,0.0,0.0,0.0,0.0,0.0,16.0,0.0,0.0,30.2,0.0,0.0,0.0,0.0,0.0,0.0,37.0,0.0,0.0,-0.6,14.9,12.3,0.0,0.0,0.0,0.0,18.0,19.0,18.0,19.0,18.0,19.0,18.0,19.0,0.0,0.0,-34.0,254.4,0.0,0.0,8.0,0.0,0.0,0.0,0.653,0.814,0.0,16.4,0.0,0.0,0.0,,0.0,71.6,60.8,0.0,0.0,0.0,0.0,64.4,66.2,64.4,66.2,64.4,66.2,64.4,66.2,0.0,0.0,61.519999999999996,0.0,64.4,-7.199999999999989,-10.079999999999998,0.0,0.0,0.0,383.0,True,2026-05-13 10:41:18-07:00
42.06,1,8,2026-05-13 17:41:53,37.08155,-121.59958,288.0,0.0,84.2,-12.6,-9.99,KTCY,37.2,11.7,0.0,10.7,-0.6,6.5,0.0,67.0,0.1,-0.01,1.0,99.0,-95.0,22,0.0,29.99,883.0,0.0,0.0,309,0.0,0.0,0.0,30.0,0,0,5.0,-99.0,0.0,0.0,0.0,0.0,0.0,0.0,0.0,0.0,0.0,0.0,0.0,0.0,0.0,0.0,0.0,0.0,0.0,16.0,0.0,0.0,30.2,0.0,0.0,0.0,0.0,0.0,0.0,37.0,0.0,0.0,-0.7,14.9,12.3,0.0,0.0,0.0,0.0,17.0,19.0,18.0,19.0,18.0,19.0,18.0,19.0,0.0,0.0,-33.0,228.2,0.0,0.0,8.0,0.0,0.0,0.0,0.653,0.814,0.0,16.4,0.0,0.0,0.0,,0.0,71.6,60.8,0.0,0.0,0.0,0.0,62.6,66.2,64.4,66.2,64.4,66.2,64.4,66.2,0.0,0.0,61.519999999999996,0.0,63.95,-7.6499999999999915,-10.079999999999998,0.0,0.0,0.0,383.0,True,2026-05-13 10:41:18-07:00
43.06,1,8,2026-05-13 17:41:54,37.08155,-121.59958,288.0,0.0,84.2,-12.6,-9.99,KTCY,37.2,11.7,0.0,10.8,-0.6,6.5,0.0,66.0,0.1,-0.01,1.0,99.0,-111.0,22,0.0,29.99,883.0,0.0,0.0,309,0.0,0.0,0.0,30.0,0,0,5.0,-99.0,0.0,0.0,0.0,0.0,0.0,0.0,0.0,0.0,0.0,0.0,0.0,0.0,0.0,0.0,0.0,0.0,0.0,16.0,0.0,0.0,30.2,0.0,0.0,0.0,0.0,0.0,0.0,37.0,0.0,0.0,-0.7,14.9,12.3,0.0,0.0,0.0,0.0,17.0,19.0,18.0,19.0,18.0,19.0,18.0,19.0,0.0,0.0,-33.0,177.6,0.0,0.0,8.0,0.0,0.0,0.0,0.654,0.814,0.0,16.4,0.0,0.0,0.0,,0.0,71.6,60.8,0.0,0.0,0.0,0.0,62.6,66.2,64.4,66.2,64.4,66.2,64.4,66.2,0.0,0.0,61.519999999999996,0.0,63.95,-7.6499999999999915,-10.079999999999998,0.0,0.0,0.0,383.0,True,2026-05-13 10:41:18-07:00
44.06,1,8,2026-05-13 17:41:55,37.08155,-121.59958,289.0,0.0,84.2,-12.6,-9.99,KTCY,37.2,11.7,0.0,10.8,-0.6,6.5,0.0,63.0,0.1,-0.01,1.0,99.0,-121.0,22,0.0,29.99,883.0,0.0,0.0,309,0.0,0.0,0.0,30.0,0,0,5.0,-99.0,0.0,0.0,0.0,0.0,0.0,0.0,0.0,0.0,0.0,0.0,0.0,0.0,0.0,0.0,0.0,0.0,0.0,16.0,0.0,0.0,30.2,0.0,0.0,0.0,0.0,0.0,0.0,37.0,0.0,0.0,-0.7,14.9,12.3,0.0,0.0,0.0,0.0,17.0,19.0,18.0,19.0,18.0,19.0,18.0,19.0,0.0,0.0,-33.0,138.3,0.0,0.0,8.0,0.0,0.0,0.0,0.653,0.814,0.0,16.4,0.0,0.0,0.0,,0.0,71.6,60.8,0.0,0.0,0.0,0.0,62.6,66.2,64.4,66.2,64.4,66.2,64.4,66.2,0.0,0.0,61.519999999999996,0.0,63.95,-7.6499999999999915,-10.079999999999998,0.0,0.0,0.0,383.0,True,2026-05-13 10:41:18-07:00
45.06,1,8,2026-05-13 17:41:56,37.08155,-121.59958,290.0,0.0,84.2,-12.6,-9.99,KTCY,37.2,11.7,0.0,10.8,-0.6,6.5,0.0,62.0,0.1,-0.01,1.0,99.0,-108.0,22,0.0,29.99,876.0,0.0,0.0,309,0.0,0.0,0.0,30.0,0,0,5.0,-99.0,0.0,0.0,0.0,0.0,0.0,0.0,0.0,0.0,0.0,0.0,0.0,0.0,0.0,0.0,0.0,0.0,0.0,16.0,0.0,0.0,30.2,0.0,0.0,0.0,0.0,0.0,0.0,37.0,0.0,0.0,-0.7,14.9,12.3,0.0,0.0,0.0,0.0,17.0,19.0,18.0,19.0,18.0,19.0,18.0,19.0,0.0,0.0,-33.0,107.7,0.0,0.0,8.0,0.0,0.0,0.0,0.653,0.814,0.0,16.4,0.0,0.0,0.0,,0.0,71.6,60.8,0.0,0.0,0.0,0.0,62.6,66.2,64.4,66.2,64.4,66.2,64.4,66.2,0.0,0.0,61.519999999999996,0.0,63.95,-7.6499999999999915,-10.079999999999998,0.0,0.0,0.0,383.0,True,2026-05-13 10:41:18-07:00
46.06,1,8,2026-05-13 17:41:57,37.08155,-121.59958,290.0,0.0,84.2,-12.6,-9.99,KTCY,37.2,11.7,0.0,10.8,-0.6,6.4,0.0,60.0,0.1,-0.01,1.0,99.0,-102.0,22,0.0,29.99,876.0,0.0,0.0,309,0.0,0.0,0.0,30.0,0,0,5.0,-99.0,0.0,0.0,0.0,0.0,0.0,0.0,0.0,0.0,0.0,0.0,0.0,0.0,0.0,0.0,0.0,0.0,0.0,16.0,0.0,0.0,30.2,0.0,0.0,0.0,0.0,0.0,0.0,37.0,0.0,0.0,-0.7,14.9,12.3,0.0,0.0,0.0,0.0,17.0,19.0,18.0,19.0,18.0,19.0,18.0,19.0,0.0,0.0,-33.0,83.9,0.0,0.0,8.0,0.0,0.0,0.0,0.653,0.814,0.0,16.4,0.0,0.0,0.0,,0.0,71.6,60.8,0.0,0.0,0.0,0.0,62.6,66.2,64.4,66.2,64.4,66.2,64.4,66.2,0.0,0.0,61.519999999999996,0.0,63.95,-7.6499999999999915,-10.079999999999998,0.0,0.0,0.0,383.0,True,2026-05-13 10:41:18-07:00
47.06,1,8,2026-05-13 17:41:58,37.08155,-121.59958,291.0,0.0,84.2,-12.6,-9.99,KTCY,37.2,11.7,0.0,10.8,-0.6,6.4,0.0,60.0,0.1,-0.01,1.0,99.0,-76.0,22,0.0,29.99,876.0,0.0,0.0,309,0.0,0.0,0.0,30.0,0,0,5.0,-99.0,0.0,0.0,0.0,0.0,0.0,0.0,0.0,0.0,0.0,0.0,0.0,0.0,0.0,0.0,0.0,0.0,0.0,16.0,0.0,0.0,30.2,0.0,0.0,0.0,0.0,0.0,0.0,37.0,0.0,0.0,-0.7,14.9,12.3,0.0,0.0,0.0,0.0,18.0,19.0,18.0,19.0,18.0,19.0,18.0,19.0,0.0,0.0,-33.0,65.4,0.0,0.0,8.0,0.0,0.0,0.0,0.653,0.814,0.0,16.4,0.0,0.0,0.0,,0.0,71.6,60.8,0.0,0.0,0.0,0.0,64.4,66.2,64.4,66.2,64.4,66.2,64.4,66.2,0.0,0.0,61.519999999999996,0.0,64.4,-7.199999999999989,-10.079999999999998,0.0,0.0,0.0,383.0,True,2026-05-13 10:41:18-07:00
48.06,1,8,2026-05-13 17:41:59,37.08155,-121.59958,292.0,0.0,84.2,-12.6,-9.99,KTCY,37.2,11.7,0.0,10.8,-0.6,6.3,0.0,60.0,0.1,-0.01,1.0,99.0,-47.0,22,0.0,29.99,872.0,0.0,0.0,309,0.0,0.0,0.0,30.0,0,0,5.0,-99.0,0.0,0.0,0.0,0.0,0.0,0.0,0.0,0.0,0.0,0.0,0.0,0.0,0.0,0.0,0.0,0.0,0.0,16.0,0.0,0.0,30.2,0.0,0.0,0.0,0.0,0.0,0.0,37.0,0.0,0.0,-0.7,14.9,12.3,0.0,0.0,0.0,0.0,18.0,19.0,18.0,19.0,18.0,19.0,18.0,19.0,0.0,0.0,-33.0,51.1,0.0,0.0,8.0,0.0,0.0,0.0,0.653,0.814,0.0,16.4,0.0,0.0,0.0,,0.0,71.6,60.8,0.0,0.0,0.0,0.0,64.4,66.2,64.4,66.2,64.4,66.2,64.4,66.2,0.0,0.0,61.519999999999996,0.0,64.4,-7.199999999999989,-10.079999999999998,0.0,0.0,0.0,383.0,True,2026-05-13 10:41:18-07:00
49.06,1,8,2026-05-13 17:42:00,37.08155,-121.59958,293.0,0.0,84.2,-12.6,-9.99,KTCY,37.2,11.7,0.0,10.8,-0.6,6.4,0.0,60.0,0.1,-0.01,1.0,99.0,-20.0,22,0.0,29.99,873.0,0.0,0.0,309,0.0,0.0,0.0,30.0,0,0,5.0,-99.0,0.0,0.0,0.0,0.0,0.0,0.0,0.0,0.0,0.0,0.0,0.0,0.0,0.0,0.0,0.0,0.0,0.0,16.0,0.0,0.0,30.2,0.0,0.0,0.0,0.0,0.0,0.0,37.0,0.0,0.0,-0.7,14.9,12.3,0.0,0.0,0.0,0.0,18.0,19.0,18.0,19.0,18.0,19.0,18.0,19.0,0.0,0.0,-33.0,39.9,0.0,0.0,8.0,0.0,0.0,0.0,0.653,0.814,0.0,16.4,0.0,0.0,0.0,,0.0,71.6,60.8,0.0,0.0,0.0,0.0,64.4,66.2,64.4,66.2,64.4,66.2,64.4,66.2,0.0,0.0,61.519999999999996,0.0,64.4,-7.199999999999989,-10.079999999999998,0.0,0.0,0.0,383.0,True,2026-05-13 10:41:18-07:00
50.06,1,8,2026-05-13 17:42:01,37.08155,-121.59958,293.0,0.0,84.2,-12.6,-9.99,KTCY,37.2,11.7,0.0,10.8,-0.6,6.4,0.0,59.0,0.1,-0.01,1.0,99.0,-36.0,22,0.0,29.99,873.0,0.0,0.0,309,0.0,0.0,0.0,30.0,0,0,5.0,-99.0,0.0,0.0,0.0,0.0,0.0,0.0,0.0,0.0,0.0,0.0,0.0,0.0,0.0,0.0,0.0,0.0,0.0,16.0,0.0,0.0,30.2,0.0,0.0,0.0,0.0,0.0,0.0,37.0,0.0,0.0,-0.7,14.9,12.3,0.0,0.0,0.0,0.0,18.0,19.0,18.0,19.0,18.0,19.0,18.0,19.0,0.0,0.0,-33.0,31.2,0.0,0.0,8.0,0.0,0.0,0.0,0.654,0.814,0.0,16.4,0.0,0.0,0.0,,0.0,71.6,60.8,0.0,0.0,0.0,0.0,64.4,66.2,64.4,66.2,64.4,66.2,64.4,66.2,0.0,0.0,61.519999999999996,0.0,64.4,-7.199999999999989,-10.079999999999998,0.0,0.0,0.0,383.0,True,2026-05-13 10:41:18-07:00
51.06,1,8,2026-05-13 17:42:02,37.08155,-121.59959,294.0,0.0,84.2,-12.6,-9.99,KTCY,37.2,11.7,0.0,10.8,-0.5,6.4,0.0,58.0,0.1,-0.01,1.0,99.0,-43.0,22,0.0,29.99,873.0,0.0,0.0,309,0.0,0.0,0.0,30.0,0,0,5.0,-99.0,0.0,0.0,0.0,0.0,0.0,0.0,0.0,0.0,0.0,0.0,0.0,0.0,0.0,0.0,0.0,0.0,0.0,16.0,0.0,0.0,30.2,0.0,0.0,0.0,0.0,0.0,0.0,37.0,0.0,0.0,-0.7,14.9,12.3,0.0,0.0,0.0,0.0,18.0,19.0,18.0,19.0,18.0,19.0,18.0,19.0,0.0,0.0,-32.0,24.5,0.0,0.0,8.0,0.0,0.0,0.0,0.654,0.814,0.0,16.4,0.0,0.0,0.0,,0.0,71.6,60.8,0.0,0.0,0.0,0.0,64.4,66.2,64.4,66.2,64.4,66.2,64.4,66.2,0.0,0.0,61.519999999999996,0.0,64.4,-7.199999999999989,-10.079999999999998,0.0,0.0,0.0,383.0,True,2026-05-13 10:41:18-07:00
52.06,1,8,2026-05-13 17:42:03,37.08155,-121.59959,295.0,0.0,84.2,-12.6,-9.99,KTCY,37.2,11.7,0.0,10.7,-0.5,6.4,0.0,57.0,0.1,-0.01,1.0,99.0,-52.0,22,0.0,29.99,880.0,0.0,0.0,309,0.0,0.0,0.0,30.0,0,0,5.0,-99.0,0.0,0.0,0.0,0.0,0.0,0.0,0.0,0.0,0.0,0.0,0.0,0.0,0.0,0.0,0.0,0.0,0.0,16.0,0.0,0.0,30.2,0.0,0.0,0.0,0.0,0.0,0.0,37.0,0.0,0.0,-0.7,14.9,12.3,0.0,0.0,0.0,0.0,18.0,19.0,18.0,19.0,18.0,19.0,18.0,19.0,0.0,0.0,-32.0,19.3,0.0,0.0,8.0,0.0,0.0,0.0,0.653,0.813,0.0,16.4,0.0,0.0,0.0,,0.0,71.6,60.8,0.0,0.0,0.0,0.0,64.4,66.2,64.4,66.2,64.4,66.2,64.4,66.2,0.0,0.0,61.519999999999996,0.0,64.4,-7.199999999999989,-10.079999999999998,0.0,0.0,0.0,383.0,True,2026-05-13 10:41:18-07:00
53.06,1,8,2026-05-13 17:42:04,37.08155,-121.59959,295.0,0.0,84.2,-12.6,-9.99,KTCY,37.2,11.7,0.0,10.7,-0.5,6.5,0.0,56.0,0.1,-0.01,1.0,99.0,-68.0,22,0.0,29.99,880.0,0.0,0.0,309,0.0,0.0,0.0,30.0,0,0,5.0,-99.0,0.0,0.0,0.0,0.0,0.0,0.0,0.0,0.0,0.0,0.0,0.0,0.0,0.0,0.0,0.0,0.0,0.0,16.0,0.0,0.0,30.2,0.0,0.0,0.0,0.0,0.0,0.0,37.0,0.0,0.0,-0.7,14.9,12.3,0.0,0.0,0.0,0.0,18.0,19.0,18.0,19.0,18.0,19.0,18.0,19.0,0.0,0.0,-32.0,15.2,0.0,0.0,8.0,0.0,0.0,0.0,0.653,0.813,0.0,16.4,0.0,0.0,0.0,,0.0,71.6,60.8,0.0,0.0,0.0,0.0,64.4,66.2,64.4,66.2,64.4,66.2,64.4,66.2,0.0,0.0,61.519999999999996,0.0,64.4,-7.199999999999989,-10.079999999999998,0.0,0.0,0.0,383.0,True,2026-05-13 10:41:18-07:00
54.06,1,8,2026-05-13 17:42:05,37.08155,-121.59959,296.0,0.0,84.2,-12.6,-9.99,KTCY,37.2,11.7,0.0,10.8,-0.6,6.5,0.0,56.0,0.1,-0.01,1.0,99.0,-42.0,22,0.0,29.99,880.0,0.0,0.0,309,0.0,0.0,0.0,30.0,0,0,5.0,-99.0,0.0,0.0,0.0,0.0,0.0,0.0,0.0,0.0,0.0,0.0,0.0,0.0,0.0,0.0,0.0,0.0,0.0,16.0,0.0,0.0,30.2,0.0,0.0,0.0,0.0,0.0,0.0,37.0,0.0,0.0,-0.7,14.9,12.3,0.0,0.0,0.0,0.0,18.0,19.0,18.0,19.0,18.0,19.0,18.0,19.0,0.0,0.0,-32.0,12.0,0.0,0.0,8.0,0.0,0.0,0.0,0.653,0.813,0.0,16.4,0.0,0.0,0.0,,0.0,71.6,60.8,0.0,0.0,0.0,0.0,64.4,66.2,64.4,66.2,64.4,66.2,64.4,66.2,0.0,0.0,61.519999999999996,0.0,64.4,-7.199999999999989,-10.079999999999998,0.0,0.0,0.0,383.0,True,2026-05-13 10:41:18-07:00
55.06,1,8,2026-05-13 17:42:06,37.08155,-121.59959,297.0,0.0,84.2,-12.6,-9.99,KTCY,37.2,11.7,0.0,10.8,-0.6,6.4,0.0,56.0,0.1,-0.01,1.0,99.0,-5.0,22,0.0,29.99,878.0,0.0,0.0,309,0.0,0.0,0.0,30.0,0,0,5.0,-99.0,0.0,0.0,0.0,0.0,0.0,0.0,0.0,0.0,0.0,0.0,0.0,0.0,0.0,0.0,0.0,0.0,0.0,16.0,0.0,0.0,30.2,0.0,0.0,0.0,0.0,0.0,0.0,37.0,0.0,0.0,-0.7,14.9,12.3,0.0,0.0,0.0,0.0,18.0,19.0,18.0,19.0,18.0,19.0,18.0,19.0,0.0,0.0,-31.0,9.6,0.0,0.0,8.0,0.0,0.0,0.0,0.653,0.813,0.0,16.4,0.0,0.0,0.0,,0.0,71.6,60.8,0.0,0.0,0.0,0.0,64.4,66.2,64.4,66.2,64.4,66.2,64.4,66.2,0.0,0.0,61.519999999999996,0.0,64.4,-7.199999999999989,-10.079999999999998,0.0,0.0,0.0,383.0,True,2026-05-13 10:41:18-07:00
56.06,1,8,2026-05-13 17:42:07,37.08155,-121.59959,297.0,0.0,84.2,-12.6,-9.99,KTCY,37.2,11.7,0.0,10.8,-0.6,6.5,0.0,56.0,0.1,-0.01,1.0,99.0,21.0,22,0.0,29.99,878.0,0.0,0.0,309,0.0,0.0,0.0,30.0,0,0,5.0,-99.0,0.0,0.0,0.0,0.0,0.0,0.0,0.0,0.0,0.0,0.0,0.0,0.0,0.0,0.0,0.0,0.0,0.0,16.0,0.0,0.0,30.2,0.0,0.0,0.0,0.0,0.0,0.0,37.0,0.0,0.0,-0.7,14.9,12.3,0.0,0.0,0.0,0.0,18.0,19.0,18.0,19.0,18.0,19.0,18.0,19.0,0.0,0.0,-30.0,7.6,0.0,0.0,8.0,0.0,0.0,0.0,0.653,0.813,0.0,16.4,0.0,0.0,0.0,,0.0,71.6,60.8,0.0,0.0,0.0,0.0,64.4,66.2,64.4,66.2,64.4,66.2,64.4,66.2,0.0,0.0,61.519999999999996,0.0,64.4,-7.199999999999989,-10.079999999999998,0.0,0.0,0.0,383.0,True,2026-05-13 10:41:18-07:00
57.06,1,8,2026-05-13 17:42:08,37.08155,-121.59959,298.0,0.0,84.2,-12.6,-9.99,KTCY,37.2,11.7,0.0,10.8,-0.6,6.4,0.0,56.0,0.1,-0.01,1.0,99.0,33.0,22,0.0,29.99,878.0,0.0,0.0,309,0.0,0.0,0.0,30.0,0,0,5.0,-99.0,0.0,0.0,0.0,0.0,0.0,0.0,0.0,0.0,0.0,0.0,0.0,0.0,0.0,0.0,0.0,0.0,0.0,16.0,0.0,0.0,30.2,0.0,0.0,0.0,0.0,0.0,0.0,37.0,0.0,0.0,-0.7,14.9,12.3,0.0,0.0,0.0,0.0,18.0,19.0,18.0,19.0,18.0,19.0,18.0,19.0,0.0,0.0,-30.0,6.1,0.0,0.0,8.0,0.0,0.0,0.0,0.653,0.814,0.0,16.4,0.0,0.0,0.0,,0.0,71.6,60.8,0.0,0.0,0.0,0.0,64.4,66.2,64.4,66.2,64.4,66.2,64.4,66.2,0.0,0.0,61.519999999999996,0.0,64.4,-7.199999999999989,-10.079999999999998,0.0,0.0,0.0,383.0,True,2026-05-13 10:41:18-07:00
58.06,1,8,2026-05-13 17:42:09,37.08155,-121.59959,298.0,0.0,84.2,-12.6,-9.99,KTCY,37.2,11.7,0.0,10.8,-0.6,6.4,0.0,56.0,0.1,-0.01,1.0,99.0,48.0,22,0.0,29.99,888.0,0.0,0.0,309,0.0,0.0,0.0,30.0,0,0,5.0,-99.0,0.0,0.0,0.0,0.0,0.0,0.0,0.0,0.0,0.0,0.0,0.0,0.0,0.0,0.0,0.0,0.0,0.0,16.0,0.0,0.0,30.2,0.0,0.0,0.0,0.0,0.0,0.0,37.0,0.0,0.0,-0.7,14.9,12.3,0.0,0.0,0.0,0.0,18.0,19.0,18.0,19.0,18.0,19.0,18.0,19.0,0.0,0.0,-31.0,5.0,0.0,0.0,8.0,0.0,0.0,0.0,0.653,0.813,0.0,16.4,0.0,0.0,0.0,,0.0,71.6,60.8,0.0,0.0,0.0,0.0,64.4,66.2,64.4,66.2,64.4,66.2,64.4,66.2,0.0,0.0,61.519999999999996,0.0,64.4,-7.199999999999989,-10.079999999999998,0.0,0.0,0.0,383.0,True,2026-05-13 10:41:18-07:00
59.06,1,8,2026-05-13 17:42:10,37.08155,-121.59959,298.0,0.0,84.2,-12.6,-9.99,KTCY,37.2,11.7,0.0,10.8,-0.6,6.4,0.0,56.0,0.1,-0.01,1.0,99.0,48.0,22,0.0,29.99,888.0,0.0,0.0,309,0.0,0.0,0.0,30.0,0,0,5.0,-99.0,0.0,0.0,0.0,0.0,0.0,0.0,0.0,0.0,0.0,0.0,0.0,0.0,0.0,0.0,0.0,0.0,0.0,16.0,0.0,0.0,30.2,0.0,0.0,0.0,0.0,0.0,0.0,37.0,0.0,0.0,-0.7,14.9,12.3,0.0,0.0,0.0,0.0,18.0,19.0,18.0,19.0,18.0,19.0,18.0,19.0,0.0,0.0,-30.0,4.1,0.0,0.0,8.0,0.0,0.0,0.0,0.653,0.813,0.0,16.4,0.0,0.0,0.0,,0.0,71.6,60.8,0.0,0.0,0.0,0.0,64.4,66.2,64.4,66.2,64.4,66.2,64.4,66.2,0.0,0.0,61.519999999999996,0.0,64.4,-7.199999999999989,-10.079999999999998,0.0,0.0,0.0,383.0,True,2026-05-13 10:41:18-07:00
60.06,1,8,2026-05-13 17:42:11,37.08155,-121.59959,299.0,0.0,84.2,-12.6,-9.99,KTCY,37.2,11.7,0.0,10.8,-0.6,6.4,0.0,56.0,0.1,-0.01,1.0,99.0,29.0,22,0.0,29.99,888.0,0.0,0.0,309,0.0,0.0,0.0,30.0,0,0,5.0,-99.0,0.0,0.0,0.0,0.0,0.0,0.0,0.0,0.0,0.0,0.0,0.0,0.0,0.0,0.0,0.0,0.0,0.0,16.0,0.0,0.0,30.2,0.0,0.0,0.0,0.0,0.0,0.0,37.0,0.0,0.0,-0.7,14.9,12.3,0.0,0.0,0.0,0.0,18.0,19.0,18.0,19.0,18.0,19.0,18.0,19.0,0.0,0.0,-30.0,3.4,0.0,0.0,8.0,0.0,0.0,0.0,0.653,0.813,0.0,16.4,0.0,0.0,0.0,,0.0,71.6,60.8,0.0,0.0,0.0,0.0,64.4,66.2,64.4,66.2,64.4,66.2,64.4,66.2,0.0,0.0,61.519999999999996,0.0,64.4,-7.199999999999989,-10.079999999999998,0.0,0.0,0.0,383.0,True,2026-05-13 10:41:18-07:00
61.06,1,8,2026-05-13 17:42:12,37.08155,-121.59959,299.0,0.0,84.2,-12.6,-9.99,KTCY,37.2,11.7,0.0,10.8,-0.6,6.5,0.0,56.0,0.1,-0.01,1.0,99.0,45.0,22,0.0,29.99,888.0,0.0,0.0,309,0.0,0.0,0.0,30.0,0,0,5.0,-99.0,0.0,0.0,0.0,0.0,0.0,0.0,0.0,0.0,0.0,0.0,0.0,0.0,0.0,0.0,0.0,0.0,0.0,16.0,0.0,0.0,30.2,0.0,0.0,0.0,0.0,0.0,0.0,37.0,0.0,0.0,-0.7,14.9,12.3,0.0,0.0,0.0,0.0,18.0,19.0,18.0,19.0,18.0,19.0,18.0,19.0,0.0,0.0,-30.0,2.9,0.0,0.0,8.0,0.0,0.0,0.0,0.653,0.813,0.0,16.4,0.0,0.0,0.0,,0.0,71.6,60.8,0.0,0.0,0.0,0.0,64.4,66.2,64.4,66.2,64.4,66.2,64.4,66.2,0.0,0.0,61.519999999999996,0.0,64.4,-7.199999999999989,-10.079999999999998,0.0,0.0,0.0,383.0,True,2026-05-13 10:41:18-07:00
62.06,1,8,2026-05-13 17:42:13,37.08155,-121.59959,299.0,0.0,84.2,-12.6,-9.99,KTCY,37.2,11.7,0.0,10.8,-0.6,6.5,0.0,56.0,0.1,-0.01,1.0,99.0,61.0,22,0.0,29.99,888.0,0.0,0.0,309,0.0,0.0,0.0,30.0,0,0,5.0,-99.0,0.0,0.0,0.0,0.0,0.0,0.0,0.0,0.0,0.0,0.0,0.0,0.0,0.0,0.0,0.0,0.0,0.0,16.0,0.0,0.0,30.2,0.0,0.0,0.0,0.0,0.0,0.0,37.0,0.0,0.0,-0.7,14.9,12.3,0.0,0.0,0.0,0.0,18.0,19.0,18.0,19.0,18.0,19.0,18.0,19.0,0.0,0.0,-29.0,2.5,0.0,0.0,8.0,0.0,0.0,0.0,0.653,0.813,0.0,16.4,0.0,0.0,0.0,,0.0,71.6,60.8,0.0,0.0,0.0,0.0,64.4,66.2,64.4,66.2,64.4,66.2,64.4,66.2,0.0,0.0,61.519999999999996,0.0,64.4,-7.199999999999989,-10.079999999999998,0.0,0.0,0.0,383.0,True,2026-05-13 10:41:18-07:00
63.06,1,8,2026-05-13 17:42:14,37.08155,-121.59959,299.0,0.0,84.2,-12.6,-9.99,KTCY,37.2,11.7,0.0,10.8,-0.6,6.5,0.0,56.0,0.1,-0.01,1.0,99.0,25.0,22,0.0,29.99,888.0,0.0,0.0,309,0.0,0.0,0.0,30.0,0,0,5.0,-99.0,0.0,0.0,0.0,0.0,0.0,0.0,0.0,0.0,0.0,0.0,0.0,0.0,0.0,0.0,0.0,0.0,0.0,16.0,0.0,0.0,30.2,0.0,0.0,0.0,0.0,0.0,0.0,37.0,0.0,0.0,-0.7,14.9,12.3,0.0,0.0,0.0,0.0,18.0,19.0,18.0,19.0,18.0,19.0,18.0,19.0,0.0,0.0,-29.0,2.1,0.0,0.0,8.0,0.0,0.0,0.0,0.653,0.813,0.0,16.4,0.0,0.0,0.0,,0.0,71.6,60.8,0.0,0.0,0.0,0.0,64.4,66.2,64.4,66.2,64.4,66.2,64.4,66.2,0.0,0.0,61.519999999999996,0.0,64.4,-7.199999999999989,-10.079999999999998,0.0,0.0,0.0,383.0,True,2026-05-13 10:41:18-07:00
64.06,1,8,2026-05-13 17:42:15,37.08154,-121.59959,300.0,0.0,84.2,-12.6,-9.99,KTCY,37.2,11.7,0.0,10.8,-0.6,6.5,0.0,56.0,0.1,-0.01,1.0,99.0,8.0,22,0.0,29.99,889.0,0.0,0.0,309,0.0,0.0,0.0,30.0,0,0,5.0,-99.0,0.0,0.0,0.0,0.0,0.0,0.0,0.0,0.0,0.0,0.0,0.0,0.0,0.0,0.0,0.0,0.0,0.0,16.0,0.0,0.0,30.2,0.0,0.0,0.0,0.0,0.0,0.0,37.0,0.0,0.0,-0.7,14.9,12.3,0.0,0.0,0.0,0.0,18.0,19.0,18.0,19.0,18.0,19.0,18.0,19.0,0.0,0.0,-28.0,1.9,0.0,0.0,8.0,0.0,0.0,0.0,0.653,0.813,0.0,16.4,0.0,0.0,0.0,,0.0,71.6,60.8,0.0,0.0,0.0,0.0,64.4,66.2,64.4,66.2,64.4,66.2,64.4,66.2,0.0,0.0,61.519999999999996,0.0,64.4,-7.199999999999989,-10.079999999999998,0.0,0.0,0.0,383.0,True,2026-05-13 10:41:18-07:00
65.06,1,8,2026-05-13 17:42:16,37.08154,-121.59959,300.0,0.0,84.2,-12.6,-9.99,KTCY,37.2,11.7,0.0,10.8,-0.6,6.5,0.0,56.0,0.1,-0.01,1.0,99.0,-22.0,22,0.0,29.99,889.0,0.0,0.0,309,0.0,0.0,0.0,30.0,0,0,5.0,-99.0,0.0,0.0,0.0,0.0,0.0,0.0,0.0,0.0,0.0,0.0,0.0,0.0,0.0,0.0,0.0,0.0,0.0,16.0,0.0,0.0,30.2,0.0,0.0,0.0,2.8,0.0,0.0,37.0,0.0,0.0,-0.6,14.9,12.3,0.0,0.0,0.0,0.0,18.0,19.0,18.0,19.0,18.0,19.0,18.0,19.0,0.0,0.0,-28.0,1.7,0.0,2.8,8.0,0.0,0.0,0.0,0.653,0.813,0.0,16.4,0.0,0.0,0.0,,0.0,71.6,60.8,0.0,0.0,0.0,0.0,64.4,66.2,64.4,66.2,64.4,66.2,64.4,66.2,0.0,0.0,61.519999999999996,0.0,64.4,-7.199999999999989,-10.079999999999998,0.0,0.0,0.0,383.0,True,2026-05-13 10:41:18-07:00
66.06,1,8,2026-05-13 17:42:17,37.08154,-121.59959,300.0,0.0,84.2,-12.6,-9.99,KTCY,37.2,11.7,0.0,10.8,-0.6,6.5,0.0,56.0,0.1,-0.01,1.0,99.0,-22.0,22,0.0,29.99,889.0,0.0,0.0,309,0.0,0.0,0.0,30.0,0,0,5.0,-99.0,0.0,0.0,0.0,0.0,0.0,0.0,0.0,0.0,0.0,0.0,0.0,0.0,0.0,0.0,0.0,0.0,0.0,16.0,0.0,0.0,30.2,0.0,0.0,0.0,31.2,0.0,0.0,37.0,0.0,0.0,-0.6,14.9,12.3,0.0,0.0,0.0,0.0,18.0,19.0,18.0,19.0,18.0,19.0,18.0,19.0,0.0,0.0,-28.0,1.5,0.0,31.2,8.0,0.0,0.0,0.0,0.653,0.813,0.0,16.4,0.0,0.0,0.0,,0.0,71.6,60.8,0.0,0.0,0.0,0.0,64.4,66.2,64.4,66.2,64.4,66.2,64.4,66.2,0.0,0.0,61.519999999999996,0.0,64.4,-7.199999999999989,-10.079999999999998,0.0,0.0,0.0,383.0,True,2026-05-13 10:41:18-07:00
67.06,1,8,2026-05-13 17:42:18,37.08154,-121.59959,316.0,0.0,84.2,-12.6,-9.99,KTCY,37.2,11.7,0.0,10.8,-0.6,6.4,0.0,56.0,0.1,-0.01,1.0,99.0,-1.0,22,0.0,29.99,898.0,0.0,0.0,309,0.0,0.0,0.0,30.0,0,0,5.0,-99.0,0.0,0.0,0.0,0.0,0.0,0.0,0.0,0.0,0.0,0.0,0.0,0.0,0.0,0.0,0.0,0.0,0.0,16.0,0.0,0.0,30.2,0.0,0.0,0.0,32.4,0.0,0.0,37.0,0.0,0.0,-0.6,14.9,12.3,0.0,0.0,0.0,0.0,18.0,19.0,18.0,19.0,18.0,19.0,18.0,19.0,0.0,0.0,-28.0,1.4,0.0,32.4,8.0,0.0,0.0,0.0,0.653,0.813,0.0,16.4,0.0,0.0,0.0,,0.0,71.6,60.8,0.0,0.0,0.0,0.0,64.4,66.2,64.4,66.2,64.4,66.2,64.4,66.2,0.0,0.0,61.519999999999996,0.0,64.4,-7.199999999999989,-10.079999999999998,0.0,0.0,0.0,383.0,True,2026-05-13 10:41:18-07:00
68.06,1,8,2026-05-13 17:42:19,37.08154,-121.59959,315.0,0.0,84.2,-12.6,-9.99,KTCY,37.2,11.7,0.0,10.8,-0.6,6.4,0.0,56.0,0.1,-0.01,1.0,99.0,-20.0,22,0.0,29.99,898.0,0.0,0.0,309,0.0,0.0,0.0,30.0,0,0,5.0,-99.0,0.0,0.0,0.0,0.0,0.0,0.0,0.0,0.0,0.0,0.0,0.0,0.0,0.0,0.0,0.0,0.0,0.0,16.0,0.0,0.0,30.2,0.5,0.0,0.5,32.3,0.0,0.0,37.0,0.0,0.0,-0.6,14.9,12.3,0.0,0.0,0.0,0.0,18.0,19.0,18.0,19.0,18.0,19.0,18.0,19.0,0.0,0.0,-28.0,1.3,0.0,32.3,8.0,0.0,0.0,0.0,0.653,0.813,0.0,16.4,0.0,0.0,0.0,,0.0,71.6,60.8,0.0,0.0,0.0,0.0,64.4,66.2,64.4,66.2,64.4,66.2,64.4,66.2,0.0,0.0,61.519999999999996,0.0,64.4,-7.199999999999989,-10.079999999999998,6.944444444444444e-05,0.0,0.0,383.0,True,2026-05-13 10:41:18-07:00
69.06,1,8,2026-05-13 17:42:20,37.08154,-121.59959,315.0,0.0,84.2,-12.6,-9.99,KTCY,37.2,11.7,0.0,10.8,-0.7,6.4,0.0,56.0,0.1,-0.01,1.0,99.0,-15.0,22,0.0,29.99,899.0,0.0,0.0,309,0.0,0.0,0.0,30.0,0,0,5.0,-99.0,0.0,0.0,0.0,0.0,0.0,0.0,0.0,0.0,0.0,0.0,0.0,0.0,0.0,0.0,0.0,0.0,0.0,16.0,0.0,0.0,30.2,1.3,0.0,1.3,32.3,0.0,0.0,37.0,0.0,0.0,-0.6,14.9,12.3,0.0,0.0,0.0,0.0,18.0,19.0,18.0,19.0,18.0,19.0,18.0,19.0,0.0,0.0,-28.0,1.3,0.0,32.3,8.0,0.0,0.0,0.0,0.653,0.813,0.0,16.4,0.0,0.0,0.0,,0.0,71.6,60.8,0.0,0.0,0.0,0.0,64.4,66.2,64.4,66.2,64.4,66.2,64.4,66.2,0.0,0.0,61.519999999999996,0.0,64.4,-7.199999999999989,-10.079999999999998,0.00031944444444444446,0.0,0.0,383.0,True,2026-05-13 10:41:18-07:00
70.06,1,8,2026-05-13 17:42:21,37.08154,-121.59959,315.0,0.0,84.2,-12.6,-9.99,KTCY,37.2,11.7,0.0,10.9,-0.7,6.3,0.0,56.0,0.1,-0.01,1.0,99.0,-32.0,22,0.0,29.99,899.0,0.0,0.0,309,0.0,0.0,0.0,30.0,0,0,5.0,-99.0,0.0,0.0,0.0,0.0,0.0,0.0,0.0,0.0,0.0,0.0,0.0,0.0,0.0,0.0,0.0,0.0,0.0,16.0,0.0,0.0,30.2,1.9,0.0,1.9,32.3,0.0,0.0,37.0,0.0,0.0,-0.6,14.9,12.3,0.0,0.0,0.0,0.0,18.0,19.0,18.0,19.0,18.0,19.0,18.0,19.0,0.0,0.0,-29.0,1.2,0.0,32.3,8.0,0.0,0.0,0.0,0.653,0.814,0.0,16.4,0.0,0.0,0.0,,0.0,71.6,60.8,0.0,0.0,0.0,0.0,64.4,66.2,64.4,66.2,64.4,66.2,64.4,66.2,0.0,0.0,61.519999999999996,0.0,64.4,-7.199999999999989,-10.079999999999998,0.0007638888888888889,0.0,0.0,383.0,True,2026-05-13 10:41:18-07:00
71.06,1,9,2026-05-13 17:42:22,37.08154,-121.59959,306.0,0.0,84.2,-12.6,-9.99,KTCY,37.2,11.7,0.0,10.9,-0.7,6.3,0.0,56.0,0.1,-0.01,1.0,99.0,-45.0,22,0.0,29.99,899.0,0.0,0.0,309,0.0,0.0,0.0,30.0,0,0,5.0,-99.0,0.0,0.0,0.0,0.0,0.0,0.0,0.0,0.0,0.0,0.0,0.0,0.0,0.0,0.0,0.0,0.0,0.0,16.0,0.0,0.0,30.2,2.4,0.0,2.4,32.3,0.0,0.0,37.0,0.0,0.0,-0.6,14.9,12.3,0.0,0.0,0.0,0.0,18.0,19.0,18.0,19.0,18.0,19.0,18.0,19.0,0.0,0.0,-28.0,1.1,0.0,32.3,8.0,0.0,0.0,0.0,0.653,0.813,0.0,16.4,0.0,0.0,0.0,,0.0,71.6,60.8,0.0,0.0,0.0,0.0,64.4,66.2,64.4,66.2,64.4,66.2,64.4,66.2,0.0,0.0,61.519999999999996,0.0,64.4,-7.199999999999989,-10.079999999999998,0.0013611111111111111,0.0,0.0,383.0,True,2026-05-13 10:41:18-07:00
72.06,1,9,2026-05-13 17:42:23,37.08154,-121.59959,307.0,0.0,84.2,-12.6,-9.99,KTCY,37.2,11.7,0.0,10.9,-0.7,6.3,0.0,56.0,0.1,-0.01,1.0,99.0,-97.0,22,0.0,29.99,909.0,0.0,0.0,309,0.0,0.0,0.0,30.0,0,0,5.0,-99.0,0.0,0.0,0.0,0.0,0.0,0.0,0.0,0.0,0.0,0.0,0.0,0.0,0.0,0.0,0.0,0.0,0.0,16.0,0.0,0.0,30.2,2.7,0.0,2.7,32.4,0.0,0.0,37.0,0.0,0.0,-0.6,14.9,12.3,0.0,0.0,0.0,0.0,18.0,19.0,18.0,19.0,18.0,19.0,18.0,19.0,0.0,0.0,-29.0,1.1,0.0,32.4,8.0,0.0,0.0,0.0,0.653,0.813,0.0,16.4,0.0,0.0,0.0,,0.0,71.6,60.8,0.0,0.0,0.0,0.0,64.4,66.2,64.4,66.2,64.4,66.2,64.4,66.2,0.0,0.0,61.519999999999996,0.0,64.4,-7.199999999999989,-10.079999999999998,0.0020694444444444445,0.0,0.0,383.0,True,2026-05-13 10:41:18-07:00
73.06,1,9,2026-05-13 17:42:24,37.08154,-121.59959,308.0,0.0,84.2,-12.6,-9.99,KTCY,37.2,11.7,0.0,10.9,-0.6,6.4,0.0,56.0,0.1,-0.01,1.0,99.0,-82.0,22,0.0,29.99,909.0,0.0,0.0,309,0.0,0.0,0.0,30.0,0,0,5.0,-99.0,0.0,0.0,0.0,0.0,0.0,0.0,0.0,0.0,0.0,0.0,0.0,0.0,0.0,0.0,0.0,0.0,0.0,16.0,0.0,0.0,30.2,3.0,0.0,3.0,32.3,0.0,0.0,37.0,0.0,0.0,-0.5,14.9,12.3,0.0,0.0,0.0,0.0,18.0,19.0,18.0,19.0,18.0,19.0,18.0,19.0,0.0,0.0,-29.0,1.1,0.0,32.3,8.0,0.0,0.0,0.0,0.653,0.814,0.0,16.4,0.0,0.0,0.0,,0.0,71.6,60.8,0.0,0.0,0.0,0.0,64.4,66.2,64.4,66.2,64.4,66.2,64.4,66.2,0.0,0.0,61.519999999999996,0.0,64.4,-7.199999999999989,-10.079999999999998,0.002861111111111111,0.0,0.0,383.0,True,2026-05-13 10:41:18-07:00
74.06,1,9,2026-05-13 17:42:25,37.08154,-121.59959,309.0,0.0,84.2,-12.6,-9.99,KTCY,37.2,11.7,0.0,10.9,-0.6,6.3,0.0,54.0,0.1,-0.01,1.0,99.0,-80.0,22,0.0,29.99,909.0,0.0,0.0,309,0.0,0.0,0.0,30.0,0,0,5.0,-99.0,0.0,0.0,0.0,0.0,0.0,0.0,0.0,0.0,0.0,0.0,0.0,0.0,0.0,0.0,0.0,0.0,0.0,16.0,0.0,0.0,30.2,3.1,0.0,3.1,33.3,0.0,0.0,37.0,0.0,0.0,-0.5,14.9,12.3,0.0,0.0,0.0,0.0,18.0,19.0,18.0,19.0,18.0,19.0,18.0,19.0,0.0,0.0,-29.0,1.0,0.0,33.3,8.0,0.0,0.0,0.0,0.653,0.814,0.0,16.4,0.0,0.0,0.0,,0.0,71.6,60.8,0.0,0.0,0.0,0.0,64.4,66.2,64.4,66.2,64.4,66.2,64.4,66.2,0.0,0.0,61.519999999999996,0.0,64.4,-7.199999999999989,-10.079999999999998,0.0037083333333333334,0.0,0.0,383.0,True,2026-05-13 10:41:18-07:00
75.06,1,9,2026-05-13 17:42:26,37.08154,-121.59959,311.0,0.0,84.2,-12.6,-9.99,KTCY,37.2,11.7,0.0,10.9,-0.6,6.3,0.0,52.0,0.1,-0.01,1.0,99.0,-88.0,22,0.0,29.99,907.0,0.0,0.0,309,0.0,0.0,0.0,30.0,0,0,5.0,-99.0,0.0,0.0,0.0,0.0,0.0,0.0,0.0,0.0,0.0,0.0,0.0,0.0,0.0,0.0,0.0,0.0,0.0,16.0,0.0,0.0,30.2,2.6,0.0,2.6,33.3,0.0,0.0,37.0,0.0,0.0,-0.6,14.9,12.3,0.0,0.0,0.0,0.0,18.0,19.0,18.0,20.0,18.0,19.0,18.0,20.0,0.0,0.0,-30.0,1.0,0.0,33.3,8.0,0.0,0.0,0.0,0.653,0.813,0.0,16.4,0.0,0.0,0.0,,0.0,71.6,60.8,0.0,0.0,0.0,0.0,64.4,66.2,64.4,68.0,64.4,66.2,64.4,68.0,0.0,0.0,61.519999999999996,0.0,64.4,-7.199999999999989,-10.079999999999998,0.0045000000000000005,0.0,0.0,383.0,True,2026-05-13 10:41:18-07:00
76.06,1,9,2026-05-13 17:42:27,37.08154,-121.59959,313.0,0.0,84.2,-12.6,-9.99,KTCY,37.2,11.7,0.0,10.9,-0.6,6.3,0.0,52.0,0.1,-0.01,1.0,99.0,-91.0,22,0.0,29.99,907.0,0.0,0.0,309,0.0,0.0,0.0,30.0,0,0,5.0,-99.0,0.0,0.0,0.0,0.0,0.0,0.0,0.0,0.0,0.0,0.0,0.0,0.0,0.0,0.0,0.0,0.0,0.0,16.0,0.0,0.0,30.2,2.6,0.0,2.6,32.9,0.0,0.0,37.0,0.0,0.0,-0.6,14.9,12.3,0.0,0.0,0.0,0.0,18.0,19.0,18.0,19.0,18.0,19.0,18.0,19.0,0.0,0.0,-29.0,1.0,0.0,32.9,8.0,0.0,0.0,0.0,0.653,0.813,0.0,16.4,0.0,0.0,0.0,,0.0,71.6,60.8,0.0,0.0,0.0,0.0,64.4,66.2,64.4,66.2,64.4,66.2,64.4,66.2,0.0,0.0,61.519999999999996,0.0,64.4,-7.199999999999989,-10.079999999999998,0.005222222222222223,0.0,0.0,383.0,True,2026-05-13 10:41:18-07:00
77.06,1,9,2026-05-13 17:42:28,37.08154,-121.59959,315.0,0.0,84.2,-12.6,-9.99,KTCY,37.2,11.7,0.0,10.9,-0.6,6.3,0.0,51.0,0.1,-0.01,1.0,99.0,-74.0,22,0.0,29.99,907.0,0.0,0.0,309,0.0,0.0,0.0,30.0,0,0,5.0,-99.0,0.0,0.0,0.0,0.0,0.0,0.0,0.0,0.0,0.0,0.0,0.0,0.0,0.0,0.0,0.0,0.0,0.0,16.0,0.0,0.0,30.2,2.6,0.0,2.6,32.7,0.0,0.0,37.0,0.0,0.0,-0.6,14.9,12.3,0.0,0.0,0.0,0.0,18.0,19.0,18.0,19.0,18.0,19.0,18.0,19.0,0.0,0.0,-29.0,1.0,0.0,32.7,8.0,0.0,0.0,0.0,0.653,0.814,0.0,16.4,0.0,0.0,0.0,,0.0,71.6,60.8,0.0,0.0,0.0,0.0,64.4,66.2,64.4,66.2,64.4,66.2,64.4,66.2,0.0,0.0,61.519999999999996,0.0,64.4,-7.199999999999989,-10.079999999999998,0.005944444444444445,0.0,0.0,383.0,True,2026-05-13 10:41:18-07:00
78.06,1,9,2026-05-13 17:42:29,37.08153,-121.59959,317.0,0.0,84.2,-12.6,-9.99,KTCY,37.2,11.7,0.0,10.9,-0.6,6.3,0.0,51.0,0.0,-0.01,1.0,99.0,-39.0,22,0.0,29.99,904.0,0.0,0.0,309,0.0,0.0,0.0,30.0,0,0,5.0,-99.0,0.0,0.0,0.0,0.0,0.0,0.0,0.0,0.0,0.0,0.0,0.0,0.0,0.0,0.0,0.0,0.0,0.0,16.0,0.0,0.0,30.2,0.0,0.0,0.0,32.5,0.0,0.0,37.0,0.0,0.0,-0.6,14.9,12.3,0.0,0.0,0.0,0.0,18.0,19.0,18.0,20.0,18.0,19.0,18.0,20.0,0.0,0.0,-29.0,1.0,0.0,32.5,8.0,0.0,0.0,0.0,0.654,0.813,0.0,16.4,0.0,0.0,0.0,,0.0,71.6,60.8,0.0,0.0,0.0,0.0,64.4,66.2,64.4,68.0,64.4,66.2,64.4,68.0,0.0,0.0,61.519999999999996,0.0,64.4,-7.199999999999989,-10.079999999999998,0.006305555555555556,0.0,0.0,383.0,True,2026-05-13 10:41:18-07:00
79.06,1,9,2026-05-13 17:42:30,37.08153,-121.59959,319.0,0.1,84.2,-12.6,-9.99,KTCY,37.2,11.7,0.0,10.9,-0.6,6.3,0.0,51.0,0.1,-0.01,1.0,99.0,13.0,22,0.0,29.99,904.0,0.0,0.0,309,0.0,0.0,0.0,30.0,0,0,5.0,-99.0,0.0,0.0,0.0,0.0,0.0,0.0,0.0,0.0,0.0,0.0,0.0,0.0,0.0,0.0,0.0,0.0,0.0,16.0,0.0,0.0,30.2,0.0,0.0,0.0,32.3,0.0,0.0,37.0,0.0,0.0,-0.7,14.9,12.3,0.0,0.0,0.0,0.0,18.0,19.0,18.0,20.0,18.0,19.0,19.0,20.0,0.0,0.0,-29.0,1.0,0.0,32.3,8.0,0.0,0.0,0.0,0.653,0.813,0.0,16.4,0.0,0.0,0.0,,0.0,71.6,60.8,0.0,0.0,0.0,0.0,64.4,66.2,64.4,68.0,64.4,66.2,66.2,68.0,0.0,0.0,61.519999999999996,0.0,64.85000000000001,-6.749999999999986,-10.079999999999998,0.006305555555555556,0.08433333333333333,0.0,383.0,True,2026-05-13 10:41:18-07:00
80.06,1,9,2026-05-13 17:42:31,37.08153,-121.59959,321.0,0.0,84.2,-12.6,-9.99,KTCY,37.2,11.7,0.0,10.9,-0.7,6.3,0.0,51.0,0.1,-0.01,1.0,99.0,28.0,22,0.0,29.99,904.0,0.0,0.0,309,0.0,0.0,0.0,30.0,0,0,5.0,-99.0,0.0,0.0,0.0,0.0,0.0,0.0,0.0,0.0,0.0,0.0,0.0,0.0,0.0,0.0,0.0,0.0,0.0,16.0,0.0,0.0,30.2,0.0,0.0,0.0,32.1,0.0,0.0,37.0,0.0,0.0,-0.7,14.9,12.3,0.0,0.0,0.0,0.0,18.0,19.0,18.0,20.0,18.0,19.0,18.0,20.0,0.0,0.0,-29.0,1.0,0.0,32.1,8.0,0.0,0.0,0.0,0.653,0.813,0.0,16.4,0.0,0.0,0.0,,0.0,71.6,60.8,0.0,0.0,0.0,0.0,64.4,66.2,64.4,68.0,64.4,66.2,64.4,68.0,0.0,0.0,61.519999999999996,0.0,64.4,-7.199999999999989,-10.079999999999998,0.006305555555555556,0.16866666666666666,0.0,383.0,True,2026-05-13 10:41:18-07:00
81.06,1,9,2026-05-13 17:42:32,37.08153,-121.59959,322.0,0.0,84.2,-12.6,-9.99,KTCY,37.2,11.7,0.0,10.9,-0.7,6.3,0.0,51.0,0.1,-0.01,1.0,99.0,25.0,22,0.0,29.99,913.0,0.0,0.0,309,0.0,0.0,0.0,30.0,0,0,5.0,-99.0,0.0,0.0,0.0,0.0,0.0,0.0,0.0,0.0,0.0,0.0,0.0,0.0,0.0,0.0,0.0,0.0,0.0,16.0,0.0,0.0,30.2,0.0,0.0,0.0,32.0,0.0,0.0,37.0,0.0,0.0,-0.7,14.9,12.3,0.0,0.0,0.0,0.0,18.0,19.0,18.0,20.0,18.0,19.0,18.0,20.0,0.0,0.0,-29.0,1.0,0.0,32.0,8.0,0.0,0.0,0.0,0.653,0.813,0.0,16.4,0.0,0.0,0.0,,0.0,71.6,60.8,0.0,0.0,0.0,0.0,64.4,66.2,64.4,68.0,64.4,66.2,64.4,68.0,0.0,0.0,61.519999999999996,0.0,64.4,-7.199999999999989,-10.079999999999998,0.006305555555555556,0.16866666666666666,0.0,383.0,True,2026-05-13 10:41:18-07:00
82.06,1,9,2026-05-13 17:42:33,37.08152,-121.59959,324.0,0.1,84.2,-12.6,-9.99,KTCY,37.2,11.7,0.0,10.9,-0.6,6.3,0.0,51.0,0.0,-0.01,1.0,99.0,-7.0,22,0.0,29.99,914.0,0.0,0.0,309,0.0,0.0,0.0,30.0,0,0,5.0,-99.0,0.0,0.0,0.0,0.0,0.0,0.0,0.0,0.0,0.0,0.0,0.0,0.0,0.0,0.0,0.0,0.0,0.0,16.0,0.0,0.0,30.2,0.0,0.0,0.0,31.8,0.0,0.0,37.0,0.0,0.0,-0.7,14.9,12.3,0.0,0.0,0.0,0.0,18.0,19.0,18.0,20.0,18.0,19.0,18.0,20.0,0.0,0.0,-29.0,1.0,0.0,31.8,8.0,0.0,0.0,0.0,0.653,0.814,0.0,16.4,0.0,0.0,0.0,,0.0,71.6,60.8,0.0,0.0,0.0,0.0,64.4,66.2,64.4,68.0,64.4,66.2,64.4,68.0,0.0,0.0,61.519999999999996,0.0,64.4,-7.199999999999989,-10.079999999999998,0.006305555555555556,0.253,0.0,383.0,True,2026-05-13 10:41:18-07:00
83.06,1,9,2026-05-13 17:42:34,37.08152,-121.59959,326.0,0.0,84.2,-12.6,-9.99,KTCY,37.2,11.7,0.0,10.9,-0.6,6.3,0.0,51.0,0.1,-0.01,1.0,99.0,-34.0,22,0.0,29.99,914.0,0.0,0.0,309,0.0,0.0,0.0,30.0,0,0,5.0,-99.0,0.0,0.0,0.0,0.0,0.0,0.0,0.0,0.0,0.0,0.0,0.0,0.0,0.0,0.0,0.0,0.0,0.0,16.0,0.0,0.0,30.2,0.0,0.0,0.0,31.7,0.0,0.0,37.0,0.0,0.0,-0.7,14.9,12.3,0.0,0.0,0.0,0.0,18.0,19.0,18.0,20.0,18.0,19.0,18.0,20.0,0.0,0.0,-29.0,1.0,0.0,31.7,8.0,0.0,0.0,0.0,0.653,0.813,0.0,16.4,0.0,0.0,0.0,,0.0,71.6,60.8,0.0,0.0,0.0,0.0,64.4,66.2,64.4,68.0,64.4,66.2,64.4,68.0,0.0,0.0,61.519999999999996,0.0,64.4,-7.199999999999989,-10.079999999999998,0.006305555555555556,0.3373333333333333,0.0,383.0,True,2026-05-13 10:41:18-07:00
84.06,1,9,2026-05-13 17:42:35,37.08152,-121.59959,327.0,0.0,84.2,-12.6,-9.99,KTCY,37.2,11.7,0.0,10.9,-0.6,6.3,0.0,51.0,0.1,-0.01,1.0,99.0,-31.0,22,0.0,29.99,914.0,0.0,0.0,309,0.0,0.0,0.0,30.0,0,0,5.0,-99.0,0.0,0.0,0.0,0.0,0.0,0.0,0.0,0.0,0.0,0.0,0.0,0.0,0.0,0.0,0.0,0.0,0.0,16.0,0.0,0.0,30.2,0.0,0.0,0.0,31.5,0.0,0.0,37.0,0.0,0.0,-0.7,14.9,12.3,0.0,0.0,0.0,0.0,18.0,19.0,18.0,20.0,18.0,19.0,18.0,20.0,0.0,0.0,-29.0,1.0,0.0,31.5,8.0,0.0,0.0,0.0,0.653,0.813,0.0,16.4,0.0,0.0,0.0,,0.0,71.6,60.8,0.0,0.0,0.0,0.0,64.4,66.2,64.4,68.0,64.4,66.2,64.4,68.0,0.0,0.0,61.519999999999996,0.0,64.4,-7.199999999999989,-10.079999999999998,0.006305555555555556,0.3373333333333333,0.0,383.0,True,2026-05-13 10:41:18-07:00
85.06,1,9,2026-05-13 17:42:36,37.08152,-121.59959,328.0,0.0,84.2,-12.6,-9.99,KTCY,37.2,11.7,0.0,10.8,-0.6,6.3,0.0,51.0,0.1,-0.01,1.0,99.0,-17.0,22,0.0,29.99,924.0,0.0,0.0,309,0.0,0.0,0.0,30.0,0,0,5.0,-99.0,0.0,0.0,0.0,0.0,0.0,0.0,0.0,0.0,0.0,0.0,0.0,0.0,0.0,0.0,0.0,0.0,0.0,16.0,0.0,0.0,30.2,0.0,0.0,0.0,31.4,0.0,0.0,37.0,0.0,0.0,-0.7,14.9,12.3,0.0,0.0,0.0,0.0,18.0,19.0,18.0,20.0,18.0,19.0,18.0,20.0,0.0,0.0,-29.0,1.0,0.0,31.4,8.0,0.0,0.0,0.0,0.653,0.813,0.0,16.4,0.0,0.0,0.0,,0.0,71.6,60.8,0.0,0.0,0.0,0.0,64.4,66.2,64.4,68.0,64.4,66.2,64.4,68.0,0.0,0.0,61.519999999999996,0.0,64.4,-7.199999999999989,-10.079999999999998,0.006305555555555556,0.3373333333333333,0.0,383.0,True,2026-05-13 10:41:18-07:00
86.06,1,9,2026-05-13 17:42:37,37.08147,-121.59962,383.0,0.0,84.2,-12.6,-9.99,KTCY,37.2,11.7,0.0,10.9,-0.6,6.3,0.0,51.0,0.1,-0.01,1.0,99.0,5.0,22,0.0,29.99,924.0,0.0,0.0,309,0.0,0.0,0.0,30.0,0,0,5.0,-99.0,0.0,0.0,0.0,0.0,0.0,0.0,0.0,0.0,0.0,0.0,0.0,0.0,0.0,0.0,0.0,0.0,0.0,16.0,0.0,0.0,30.2,0.0,0.0,0.0,31.3,0.0,0.0,37.0,0.0,0.0,-0.7,14.9,12.3,0.0,0.0,0.0,0.0,18.0,19.0,18.0,20.0,18.0,19.0,18.0,20.0,0.0,0.0,-30.0,0.0,0.0,31.3,8.0,0.0,0.0,0.0,0.653,0.814,0.0,16.4,0.0,0.0,0.0,,0.0,71.6,60.8,0.0,0.0,0.0,0.0,64.4,66.2,64.4,68.0,64.4,66.2,64.4,68.0,0.0,0.0,61.519999999999996,0.0,64.4,-7.199999999999989,-10.079999999999998,0.006305555555555556,0.3373333333333333,0.0,383.0,True,2026-05-13 10:41:18-07:00
87.06,1,9,2026-05-13 17:42:38,37.08147,-121.59962,383.0,0.0,84.2,-12.6,-9.99,KTCY,37.2,11.7,0.0,10.9,-0.6,6.3,0.0,51.0,0.1,-0.01,1.0,99.0,22.0,22,0.0,29.99,924.0,0.0,0.0,309,0.0,0.0,0.0,30.0,0,0,5.0,-99.0,0.0,0.0,0.0,0.0,0.0,0.0,0.0,0.0,0.0,0.0,0.0,0.0,0.0,0.0,0.0,0.0,0.0,16.0,0.0,0.0,30.2,0.0,0.0,0.0,31.2,0.0,0.0,37.0,0.0,0.0,-0.7,14.9,12.3,0.0,0.0,0.0,0.0,18.0,19.0,18.0,20.0,18.0,19.0,18.0,20.0,0.0,0.0,-29.0,0.0,0.0,31.2,8.0,0.0,0.0,0.0,0.653,0.813,0.0,16.4,0.0,0.0,0.0,,0.0,71.6,60.8,0.0,0.0,0.0,0.0,64.4,66.2,64.4,68.0,64.4,66.2,64.4,68.0,0.0,0.0,61.519999999999996,0.0,64.4,-7.199999999999989,-10.079999999999998,0.006305555555555556,0.3373333333333333,0.0,383.0,True,2026-05-13 10:41:18-07:00
88.06,1,9,2026-05-13 17:42:39,37.08147,-121.59962,383.0,0.0,84.2,-12.6,-9.99,KTCY,37.2,11.7,0.0,10.9,-0.6,6.4,0.0,51.0,0.1,-0.01,1.0,99.0,41.0,22,0.0,29.99,924.0,0.0,0.0,309,0.0,0.0,0.0,30.0,0,0,5.0,-99.0,0.0,0.0,0.0,0.0,0.0,0.0,0.0,0.0,0.0,0.0,0.0,0.0,0.0,0.0,0.0,0.0,0.0,16.0,0.0,0.0,30.2,0.0,0.0,0.0,31.1,0.0,0.0,37.0,0.0,0.0,-0.7,14.9,12.3,0.0,0.0,0.0,0.0,18.0,19.0,18.0,20.0,18.0,19.0,18.0,20.0,0.0,0.0,-29.0,0.0,0.0,31.1,8.0,0.0,0.0,0.0,0.653,0.813,0.0,16.4,0.0,0.0,0.0,,0.0,71.6,60.8,0.0,0.0,0.0,0.0,64.4,66.2,64.4,68.0,64.4,66.2,64.4,68.0,0.0,0.0,61.519999999999996,0.0,64.4,-7.199999999999989,-10.079999999999998,0.006305555555555556,0.3373333333333333,0.0,383.0,True,2026-05-13 10:41:18-07:00
89.06,1,9,2026-05-13 17:42:40,37.08147,-121.59962,382.0,0.0,84.2,-12.6,-9.99,KTCY,37.2,11.7,0.0,10.8,-0.6,6.4,0.0,51.0,0.1,-0.01,1.0,99.0,52.0,22,0.0,29.99,924.0,0.0,0.0,309,0.0,0.0,0.0,30.0,0,0,5.0,-99.0,0.0,0.0,0.0,0.0,0.0,0.0,0.0,0.0,0.0,0.0,0.0,0.0,0.0,0.0,0.0,0.0,0.0,16.0,0.0,0.0,30.2,0.0,0.0,0.0,31.0,0.0,0.0,37.0,0.0,0.0,-0.7,14.9,12.3,0.0,0.0,0.0,0.0,18.0,19.0,18.0,19.0,18.0,19.0,18.0,20.0,0.0,0.0,-29.0,0.0,0.0,31.0,8.0,0.0,0.0,0.0,0.653,0.813,0.0,16.4,0.0,0.0,0.0,,0.0,71.6,60.8,0.0,0.0,0.0,0.0,64.4,66.2,64.4,66.2,64.4,66.2,64.4,68.0,0.0,0.0,61.519999999999996,0.0,64.4,-7.199999999999989,-10.079999999999998,0.006305555555555556,0.3373333333333333,0.0,383.0,True,2026-05-13 10:41:18-07:00
90.06,1,9,2026-05-13 17:42:41,37.08147,-121.59962,381.0,0.0,84.2,-12.6,-9.99,KTCY,37.2,11.7,0.0,10.8,-0.5,6.5,0.0,51.0,0.1,-0.01,1.0,99.0,75.0,22,0.0,29.99,925.0,0.0,0.0,309,0.0,0.0,0.0,30.0,0,0,5.0,-99.0,0.0,0.0,0.0,0.0,0.0,0.0,0.0,0.0,0.0,0.0,0.0,0.0,0.0,0.0,0.0,0.0,0.0,16.0,0.0,0.0,30.2,0.0,0.0,0.0,30.8,0.0,0.0,37.0,0.0,0.0,-0.7,14.9,12.3,0.0,0.0,0.0,0.0,18.0,19.0,18.0,20.0,18.0,19.0,18.0,20.0,0.0,0.0,-29.0,0.0,0.0,30.8,8.0,0.0,0.0,0.0,0.653,0.813,0.0,16.4,0.0,0.0,0.0,,0.0,71.6,60.8,0.0,0.0,0.0,0.0,64.4,66.2,64.4,68.0,64.4,66.2,64.4,68.0,0.0,0.0,61.519999999999996,0.0,64.4,-7.199999999999989,-10.079999999999998,0.006305555555555556,0.3373333333333333,0.0,383.0,True,2026-05-13 10:41:18-07:00
91.06,2,9,2026-05-13 17:42:42,37.08146,-121.59963,384.0,0.0,84.2,-12.6,-9.99,KTCY,37.2,11.7,0.0,10.9,-0.5,6.5,0.0,51.0,0.1,-0.01,1.0,99.0,81.0,22,0.0,29.99,925.0,0.0,0.0,309,0.0,0.0,0.0,30.0,0,0,5.0,-99.0,0.0,0.0,0.0,0.0,0.0,0.0,0.0,0.0,0.0,0.0,0.0,0.0,0.0,0.0,0.0,0.0,0.0,16.0,0.0,0.0,30.2,0.0,0.0,0.0,30.7,0.0,0.0,37.0,0.0,0.0,-0.7,14.9,12.3,0.0,0.0,0.0,0.0,18.0,19.0,18.0,20.0,18.0,19.0,18.0,20.0,0.0,0.0,-29.0,0.0,0.0,30.7,8.0,0.0,0.0,0.0,0.653,0.813,0.0,16.4,0.0,0.0,0.0,,0.0,71.6,60.8,0.0,0.0,0.0,0.0,64.4,66.2,64.4,68.0,64.4,66.2,64.4,68.0,0.0,0.0,61.519999999999996,0.0,64.4,-7.199999999999989,-10.079999999999998,0.006305555555555556,0.3373333333333333,0.0,383.0,True,2026-05-13 10:41:18-07:00
