Session Time,GPS Fix Quality,Number of Satellites,GPS Date & Time,Latitude (deg),Longitude (deg),GPS Altitude (feet),Ground Speed (knots),Ground Track (deg),Mag Var (deg),Cross Track Error (NM),Destination Waypoint ID,Range to Destination (NM),Bearing to Destination (deg),System Time,Pitch (deg),Roll (deg),Magnetic Heading (deg),Indicated Airspeed (knots),Pressure Altitude (ft),Turn Rate (deg/s),Lateral Accel (g),Vertical Accel(g),Angle of Attack (%),Vertical Speed (ft/min),OAT (deg C),True Airspeed (knots),Barometer Setting (inHg),Density Altitude (ft),Wind Direction (deg),Wind Speed (knots),Heading Bug (deg),Altitude Bug (ft),Airspeed Bug (knots),Vertical Speed Bug (ft/min),Course (deg),CDI Source Type,CDI Source Port,CDI Scale (NM),CDI Deflection (%),Glideslope (%),AP Engaged,AP Roll Mode,AP Roll Force,AP Roll Position (steps),AP Roll Slip (bool),AP Pitch Force,AP Pitch Position (steps),AP Pitch Slip (bool),AP Yaw Force,AP Yaw Position,AP Yaw Slip (bool),Transponder Status,Transponder Reply (bool),Transponder Identing (bool),Transponder Code (octal),Oil Pressure (PSI),Oil Temp (deg C),RPM L,RPM R,Manifold Pressure (inHg),Fuel Flow 1 (gal/hr),Fuel Flow 2 (gal/hr),Total Fuel Flow (gal/hr),Fuel Pressure (PSI),Fuel Level L (gal),Fuel Level R (gal),Fuel Remaining (gal),Volts 1,Volts 2,Amps,Hobbs Time,Tach Time,Thermocouple 1 (deg C),Thermocouple 2 (deg C),Thermocouple 3 (deg C),Thermocouple 4 (deg C),CHT 4 (deg C),EGT 4 (deg C),CHT 3 (deg C),EGT 3 (deg C),CHT 2 (deg C),EGT 2 (deg C),CHT 1 (deg C),EGT 1 (deg C),Thermocouple 13 (deg C),Thermocouple 14 (deg C),ELEV POSITION (%),CO PPM PRESSURE (PSI),GP Input 3,FUEL PRESSURE (PSI),AILERN POSITION (%),CANOPY CONTACT (V),GP Input 7,GP Input 8,LEFT LEVEL (Sensor V),RIGHT LEVEL (Sensor V),OIL PRESSURE (PSI),OIL TEMPERATURE (deg C),GP Input 13,Contacts,Percent Power,EGT Leaning State,Unnamed: 103,RPM,Flight ID
8.06,1.0,9.0,2026-03-14 00:36:07,37.08164,-121.59961,351.0,0.0,200.0,-12.6,,,,,00:36:06,10.7,-1.9,43.0,0.0,208.0,0.1,-0.03,1.0,,-118.0,24.0,0.0,30.15,1329.0,,,0.0,,,,,0.0,0.0,,,,,,,,,,,,,,,,,,,0.0,21.0,0.0,0.0,30.1,0.0,,0.0,0.6,,,35.9,0.0,0.0,-0.7,5.0,3.6,,,,,22.0,22.0,+22,22.0,22.0,22.0,22.0,22.0,,,19.0,254.4,,0.6,-10.0,4.998,,,0.654,0.847,0.0,21.1,,,,,,0.0,2026-03-13 17:36:07-07:00
9.06,1.0,10.0,2026-03-14 00:36:08,37.08169,-121.5996,362.0,0.0,200.0,-12.6,,,,,00:36:07,10.7,-1.9,43.0,0.0,207.0,0.1,-0.03,1.0,,-108.0,24.0,0.0,30.15,1329.0,,,0.0,,,,,0.0,0.0,,,,,,,,,,,,,,,,,,,0.0,21.0,0.0,0.0,30.1,0.0,,0.0,0.6,,,35.9,0.0,0.0,-0.7,5.0,3.6,,,,,22.0,22.0,+22,22.0,22.0,22.0,22.0,22.0,,,19.0,254.4,,0.6,-10.0,4.998,,,0.653,0.847,0.0,21.0,,,,,,0.0,2026-03-13 17:36:07-07:00
10.06,1.0,10.0,2026-03-14 00:36:09,37.08165,-121.59961,341.0,0.0,200.0,-12.6,,,,,00:36:08,10.7,-1.9,43.0,0.0,205.0,0.1,-0.03,1.0,,-76.0,24.0,0.0,30.15,1322.0,,,0.0,,,,,0.0,0.0,,,,,,,,,,,,,,,,,,,0.0,21.0,0.0,0.0,30.1,0.0,,0.0,0.6,,,35.9,0.0,0.0,-0.7,5.0,3.6,,,,,22.0,22.0,+22,22.0,22.0,22.0,22.0,22.0,,,19.0,254.4,,0.6,-10.0,4.998,,,0.654,0.847,0.0,21.0,,,,,,0.0,2026-03-13 17:36:07-07:00
11.06,1.0,10.0,2026-03-14 00:36:10,37.08165,-121.59961,342.0,0.0,200.0,-12.6,,,,,00:36:09,10.7,-1.9,43.0,0.0,205.0,0.1,-0.03,1.0,,-67.0,24.0,0.0,30.15,1322.0,,,0.0,,,,,0.0,0.0,,,,,,,,,,,,,,,,,,,0.0,21.0,0.0,0.0,30.1,0.0,,0.0,0.6,,,35.9,0.0,0.0,-0.7,5.0,3.6,,,,,22.0,22.0,+22,22.0,22.0,22.0,22.0,22.0,,,19.0,254.3,,0.6,-10.0,4.998,,,0.653,0.847,0.0,21.0,,,,,,0.0,2026-03-13 17:36:07-07:00
12.06,1.0,10.0,2026-03-14 00:36:11,37.08165,-121.59961,343.0,0.0,200.0,-12.6,,,,,00:36:10,10.7,-1.9,43.0,0.0,203.0,0.1,-0.03,1.0,,-82.0,24.0,0.0,30.15,1322.0,,,0.0,,,,,0.0,0.0,,,,,,,,,,,,,,,,,,,0.0,21.0,0.0,0.0,30.1,0.0,,0.0,0.6,,,35.9,0.0,0.0,-0.7,5.0,3.6,,,,,22.0,22.0,+22,22.0,22.0,22.0,22.0,22.0,,,19.0,254.3,,0.6,-10.0,4.998,,,0.653,0.847,0.0,21.0,,,,,,0.0,2026-03-13 17:36:07-07:00
13.06,1.0,10.0,2026-03-14 00:36:12,37.08165,-121.59961,343.0,0.0,200.0,-12.6,,,,,00:36:11,10.7,-1.9,43.0,0.0,201.0,0.1,-0.03,1.0,,-96.0,24.0,0.0,30.15,1318.0,,,0.0,,,,,0.0,0.0,,,,,,,,,,,,,,,,,,,0.0,21.0,0.0,0.0,30.1,0.0,,0.0,0.6,,,35.9,0.0,0.0,-0.7,5.0,3.6,,,,,22.0,22.0,+22,22.0,22.0,22.0,22.0,22.0,,,19.0,254.3,,0.6,-10.0,4.998,,,0.653,0.847,0.0,21.0,,,,,,0.0,2026-03-13 17:36:07-07:00
14.06,1.0,10.0,2026-03-14 00:36:13,37.08165,-121.59961,343.0,0.0,200.0,-12.6,,,,,00:36:12,10.7,-1.9,43.0,0.0,199.0,0.1,-0.03,1.0,,-98.0,24.0,0.0,30.15,1318.0,,,0.0,,,,,0.0,0.0,,,,,,,,,,,,,,,,,,,0.0,21.0,0.0,0.0,30.1,0.0,,0.0,0.6,,,35.9,0.0,0.0,-0.7,5.0,3.6,,,,,22.0,22.0,+22,22.0,22.0,22.0,22.0,22.0,,,19.0,254.3,,0.6,-10.0,4.998,,,0.654,0.847,0.0,21.0,,,,,,0.0,2026-03-13 17:36:07-07:00
15.06,1.0,10.0,2026-03-14 00:36:14,37.08165,-121.59961,343.0,0.0,200.0,-12.6,,,,,00:36:13,10.7,-1.9,43.0,0.0,198.0,0.1,-0.03,1.0,,-88.0,24.0,0.0,30.15,1318.0,,,0.0,,,,,0.0,0.0,,,,,,,,,,,,,,,,,,,0.0,21.0,0.0,0.0,30.1,0.0,,0.0,0.6,,,35.9,0.0,0.0,-0.7,5.0,3.6,,,,,22.0,22.0,+22,22.0,22.0,22.0,22.0,22.0,,,19.0,254.3,,0.6,-9.0,4.998,,,0.653,0.847,0.0,21.0,,,,,,0.0,2026-03-13 17:36:07-07:00
16.06,1.0,10.0,2026-03-14 00:36:15,37.08165,-121.59961,343.0,0.0,200.0,-12.6,,,,,00:36:14,10.7,-2.0,42.9,0.0,197.0,0.1,-0.03,1.0,,-68.0,24.0,0.0,30.15,1313.0,,,0.0,,,,,0.0,0.0,,,,,,,,,,,,,,,,,,,0.0,21.0,0.0,0.0,30.1,0.0,,0.0,0.6,,,35.9,0.0,0.0,-0.7,5.0,3.6,,,,,22.0,22.0,+22,22.0,22.0,22.0,22.0,22.0,,,19.0,254.3,,0.6,-9.0,4.998,,,0.654,0.847,0.0,21.0,,,,,,0.0,2026-03-13 17:36:07-07:00
17.06,1.0,10.0,2026-03-14 00:36:16,37.08165,-121.59961,342.0,0.0,200.0,-12.6,,,,,00:36:15,10.7,-2.0,42.9,0.0,196.0,0.1,-0.03,1.0,,-70.0,24.0,0.0,30.15,1313.0,,,0.0,,,,,0.0,0.0,,,,,,,,,,,,,,,,,,,0.0,21.0,0.0,0.0,30.1,0.0,,0.0,0.6,,,35.9,0.0,0.0,-0.7,5.0,3.6,,,,,22.0,22.0,+22,22.0,22.0,22.0,22.0,22.0,,,19.0,254.3,,0.6,-10.0,4.998,,,0.653,0.847,0.0,21.0,,,,,,0.0,2026-03-13 17:36:07-07:00
18.06,1.0,10.0,2026-03-14 00:36:17,37.08165,-121.59961,342.0,0.0,200.0,-12.6,,,,,00:36:16,10.7,-2.0,42.9,0.0,194.0,0.1,-0.03,1.0,,-56.0,24.0,0.0,30.15,1313.0,,,0.0,,,,,0.0,0.0,,,,,,,,,,,,,,,,,,,0.0,21.0,0.0,0.0,30.1,0.0,,0.0,0.6,,,35.9,0.0,0.0,-0.7,5.0,3.6,,,,,22.0,22.0,+22,22.0,22.0,22.0,22.0,22.0,,,19.0,254.3,,0.6,-9.0,4.998,,,0.653,0.847,0.0,21.0,,,,,,0.0,2026-03-13 17:36:07-07:00
19.06,1.0,10.0,2026-03-14 00:36:18,37.08165,-121.5996,342.0,0.0,200.0,-12.6,,,,,00:36:17,10.7,-2.0,42.9,0.0,194.0,0.1,-0.03,1.0,,-38.0,24.0,0.0,30.15,1310.0,,,0.0,,,,,0.0,0.0,,,,,,,,,,,,,,,,,,,0.0,21.0,0.0,0.0,30.1,0.0,,0.0,0.6,,,35.9,0.0,0.0,-0.6,5.0,3.6,,,,,22.0,22.0,+22,22.0,22.0,22.0,22.0,22.0,,,19.0,254.3,,0.6,-9.0,4.998,,,0.653,0.847,0.0,21.0,,,,,,0.0,2026-03-13 17:36:07-07:00
20.06,1.0,10.0,2026-03-14 00:36:19,37.08166,-121.5996,341.0,0.0,200.0,-12.6,,,,,00:36:18,10.7,-2.0,42.9,0.0,194.0,0.1,-0.03,1.0,,-45.0,24.0,0.0,30.15,1310.0,,,0.0,,,,,0.0,0.0,,,,,,,,,,,,,,,,,,,0.0,21.0,0.0,0.0,30.1,0.0,,0.0,0.6,,,35.9,0.0,0.0,-0.6,5.0,3.6,,,,,22.0,22.0,+22,22.0,22.0,22.0,22.0,22.0,,,19.0,254.3,,0.6,-9.0,4.998,,,0.653,0.847,0.0,21.0,,,,,,0.0,2026-03-13 17:36:07-07:00
21.06,1.0,10.0,2026-03-14 00:36:20,37.08166,-121.5996,340.0,0.0,200.0,-12.6,,,,,00:36:19,10.7,-1.9,42.9,0.0,193.0,0.1,-0.03,1.0,,-41.0,24.0,0.0,30.15,1310.0,,,0.0,,,,,0.0,0.0,,,,,,,,,,,,,,,,,,,0.0,21.0,0.0,0.0,30.1,0.0,,0.0,0.6,,,35.9,0.0,0.0,-0.6,5.0,3.6,,,,,22.0,22.0,+22,22.0,22.0,22.0,22.0,22.0,,,19.0,254.3,,0.6,-9.0,4.998,,,0.653,0.847,0.0,21.0,,,,,,0.0,2026-03-13 17:36:07-07:00
22.06,1.0,10.0,2026-03-14 00:36:21,37.08166,-121.59961,340.0,0.0,200.0,-12.6,,,,,00:36:20,10.7,-2.0,42.9,0.0,191.0,0.1,-0.03,1.0,,-72.0,24.0,0.0,30.15,1314.0,,,0.0,,,,,0.0,0.0,,,,,,,,,,,,,,,,,,,0.0,21.0,0.0,0.0,30.1,0.0,,0.0,0.6,,,35.9,0.0,0.0,-0.6,5.0,3.6,,,,,22.0,22.0,+22,22.0,22.0,22.0,22.0,22.0,,,19.0,254.3,,0.6,-9.0,4.998,,,0.653,0.848,0.0,21.0,,,,,,0.0,2026-03-13 17:36:07-07:00
23.06,1.0,10.0,2026-03-14 00:36:21,37.08166,-121.59961,339.0,0.0,200.0,-12.6,,,,,00:36:21,10.8,-2.0,42.8,0.0,190.0,0.1,-0.03,1.0,,-39.0,24.0,0.0,30.15,1313.0,,,0.0,,,,,0.0,0.0,,,,,,,,,,,,,,,,,,,0.0,21.0,0.0,0.0,30.1,0.0,,0.0,0.6,,,35.9,0.0,0.0,-0.6,5.0,3.6,,,,,22.0,22.0,+22,22.0,22.0,22.0,22.0,22.0,,,19.0,254.3,,0.6,-9.0,4.998,,,0.653,0.848,0.0,21.0,,,,,,0.0,2026-03-13 17:36:07-07:00
24.06,1.0,10.0,2026-03-14 00:36:22,37.08166,-121.59961,339.0,0.0,200.0,-12.6,,,,,00:36:22,10.7,-2.0,42.9,0.0,189.0,0.1,-0.03,1.0,,-67.0,24.0,0.0,30.15,1313.0,,,0.0,,,,,0.0,0.0,,,,,,,,,,,,,,,,,,,0.0,21.0,0.0,0.0,30.1,0.0,,0.0,0.6,,,35.9,0.0,0.0,-0.6,5.0,3.6,,,,,22.0,22.0,+22,22.0,22.0,22.0,22.0,22.0,,,19.0,254.3,,0.6,-9.0,4.998,,,0.653,0.848,0.0,21.0,,,,,,0.0,2026-03-13 17:36:07-07:00
25.06,1.0,10.0,2026-03-14 00:36:23,37.08166,-121.59961,338.0,0.0,200.0,-12.6,,,,,00:36:23,10.7,-2.0,42.9,0.0,189.0,0.1,-0.03,1.0,,-55.0,24.0,0.0,30.15,1311.0,,,0.0,,,,,0.0,0.0,,,,,,,,,,,,,,,,,,,0.0,21.0,0.0,0.0,30.1,0.0,,0.0,0.6,,,35.9,0.0,0.0,-0.6,5.0,3.6,,,,,22.0,22.0,+22,22.0,22.0,22.0,22.0,22.0,,,19.0,254.3,,0.6,-9.0,4.998,,,0.653,0.848,0.0,21.0,,,,,,0.0,2026-03-13 17:36:07-07:00
26.06,1.0,10.0,2026-03-14 00:36:24,37.08166,-121.59961,338.0,0.0,200.0,-12.6,,,,,00:36:24,10.8,-1.9,42.9,0.0,189.0,0.1,-0.03,1.0,,-25.0,24.0,0.0,30.15,1311.0,,,0.0,,,,,0.0,0.0,,,,,,,,,,,,,,,,,,,0.0,21.0,0.0,0.0,30.1,0.0,,0.0,0.6,,,35.9,0.0,0.0,-0.5,5.0,3.6,,,,,22.0,22.0,+22,22.0,22.0,22.0,22.0,22.0,,,19.0,254.3,,0.6,-9.0,4.998,,,0.653,0.848,0.0,21.0,,,,,,0.0,2026-03-13 17:36:07-07:00
27.06,1.0,10.0,2026-03-14 00:36:26,37.08166,-121.59961,337.0,0.0,200.0,-12.6,,,,,00:36:25,10.8,-2.0,42.8,0.0,189.0,0.1,-0.03,1.0,,-14.0,24.0,0.0,30.15,1311.0,,,0.0,,,,,0.0,0.0,,,,,,,,,,,,,,,,,,,0.0,21.0,0.0,0.0,30.1,0.0,,0.0,0.6,,,35.9,0.0,0.0,-0.5,5.0,3.6,,,,,22.0,22.0,+22,22.0,22.0,22.0,22.0,22.0,,,19.0,254.3,,0.6,-9.0,4.998,,,0.653,0.848,0.0,21.0,,,,,,0.0,2026-03-13 17:36:07-07:00
28.06,1.0,10.0,2026-03-14 00:36:26,37.08166,-121.59961,337.0,0.0,200.0,-12.6,,,,,00:36:26,10.8,-2.0,42.8,0.0,189.0,0.1,-0.03,1.0,,-5.0,24.0,0.0,30.15,1312.0,,,0.0,,,,,0.0,0.0,,,,,,,,,,,,,,,,,,,0.0,21.0,0.0,0.0,30.1,0.0,,0.0,0.6,,,35.9,0.0,0.0,-0.5,5.0,3.6,,,,,22.0,22.0,+22,22.0,22.0,22.0,22.0,22.0,,,19.0,254.3,,0.6,-9.0,4.998,,,0.653,0.848,0.0,21.0,,,,,,0.0,2026-03-13 17:36:07-07:00
29.06,1.0,10.0,2026-03-14 00:36:27,37.08166,-121.59961,337.0,0.0,200.0,-12.6,,,,,00:36:27,10.8,-2.0,42.8,0.0,189.0,0.1,-0.03,1.0,,-10.0,24.0,0.0,30.15,1312.0,,,0.0,,,,,0.0,0.0,,,,,,,,,,,,,,,,,,,0.0,21.0,0.0,0.0,30.1,0.0,,0.0,0.6,,,35.9,0.0,0.0,-0.5,5.0,3.6,,,,,22.0,22.0,+22,22.0,22.0,22.0,22.0,22.0,,,19.0,254.3,,0.6,-9.0,4.998,,,0.653,0.848,0.0,21.0,,,,,,0.0,2026-03-13 17:36:07-07:00
30.06,1.0,10.0,2026-03-14 00:36:29,37.08166,-121.59961,337.0,0.0,200.0,-12.6,,,,,00:36:28,10.8,-2.0,42.8,0.0,189.0,0.1,-0.03,1.0,,-18.0,24.0,0.0,30.15,1312.0,,,0.0,,,,,0.0,0.0,,,,,,,,,,,,,,,,,,,0.0,21.0,0.0,0.0,30.1,0.0,,0.0,0.6,,,35.9,0.0,0.0,-0.5,5.0,3.6,,,,,22.0,22.0,+22,22.0,22.0,22.0,22.0,22.0,,,19.0,254.3,,0.6,-9.0,4.998,,,0.653,0.848,0.0,21.0,,,,,,0.0,2026-03-13 17:36:07-07:00
31.06,1.0,10.0,2026-03-14 00:36:29,37.08166,-121.59961,336.0,0.0,200.0,-12.6,,,,,00:36:29,10.8,-2.0,42.9,0.0,188.0,0.1,-0.03,1.0,,-3.0,24.0,0.0,30.15,1311.0,,,0.0,,,,,0.0,0.0,,,,,,,,,,,,,,,,,,,0.0,21.0,0.0,0.0,30.1,0.0,,0.0,0.6,,,35.9,0.0,0.0,-0.5,5.0,3.6,,,,,22.0,22.0,+22,22.0,22.0,22.0,22.0,22.0,,,19.0,254.3,,0.6,-9.0,4.998,,,0.653,0.848,0.0,21.0,,,,,,0.0,2026-03-13 17:36:07-07:00
32.06,1.0,10.0,2026-03-14 00:36:30,37.08166,-121.59961,336.0,0.0,200.0,-12.6,,,,,00:36:30,10.8,-2.0,42.8,0.0,188.0,0.1,-0.03,1.0,,16.0,24.0,0.0,30.15,1311.0,,,0.0,,,,,0.0,0.0,,,,,,,,,,,,,,,,,,,0.0,21.0,0.0,0.0,30.1,0.0,,0.0,0.6,,,35.9,0.0,0.0,-0.5,5.0,3.6,,,,,22.0,22.0,+22,22.0,22.0,22.0,22.0,22.0,,,19.0,254.3,,0.6,-9.0,4.998,,,0.653,0.848,0.0,21.0,,,,,,0.0,2026-03-13 17:36:07-07:00
33.06,1.0,10.0,2026-03-14 00:36:31,37.08166,-121.59961,336.0,0.0,200.0,-12.6,,,,,00:36:31,10.8,-2.0,42.8,0.0,188.0,0.1,-0.03,1.0,,0.0,24.0,0.0,30.15,1311.0,,,0.0,,,,,0.0,0.0,,,,,,,,,,,,,,,,,,,0.0,21.0,0.0,0.0,30.1,0.0,,0.0,0.6,,,35.9,0.0,0.0,-0.5,5.0,3.6,,,,,22.0,22.0,+22,22.0,22.0,22.0,22.0,22.0,,,19.0,254.3,,0.6,-9.0,4.998,,,0.654,0.848,0.0,21.0,,,,,,0.0,2026-03-13 17:36:07-07:00
34.06,1.0,10.0,2026-03-14 00:36:32,37.08166,-121.59961,335.0,0.0,200.0,-12.6,,,,,00:36:32,10.7,-2.0,42.8,0.0,187.0,0.1,-0.03,1.0,,-33.0,24.0,0.0,30.15,1310.0,,,0.0,,,,,0.0,0.0,,,,,,,,,,,,,,,,,,,0.0,21.0,0.0,0.0,30.1,0.0,,0.0,0.6,,,35.9,0.0,0.0,-0.5,5.0,3.6,,,,,22.0,22.0,+22,22.0,22.0,22.0,22.0,22.0,,,19.0,254.3,,0.6,-9.0,4.998,,,0.653,0.848,0.0,21.0,,,,,,0.0,2026-03-13 17:36:07-07:00
35.06,1.0,10.0,2026-03-14 00:36:33,37.08166,-121.59961,335.0,0.0,200.0,-12.6,,,,,00:36:33,10.8,-2.0,42.8,0.0,185.0,0.1,-0.03,1.0,,-62.0,24.0,0.0,30.15,1310.0,,,0.0,,,,,0.0,0.0,,,,,,,,,,,,,,,,,,,0.0,21.0,0.0,0.0,30.1,0.0,,0.0,0.6,,,35.9,0.0,0.0,-0.5,5.0,3.6,,,,,22.0,22.0,+22,22.0,22.0,22.0,22.0,22.0,,,19.0,254.3,,0.6,-9.0,4.998,,,0.653,0.848,0.0,21.0,,,,,,0.0,2026-03-13 17:36:07-07:00
36.06,1.0,10.0,2026-03-14 00:36:34,37.08166,-121.59961,334.0,0.0,200.0,-12.6,,,,,00:36:34,10.7,-2.0,42.8,0.0,185.0,0.1,-0.03,1.0,,-54.0,24.0,0.0,30.15,1310.0,,,0.0,,,,,0.0,0.0,,,,,,,,,,,,,,,,,,,0.0,21.0,0.0,0.0,30.1,0.0,,0.0,0.6,,,35.9,0.0,0.0,-0.5,5.0,3.6,,,,,22.0,22.0,+22,22.0,22.0,22.0,22.0,22.0,,,19.0,254.3,,0.6,-9.0,4.998,,,0.653,0.848,0.0,21.0,,,,,,0.0,2026-03-13 17:36:07-07:00
37.06,1.0,10.0,2026-03-14 00:36:35,37.08166,-121.59961,335.0,0.0,200.0,-12.6,,,,,00:36:35,10.8,-2.0,42.8,0.0,184.0,0.1,-0.03,1.0,,-43.0,24.0,0.0,30.15,1306.0,,,0.0,,,,,0.0,0.0,,,,,,,,,,,,,,,,,,,0.0,21.0,0.0,0.0,30.1,0.0,,0.0,0.6,,,35.9,0.0,0.0,-0.5,5.0,3.6,,,,,22.0,22.0,+22,22.0,22.0,22.0,22.0,22.0,,,19.0,254.3,,0.6,-9.0,4.998,,,0.653,0.848,0.0,21.0,,,,,,0.0,2026-03-13 17:36:07-07:00
38.06,1.0,10.0,2026-03-14 00:36:36,37.08166,-121.59961,335.0,0.0,200.0,-12.6,,,,,00:36:36,10.7,-2.0,42.8,0.0,183.0,0.1,-0.03,1.0,,-62.0,24.0,0.0,30.15,1306.0,,,0.0,,,,,0.0,0.0,,,,,,,,,,,,,,,,,,,0.0,21.0,0.0,0.0,30.1,0.0,,0.0,0.6,,,35.9,0.0,0.0,-0.5,5.0,3.6,,,,,22.0,22.0,+22,22.0,22.0,22.0,22.0,22.0,,,19.0,254.3,,0.6,-9.0,4.998,,,0.653,0.848,0.0,21.0,,,,,,0.0,2026-03-13 17:36:07-07:00
39.06,1.0,10.0,2026-03-14 00:36:37,37.08166,-121.59961,334.0,0.0,200.0,-12.6,,,,,00:36:37,10.8,-2.0,42.9,0.0,182.0,0.1,-0.03,1.0,,-42.0,24.0,0.0,30.15,1306.0,,,0.0,,,,,0.0,0.0,,,,,,,,,,,,,,,,,,,0.0,21.0,0.0,0.0,30.1,0.0,,0.0,0.6,,,35.9,0.0,0.0,-0.5,5.0,3.6,,,,,22.0,22.0,+22,22.0,22.0,22.0,22.0,22.0,,,19.0,254.3,,0.6,-9.0,4.998,,,0.654,0.848,0.0,21.0,,,,,,0.0,2026-03-13 17:36:07-07:00
40.06,1.0,10.0,2026-03-14 00:36:38,37.08166,-121.59961,334.0,0.0,200.0,-12.6,,,,,00:36:38,10.8,-2.0,42.9,0.0,180.0,0.1,-0.03,1.0,,-55.0,24.0,0.0,30.15,1302.0,,,0.0,,,,,0.0,0.0,,,,,,,,,,,,,,,,,,,0.0,21.0,0.0,0.0,30.1,0.0,,0.0,0.6,,,35.9,0.0,0.0,-0.5,5.0,3.6,,,,,22.0,22.0,+22,22.0,22.0,22.0,22.0,22.0,,,19.0,254.3,,0.6,-9.0,4.998,,,0.654,0.85,0.0,21.0,,,,,,0.0,2026-03-13 17:36:07-07:00
41.06,1.0,10.0,2026-03-14 00:36:39,37.08166,-121.59961,334.0,0.0,200.0,-12.6,,,,,00:36:39,10.7,-2.0,42.9,0.0,179.0,0.1,-0.03,1.0,,-69.0,24.0,0.0,30.15,1302.0,,,0.0,,,,,0.0,0.0,,,,,,,,,,,,,,,,,,,0.0,21.0,0.0,0.0,30.1,0.0,,0.0,0.6,,,35.9,0.0,0.0,-0.5,5.0,3.6,,,,,22.0,23.0,+22,23.0,22.0,23.0,22.0,23.0,,,19.0,254.3,,0.6,-9.0,4.998,,,0.653,0.848,0.0,21.0,,,,,,0.0,2026-03-13 17:36:07-07:00
42.06,1.0,10.0,2026-03-14 00:36:40,37.08166,-121.59961,334.0,0.0,200.0,-12.6,,,,,00:36:40,10.8,-2.0,42.9,0.0,177.0,0.1,-0.03,1.0,,-72.0,24.0,0.0,30.15,1302.0,,,0.0,,,,,0.0,0.0,,,,,,,,,,,,,,,,,,,0.0,21.0,0.0,0.0,30.1,0.0,,0.0,0.6,,,35.9,0.0,0.0,-0.5,5.0,3.6,,,,,22.0,23.0,+22,23.0,22.0,23.0,22.0,23.0,,,19.0,230.4,,0.6,-9.0,4.998,,,0.653,0.848,0.0,21.0,,,,,,0.0,2026-03-13 17:36:07-07:00
43.06,1.0,10.0,2026-03-14 00:36:41,37.08166,-121.59961,334.0,0.0,200.0,-12.6,,,,,00:36:41,10.8,-2.0,43.0,0.0,176.0,0.1,-0.03,1.0,,-89.0,24.0,0.0,30.15,1296.0,,,0.0,,,,,0.0,0.0,,,,,,,,,,,,,,,,,,,0.0,21.0,0.0,0.0,30.1,0.0,,0.0,0.6,,,35.9,0.0,0.0,-0.5,5.0,3.6,,,,,22.0,23.0,+22,23.0,22.0,23.0,22.0,23.0,,,19.0,179.3,,0.6,-9.0,4.998,,,0.653,0.848,0.0,21.0,,,,,,0.0,2026-03-13 17:36:07-07:00
44.06,1.0,10.0,2026-03-14 00:36:42,37.08165,-121.59961,334.0,0.0,200.0,-12.6,,,,,00:36:42,10.7,-2.0,42.9,0.0,173.0,0.1,-0.03,1.0,,-108.0,24.0,0.0,30.15,1296.0,,,0.0,,,,,0.0,0.0,,,,,,,,,,,,,,,,,,,0.0,21.0,0.0,0.0,30.1,0.0,,0.0,0.6,,,35.9,0.0,0.0,-0.5,5.0,3.6,,,,,22.0,23.0,+22,23.0,22.0,22.0,22.0,23.0,,,19.0,139.6,,0.6,-9.0,4.998,,,0.653,0.848,0.0,21.0,,,,,,0.0,2026-03-13 17:36:07-07:00
45.06,1.0,10.0,2026-03-14 00:36:43,37.08165,-121.59961,334.0,0.0,200.0,-12.6,,,,,00:36:43,10.8,-2.0,42.9,0.0,171.0,0.1,-0.03,1.0,,-88.0,24.0,0.0,30.15,1296.0,,,0.0,,,,,0.0,0.0,,,,,,,,,,,,,,,,,,,0.0,21.0,0.0,0.0,30.1,0.0,,0.0,0.6,,,35.9,0.0,0.0,-0.5,5.0,3.6,,,,,22.0,23.0,+22,23.0,22.0,22.0,22.0,23.0,,,19.0,108.7,,0.6,-9.0,4.998,,,0.654,0.848,0.0,21.0,,,,,,0.0,2026-03-13 17:36:07-07:00
46.06,1.0,10.0,2026-03-14 00:36:44,37.08165,-121.59961,335.0,0.0,200.0,-12.6,,,,,00:36:44,10.8,-2.0,42.9,0.0,169.0,0.1,-0.03,1.0,,-108.0,24.0,0.0,30.15,1288.0,,,0.0,,,,,0.0,0.0,,,,,,,,,,,,,,,,,,,0.0,21.0,0.0,0.0,30.1,0.0,,0.0,0.6,,,35.9,0.0,0.0,-0.5,5.0,3.6,,,,,22.0,23.0,+22,23.0,22.0,22.0,22.0,23.0,,,19.0,84.7,,0.6,-9.0,4.998,,,0.654,0.85,0.0,21.0,,,,,,0.0,2026-03-13 17:36:07-07:00
47.06,1.0,10.0,2026-03-14 00:36:45,37.08165,-121.59961,335.0,0.0,200.0,-12.6,,,,,00:36:45,10.8,-2.0,42.9,0.0,168.0,0.1,-0.03,1.0,,-99.0,24.0,0.0,30.15,1288.0,,,0.0,,,,,0.0,0.0,,,,,,,,,,,,,,,,,,,0.0,21.0,0.0,0.0,30.1,0.0,,0.0,0.6,,,35.9,0.0,0.0,-0.5,5.0,3.6,,,,,22.0,23.0,+22,23.0,22.0,22.0,22.0,23.0,,,19.0,66.1,,0.6,-9.0,4.998,,,0.653,0.848,0.0,21.0,,,,,,0.0,2026-03-13 17:36:07-07:00
48.06,1.0,10.0,2026-03-14 00:36:46,37.08165,-121.59961,335.0,0.0,200.0,-12.6,,,,,00:36:46,10.8,-2.0,42.9,0.0,167.0,0.1,-0.03,1.0,,-68.0,24.0,0.0,30.15,1288.0,,,0.0,,,,,0.0,0.0,,,,,,,,,,,,,,,,,,,0.0,21.0,0.0,0.0,30.1,0.0,,0.0,0.6,,,35.9,0.0,0.0,-0.5,5.0,3.6,,,,,22.0,23.0,+22,23.0,22.0,22.0,22.0,23.0,,,19.0,51.6,,0.6,-9.0,4.998,,,0.654,0.848,0.0,21.0,,,,,,0.0,2026-03-13 17:36:07-07:00
49.06,1.0,10.0,2026-03-14 00:36:47,37.08165,-121.59961,335.0,0.0,200.0,-12.6,,,,,00:36:47,10.8,-2.0,42.9,0.0,167.0,0.1,-0.03,1.0,,-49.0,24.0,0.0,30.15,1285.0,,,0.0,,,,,0.0,0.0,,,,,,,,,,,,,,,,,,,0.0,21.0,0.0,0.0,30.1,0.0,,0.0,0.6,,,35.9,0.0,0.0,-0.5,5.0,3.6,,,,,22.0,23.0,+22,23.0,22.0,22.0,22.0,23.0,,,19.0,40.3,,0.6,-9.0,4.998,,,0.654,0.85,0.0,21.0,,,,,,0.0,2026-03-13 17:36:07-07:00
50.06,1.0,10.0,2026-03-14 00:36:48,37.08165,-121.59961,335.0,0.0,200.0,-12.6,,,,,00:36:48,10.8,-2.0,42.9,0.0,167.0,0.1,-0.03,1.0,,-45.0,24.0,0.0,30.15,1285.0,,,0.0,,,,,0.0,0.0,,,,,,,,,,,,,,,,,,,0.0,21.0,0.0,0.0,30.1,0.0,,0.0,0.6,,,35.9,0.0,0.0,-0.5,5.0,3.6,,,,,22.0,23.0,+22,23.0,22.0,22.0,22.0,23.0,,,19.0,31.5,,0.6,-9.0,4.998,,,0.653,0.85,0.0,21.0,,,,,,0.0,2026-03-13 17:36:07-07:00
51.06,1.0,10.0,2026-03-14 00:36:49,37.08165,-121.59961,336.0,0.0,200.0,-12.6,,,,,00:36:49,10.7,-2.0,42.9,0.0,167.0,0.1,-0.03,1.0,,-10.0,24.0,0.0,30.15,1285.0,,,0.0,,,,,0.0,0.0,,,,,,,,,,,,,,,,,,,0.0,21.0,0.0,0.0,30.1,0.0,,0.0,0.6,,,35.9,0.0,0.0,-0.5,5.0,3.6,,,,,22.0,23.0,+22,23.0,22.0,22.0,22.0,23.0,,,19.0,24.7,,0.6,-9.0,4.998,,,0.653,0.848,0.0,21.0,,,,,,0.0,2026-03-13 17:36:07-07:00
52.06,1.0,10.0,2026-03-14 00:36:50,37.08165,-121.5996,336.0,0.0,200.0,-12.6,,,,,00:36:50,10.7,-2.0,42.9,0.0,167.0,0.1,-0.03,1.0,,29.0,24.0,0.0,30.15,1285.0,,,0.0,,,,,0.0,0.0,,,,,,,,,,,,,,,,,,,0.0,21.0,0.0,0.0,30.1,0.0,,0.0,0.6,,,35.9,0.0,0.0,-0.5,5.0,3.6,,,,,22.0,23.0,+22,23.0,22.0,22.0,22.0,23.0,,,19.0,19.4,,0.6,-9.0,4.998,,,0.654,0.85,0.0,21.0,,,,,,0.0,2026-03-13 17:36:07-07:00
53.06,1.0,10.0,2026-03-14 00:36:51,37.08165,-121.5996,336.0,0.0,200.0,-12.6,,,,,00:36:51,10.7,-2.0,42.9,0.0,167.0,0.1,-0.03,1.0,,19.0,24.0,0.0,30.15,1285.0,,,0.0,,,,,0.0,0.0,,,,,,,,,,,,,,,,,,,0.0,21.0,0.0,0.0,30.1,0.0,,0.0,0.6,,,35.9,0.0,0.0,-0.5,5.0,3.6,,,,,22.0,23.0,+22,23.0,22.0,22.0,22.0,23.0,,,19.0,15.3,,0.6,-9.0,4.998,,,0.654,0.848,0.0,21.0,,,,,,0.0,2026-03-13 17:36:07-07:00
54.06,1.0,10.0,2026-03-14 00:36:52,37.08165,-121.5996,336.0,0.0,200.0,-12.6,,,,,00:36:52,10.7,-2.0,42.9,0.0,167.0,0.1,-0.03,1.0,,46.0,24.0,0.0,30.15,1285.0,,,0.0,,,,,0.0,0.0,,,,,,,,,,,,,,,,,,,0.0,21.0,0.0,0.0,30.1,0.0,,0.0,0.6,,,35.9,0.0,0.0,-0.5,5.0,3.6,,,,,22.0,23.0,+22,23.0,22.0,22.0,22.0,23.0,,,19.0,12.1,,0.6,-9.0,4.998,,,0.654,0.848,0.0,21.0,,,,,,0.0,2026-03-13 17:36:07-07:00
55.06,1.0,10.0,2026-03-14 00:36:53,37.08165,-121.5996,336.0,0.0,200.0,-12.6,,,,,00:36:53,10.7,-2.0,42.8,0.0,167.0,0.0,-0.03,1.0,,35.0,24.0,0.0,30.15,1285.0,,,0.0,,,,,0.0,0.0,,,,,,,,,,,,,,,,,,,0.0,21.0,0.0,0.0,30.1,0.0,,0.0,0.6,,,35.9,0.0,0.0,-0.5,5.0,3.6,,,,,22.0,23.0,+22,23.0,22.0,22.0,22.0,23.0,,,19.0,9.6,,0.6,-9.0,4.998,,,0.653,0.85,0.0,21.0,,,,,,0.0,2026-03-13 17:36:07-07:00
56.06,1.0,10.0,2026-03-14 00:36:54,37.08165,-121.5996,336.0,0.0,200.0,-12.6,,,,,00:36:54,10.7,-2.0,42.8,0.0,167.0,0.0,-0.03,1.0,,5.0,24.0,0.0,30.15,1285.0,,,0.0,,,,,0.0,0.0,,,,,,,,,,,,,,,,,,,0.0,21.0,0.0,0.0,30.1,0.0,,0.0,0.6,,,35.9,0.0,0.0,-0.5,5.0,3.6,,,,,22.0,23.0,+22,23.0,22.0,22.0,22.0,23.0,,,19.0,7.7,,0.6,-9.0,4.998,,,0.653,0.85,0.0,21.0,,,,,,0.0,2026-03-13 17:36:07-07:00
57.06,1.0,10.0,2026-03-14 00:36:55,37.08165,-121.5996,336.0,0.0,200.0,-12.6,,,,,00:36:55,10.7,-2.0,42.9,0.0,167.0,0.1,-0.03,1.0,,-28.0,24.0,0.0,30.15,1285.0,,,0.0,,,,,0.0,0.0,,,,,,,,,,,,,,,,,,,0.0,21.0,0.0,0.0,30.1,0.0,,0.0,0.6,,,35.9,0.0,0.0,-0.5,5.0,3.6,,,,,22.0,23.0,+22,23.0,22.0,22.0,22.0,23.0,,,19.0,6.2,,0.6,-9.0,4.998,,,0.653,0.848,0.0,21.0,,,,,,0.0,2026-03-13 17:36:07-07:00
58.06,1.0,10.0,2026-03-14 00:36:56,37.08165,-121.5996,336.0,0.0,200.0,-12.6,,,,,00:36:56,10.7,-2.0,42.9,0.0,167.0,0.1,-0.04,1.0,,-34.0,24.0,0.0,30.15,1286.0,,,0.0,,,,,0.0,0.0,,,,,,,,,,,,,,,,,,,0.0,21.0,0.0,0.0,30.1,0.0,,0.0,0.6,,,35.9,0.0,0.0,-0.5,5.0,3.6,,,,,22.0,23.0,+22,23.0,22.0,22.0,22.0,23.0,,,19.0,5.0,,0.6,-9.0,4.998,,,0.653,0.85,0.0,21.0,,,,,,0.0,2026-03-13 17:36:07-07:00
59.06,1.0,10.0,2026-03-14 00:36:57,37.08165,-121.5996,336.0,0.0,200.0,-12.6,,,,,00:36:57,10.7,-2.0,42.9,0.0,167.0,0.1,-0.03,1.0,,8.0,24.0,0.0,30.15,1286.0,,,0.0,,,,,0.0,0.0,,,,,,,,,,,,,,,,,,,0.0,21.0,0.0,0.0,30.1,0.0,,0.0,0.6,,,35.9,0.0,0.0,-0.5,5.0,3.6,,,,,22.0,23.0,+22,23.0,22.0,23.0,22.0,23.0,,,19.0,4.1,,0.6,-9.0,4.998,,,0.653,0.848,0.0,21.0,,,,,,0.0,2026-03-13 17:36:07-07:00
60.06,1.0,10.0,2026-03-14 00:36:58,37.08164,-121.5996,336.0,0.0,200.0,-12.6,,,,,00:36:58,10.7,-2.0,42.9,0.0,167.0,0.1,-0.03,1.0,,-1.0,24.0,0.0,30.15,1286.0,,,0.0,,,,,0.0,0.0,,,,,,,,,,,,,,,,,,,0.0,21.0,0.0,0.0,30.1,0.0,,0.0,0.6,,,35.9,0.0,0.0,-0.5,5.0,3.6,,,,,22.0,23.0,+22,23.0,22.0,22.0,22.0,23.0,,,19.0,3.4,,0.6,-9.0,4.998,,,0.654,0.85,0.0,21.0,,,,,,0.0,2026-03-13 17:36:07-07:00
61.06,1.0,10.0,2026-03-14 00:36:59,37.08164,-121.5996,336.0,0.0,200.0,-12.6,,,,,00:36:59,10.7,-2.0,42.9,0.0,167.0,0.1,-0.03,1.0,,29.0,24.0,0.0,30.15,1286.0,,,0.0,,,,,0.0,0.0,,,,,,,,,,,,,,,,,,,0.0,21.0,0.0,0.0,30.1,0.0,,0.0,0.6,,,35.9,0.0,0.0,-0.5,5.0,3.6,,,,,22.0,23.0,+22,23.0,22.0,22.0,22.0,23.0,,,19.0,2.9,,0.6,-9.0,4.998,,,0.654,0.85,0.0,21.0,,,,,,0.0,2026-03-13 17:36:07-07:00
62.06,1.0,10.0,2026-03-14 00:37:00,37.08164,-121.5996,336.0,0.0,200.0,-12.6,,,,,00:37:00,10.7,-2.0,42.9,0.0,167.0,0.1,-0.03,1.0,,27.0,24.0,0.0,30.15,1286.0,,,0.0,,,,,0.0,0.0,,,,,,,,,,,,,,,,,,,0.0,21.0,0.0,0.0,30.1,0.0,,0.0,0.6,,,35.9,0.0,0.0,-0.5,5.0,3.6,,,,,22.0,23.0,+22,23.0,22.0,22.0,22.0,23.0,,,19.0,2.4,,0.6,-9.0,4.998,,,0.653,0.848,0.0,21.0,,,,,,0.0,2026-03-13 17:36:07-07:00
63.06,1.0,10.0,2026-03-14 00:37:01,37.08164,-121.5996,336.0,0.0,200.0,-12.6,,,,,00:37:01,10.7,-2.0,42.9,0.0,167.0,0.1,-0.03,1.0,,54.0,24.0,0.0,30.15,1286.0,,,0.0,,,,,0.0,0.0,,,,,,,,,,,,,,,,,,,0.0,21.0,0.0,0.0,30.1,0.0,,0.0,0.6,,,35.9,0.0,0.0,-0.5,5.0,3.6,,,,,22.0,23.0,+22,23.0,22.0,22.0,22.0,23.0,,,19.0,2.1,,0.6,-9.0,4.998,,,0.653,0.848,0.0,21.0,,,,,,0.0,2026-03-13 17:36:07-07:00
64.06,1.0,10.0,2026-03-14 00:37:02,37.08164,-121.5996,336.0,0.0,200.0,-12.6,,,,,00:37:02,10.7,-2.0,42.9,0.0,167.0,0.1,-0.04,1.0,,63.0,24.0,0.0,30.15,1294.0,,,0.0,,,,,0.0,0.0,,,,,,,,,,,,,,,,,,,0.0,21.0,0.0,0.0,30.1,0.0,,0.0,0.6,,,35.9,0.0,0.0,-0.5,5.0,3.6,,,,,22.0,23.0,+22,23.0,22.0,22.0,22.0,23.0,,,19.0,1.9,,0.6,-9.0,4.998,,,0.653,0.85,0.0,21.0,,,,,,0.0,2026-03-13 17:36:07-07:00
65.06,1.0,10.0,2026-03-14 00:37:03,37.08164,-121.5996,336.0,0.0,200.0,-12.6,,,,,00:37:03,10.7,-2.0,42.9,0.0,167.0,0.1,-0.03,1.0,,44.0,24.0,0.0,30.15,1294.0,,,0.0,,,,,0.0,0.0,,,,,,,,,,,,,,,,,,,0.0,21.0,0.0,0.0,30.1,0.0,,0.0,0.6,,,35.9,0.0,0.0,-0.5,5.0,3.6,,,,,22.0,23.0,+22,23.0,22.0,22.0,22.0,23.0,,,19.0,1.7,,0.6,-9.0,4.998,,,0.653,0.848,0.0,21.0,,,,,,0.0,2026-03-13 17:36:07-07:00
66.06,1.0,10.0,2026-03-14 00:37:04,37.08164,-121.5996,336.0,0.0,200.0,-12.6,,,,,00:37:04,10.7,-2.0,42.9,0.0,167.0,0.1,-0.03,1.0,,38.0,24.0,0.0,30.15,1294.0,,,0.0,,,,,0.0,0.0,,,,,,,,,,,,,,,,,,,0.0,21.0,0.0,0.0,30.1,0.0,,0.0,0.6,,,35.9,0.0,0.0,-0.5,5.0,3.6,,,,,22.0,23.0,+22,23.0,22.0,22.0,22.0,23.0,,,19.0,1.5,,0.6,-9.0,4.998,,,0.653,0.848,0.0,21.0,,,,,,0.0,2026-03-13 17:36:07-07:00
67.06,1.0,10.0,2026-03-14 00:37:05,37.08164,-121.59959,336.0,0.0,200.0,-12.6,,,,,00:37:05,10.7,-2.0,43.0,0.0,167.0,0.1,-0.03,1.0,,59.0,24.0,0.0,30.15,1294.0,,,0.0,,,,,0.0,0.0,,,,,,,,,,,,,,,,,,,0.0,21.0,0.0,0.0,30.1,0.0,,0.0,0.6,,,35.9,0.0,0.0,-0.5,5.0,3.6,,,,,22.0,23.0,+22,23.0,22.0,22.0,22.0,23.0,,,19.0,1.4,,0.6,-9.0,4.998,,,0.653,0.848,0.0,21.0,,,,,,0.0,2026-03-13 17:36:07-07:00
68.06,1.0,10.0,2026-03-14 00:37:06,37.08162,-121.59958,340.0,0.0,200.0,-12.6,,,,,00:37:06,10.7,-1.9,43.0,0.0,167.0,0.1,-0.03,1.0,,64.0,24.0,0.0,30.15,1294.0,,,0.0,,,,,0.0,0.0,,,,,,,,,,,,,,,,,,,0.0,21.0,0.0,0.0,30.1,0.0,,0.0,0.6,,,35.9,0.0,0.0,-0.5,5.0,3.6,,,,,22.0,23.0,+22,23.0,22.0,22.0,22.0,23.0,,,19.0,1.3,,0.6,-9.0,4.998,,,0.653,0.848,0.0,21.0,,,,,,0.0,2026-03-13 17:36:07-07:00
69.06,1.0,10.0,2026-03-14 00:37:07,37.08162,-121.59959,337.0,0.0,200.0,-12.6,,,,,00:37:07,10.7,-1.9,43.0,0.0,167.0,0.1,-0.03,1.0,,42.0,24.0,0.0,30.15,1294.0,,,0.0,,,,,0.0,0.0,,,,,,,,,,,,,,,,,,,0.0,21.0,0.0,0.0,30.1,0.0,,0.0,0.6,,,35.9,0.0,0.0,-0.5,5.0,3.6,,,,,22.0,23.0,+22,23.0,22.0,22.0,22.0,23.0,,,19.0,1.2,,0.6,-9.0,4.998,,,0.653,0.848,0.0,21.0,,,,,,0.0,2026-03-13 17:36:07-07:00
70.06,1.0,10.0,2026-03-14 00:37:08,37.08162,-121.59958,337.0,0.0,200.0,-12.6,,,,,00:37:08,10.7,-2.0,43.0,0.0,167.0,0.1,-0.03,1.0,,36.0,24.0,0.0,30.15,1295.0,,,0.0,,,,,0.0,0.0,,,,,,,,,,,,,,,,,,,0.0,21.0,0.0,0.0,30.1,0.0,,0.0,0.6,,,35.9,0.0,0.0,-0.5,5.0,3.6,,,,,22.0,23.0,+22,23.0,22.0,22.0,22.0,23.0,,,19.0,1.2,,0.6,-9.0,4.998,,,0.653,0.85,0.0,21.0,,,,,,0.0,2026-03-13 17:36:07-07:00
71.06,1.0,10.0,2026-03-14 00:37:09,37.08162,-121.59958,337.0,0.0,200.0,-12.6,,,,,00:37:09,10.7,-2.0,43.0,0.0,167.0,0.1,-0.03,1.0,,14.0,24.0,0.0,30.15,1294.0,,,0.0,,,,,0.0,0.0,,,,,,,,,,,,,,,,,,,0.0,21.0,0.0,0.0,30.1,0.0,,0.0,0.6,,,35.9,0.0,0.0,-0.5,5.0,3.6,,,,,22.0,23.0,+22,23.0,22.0,22.0,22.0,23.0,,,19.0,1.1,,0.6,-9.0,4.998,,,0.653,0.85,0.0,21.0,,,,,,0.0,2026-03-13 17:36:07-07:00
72.06,1.0,10.0,2026-03-14 00:37:10,37.08162,-121.59958,337.0,0.0,200.0,-12.6,,,,,00:37:10,10.7,-2.0,43.0,0.0,167.0,0.1,-0.03,1.0,,15.0,24.0,0.0,30.15,1294.0,,,0.0,,,,,0.0,0.0,,,,,,,,,,,,,,,,,,,0.0,21.0,0.0,0.0,30.1,0.0,,0.0,0.6,,,35.9,0.0,0.0,-0.5,5.0,3.6,,,,,22.0,23.0,+22,23.0,22.0,22.0,22.0,23.0,,,19.0,1.1,,0.6,-9.0,4.998,,,0.653,0.85,0.0,21.0,,,,,,0.0,2026-03-13 17:36:07-07:00
73.06,1.0,10.0,2026-03-14 00:37:11,37.08162,-121.59958,337.0,0.0,200.0,-12.6,,,,,00:37:11,10.7,-2.0,43.0,0.0,167.0,0.1,-0.03,1.0,,9.0,24.0,0.0,30.15,1294.0,,,0.0,,,,,0.0,0.0,,,,,,,,,,,,,,,,,,,0.0,21.0,0.0,0.0,30.1,0.0,,0.0,0.6,,,35.9,0.0,0.0,-0.5,5.0,3.6,,,,,22.0,23.0,+22,23.0,22.0,22.0,22.0,23.0,,,19.0,1.1,,0.6,-9.0,4.998,,,0.653,0.848,0.0,21.0,,,,,,0.0,2026-03-13 17:36:07-07:00
74.06,1.0,10.0,2026-03-14 00:37:12,37.08162,-121.59958,337.0,0.0,200.0,-12.6,,,,,00:37:12,10.7,-2.0,43.0,0.0,167.0,0.1,-0.03,1.0,,-8.0,24.0,0.0,30.15,1295.0,,,0.0,,,,,0.0,0.0,,,,,,,,,,,,,,,,,,,0.0,21.0,0.0,0.0,30.1,0.0,,0.0,0.6,,,35.9,0.0,0.0,-0.4,5.0,3.6,,,,,22.0,23.0,+22,23.0,22.0,22.0,22.0,23.0,,,19.0,1.0,,0.6,-9.0,4.998,,,0.653,0.85,0.0,21.0,,,,,,0.0,2026-03-13 17:36:07-07:00
75.06,1.0,10.0,2026-03-14 00:37:13,37.08162,-121.59958,337.0,0.0,200.0,-12.6,,,,,00:37:13,10.7,-2.0,42.9,0.0,167.0,0.1,-0.03,1.0,,-2.0,24.0,0.0,30.15,1294.0,,,0.0,,,,,0.0,0.0,,,,,,,,,,,,,,,,,,,0.0,21.0,0.0,0.0,30.1,0.0,,0.0,0.6,,,35.9,0.0,0.0,-0.4,5.0,3.6,,,,,22.0,23.0,+22,23.0,22.0,22.0,22.0,23.0,,,19.0,1.0,,0.6,-9.0,4.998,,,0.654,0.85,0.0,21.0,,,,,,0.0,2026-03-13 17:36:07-07:00
76.06,1.0,10.0,2026-03-14 00:37:14,37.08162,-121.59958,336.0,0.0,200.0,-12.6,,,,,00:37:14,10.7,-2.0,42.9,0.0,167.0,0.1,-0.03,1.0,,2.0,24.0,0.0,30.15,1294.0,,,0.0,,,,,0.0,0.0,,,,,,,,,,,,,,,,,,,0.0,21.0,0.0,0.0,30.1,0.0,,0.0,0.6,,,35.9,0.0,0.0,-0.4,5.0,3.6,,,,,22.0,23.0,+22,23.0,22.0,22.0,22.0,23.0,,,19.0,1.0,,0.6,-9.0,4.998,,,0.653,0.848,0.0,21.0,,,,,,0.0,2026-03-13 17:36:07-07:00
77.06,1.0,10.0,2026-03-14 00:37:15,37.08162,-121.59958,336.0,0.0,200.0,-12.6,,,,,00:37:15,10.7,-2.0,43.0,0.0,167.0,0.1,-0.03,1.0,,-17.0,24.0,0.0,30.15,1294.0,,,0.0,,,,,0.0,0.0,,,,,,,,,,,,,,,,,,,0.0,21.0,0.0,0.0,30.1,0.0,,0.0,0.6,,,35.9,0.0,0.0,-0.4,5.0,3.6,,,,,22.0,23.0,+22,23.0,22.0,22.0,22.0,23.0,,,19.0,1.0,,0.6,-9.0,4.998,,,0.653,0.85,0.0,21.0,,,,,,0.0,2026-03-13 17:36:07-07:00
78.06,1.0,10.0,2026-03-14 00:37:16,37.08162,-121.59958,336.0,0.0,200.0,-12.6,,,,,00:37:16,10.7,-2.0,43.0,0.0,167.0,0.1,-0.03,1.0,,-28.0,24.0,0.0,30.15,1295.0,,,0.0,,,,,0.0,0.0,,,,,,,,,,,,,,,,,,,0.0,21.0,0.0,0.0,30.1,0.0,,0.0,0.6,,,35.9,0.0,0.0,-0.4,5.0,3.6,,,,,22.0,23.0,+22,23.0,22.0,22.0,22.0,23.0,,,19.0,1.0,,0.6,-9.0,4.998,,,0.653,0.848,0.0,21.0,,,,,,0.0,2026-03-13 17:36:07-07:00
79.06,1.0,10.0,2026-03-14 00:37:17,37.08162,-121.59958,335.0,0.0,200.0,-12.6,,,,,00:37:17,10.7,-2.0,42.9,0.0,167.0,0.1,-0.03,1.0,,-50.0,24.0,0.0,30.15,1295.0,,,0.0,,,,,0.0,0.0,,,,,,,,,,,,,,,,,,,0.0,21.0,0.0,0.0,30.1,0.0,,0.0,0.6,,,35.9,0.0,0.0,-0.4,5.0,3.6,,,,,22.0,23.0,+22,23.0,22.0,22.0,22.0,23.0,,,19.0,1.0,,0.6,-9.0,4.998,,,0.654,0.848,0.0,21.0,,,,,,0.0,2026-03-13 17:36:07-07:00
80.06,1.0,10.0,2026-03-14 00:37:18,37.08162,-121.59958,335.0,0.0,200.0,-12.6,,,,,00:37:18,10.7,-2.0,42.8,0.0,167.0,0.1,-0.03,1.0,,-32.0,24.0,0.0,30.15,1295.0,,,0.0,,,,,0.0,0.0,,,,,,,,,,,,,,,,,,,0.0,21.0,0.0,0.0,30.1,0.0,,0.0,0.6,,,35.9,0.0,0.0,-0.4,5.0,3.6,,,,,22.0,23.0,+22,23.0,22.0,22.0,22.0,23.0,,,19.0,1.0,,0.6,-9.0,4.998,,,0.653,0.85,0.0,21.0,,,,,,0.0,2026-03-13 17:36:07-07:00
81.06,1.0,10.0,2026-03-14 00:37:19,37.08162,-121.59958,335.0,0.1,200.0,-12.6,,,,,00:37:19,10.7,-2.0,42.8,0.0,167.0,0.1,-0.04,1.0,,-115.0,24.0,0.0,30.15,1295.0,,,0.0,,,,,0.0,0.0,,,,,,,,,,,,,,,,,,,0.0,21.0,0.0,0.0,30.1,0.0,,0.0,0.6,,,35.9,0.0,0.0,-0.4,5.0,3.6,,,,,22.0,23.0,+22,23.0,22.0,22.0,22.0,23.0,,,19.0,1.0,,0.6,-9.0,4.998,,,0.653,0.85,0.0,21.0,,,,,,0.0,2026-03-13 17:36:07-07:00
82.06,1.0,10.0,2026-03-14 00:37:20,37.08162,-121.59958,335.0,0.0,200.0,-12.6,,,,,00:37:20,10.8,-2.0,42.9,0.0,167.0,0.1,-0.03,1.0,,-89.0,24.0,0.0,30.15,1295.0,,,0.0,,,,,0.0,0.0,,,,,,,,,,,,,,,,,,,0.0,21.0,0.0,0.0,30.1,0.0,,0.0,0.6,,,35.9,0.0,0.0,-0.4,5.0,3.6,,,,,22.0,23.0,+22,23.0,22.0,22.0,22.0,23.0,,,19.0,1.0,,0.6,-9.0,4.998,,,0.654,0.85,0.0,21.0,,,,,,0.0,2026-03-13 17:36:07-07:00
83.06,1.0,10.0,2026-03-14 00:37:21,37.08162,-121.59958,334.0,0.0,200.0,-12.6,,,,,00:37:21,10.7,-2.0,42.9,0.0,167.0,0.1,-0.03,1.0,,-58.0,24.0,0.0,30.15,1295.0,,,0.0,,,,,0.0,0.0,,,,,,,,,,,,,,,,,,,0.0,21.0,0.0,0.0,30.1,0.0,,0.0,0.6,,,35.9,0.0,0.0,-0.4,5.0,3.6,,,,,22.0,23.0,+22,23.0,22.0,22.0,22.0,23.0,,,19.0,1.0,,0.6,-9.0,4.998,,,0.653,0.85,0.0,21.0,,,,,,0.0,2026-03-13 17:36:07-07:00
84.06,1.0,10.0,2026-03-14 00:37:22,37.08162,-121.59958,334.0,0.0,200.0,-12.6,,,,,00:37:22,10.7,-1.9,42.8,0.0,167.0,0.1,-0.03,1.0,,-48.0,24.0,0.0,30.15,1295.0,,,0.0,,,,,0.0,0.0,,,,,,,,,,,,,,,,,,,0.0,21.0,0.0,0.0,30.1,0.0,,0.0,0.6,,,35.9,0.0,0.0,-0.4,5.0,3.6,,,,,22.0,23.0,+22,23.0,22.0,22.0,22.0,23.0,,,19.0,1.0,,0.6,-9.0,4.998,,,0.653,0.85,0.0,21.0,,,,,,0.0,2026-03-13 17:36:07-07:00
85.06,1.0,10.0,2026-03-14 00:37:23,37.08162,-121.59958,334.0,0.0,200.0,-12.6,,,,,00:37:23,10.7,-1.9,42.8,0.0,167.0,0.1,-0.04,1.0,,-25.0,24.0,0.0,30.15,1295.0,,,0.0,,,,,0.0,0.0,,,,,,,,,,,,,,,,,,,0.0,21.0,0.0,0.0,30.1,0.0,,0.0,0.6,,,35.9,0.0,0.0,-0.4,5.0,3.6,,,,,22.0,23.0,+22,23.0,22.0,22.0,22.0,23.0,,,19.0,1.0,,0.6,-9.0,4.998,,,0.653,0.85,0.0,21.0,,,,,,0.0,2026-03-13 17:36:07-07:00
86.06,1.0,10.0,2026-03-14 00:37:24,37.08162,-121.59958,333.0,0.0,200.0,-12.6,,,,,00:37:24,10.7,-1.9,42.8,0.0,167.0,0.1,-0.03,1.0,,-40.0,24.0,0.0,30.15,1295.0,,,0.0,,,,,0.0,0.0,,,,,,,,,,,,,,,,,,,0.0,21.0,0.0,0.0,30.1,0.0,,0.0,0.6,,,35.9,0.0,0.0,-0.4,5.0,3.6,,,,,22.0,23.0,+22,23.0,22.0,22.0,22.0,23.0,,,19.0,1.0,,0.6,-9.0,4.998,,,0.653,0.85,0.0,21.0,,,,,,0.0,2026-03-13 17:36:07-07:00
87.06,1.0,10.0,2026-03-14 00:37:25,37.08162,-121.59959,333.0,0.1,200.0,-12.6,,,,,00:37:25,10.7,-2.0,42.7,0.0,167.0,0.1,-0.03,1.0,,-12.0,24.0,0.0,30.15,1295.0,,,0.0,,,,,0.0,0.0,,,,,,,,,,,,,,,,,,,0.0,21.0,0.0,0.0,30.1,0.0,,0.0,0.6,,,35.9,0.0,0.0,-0.4,5.0,3.6,,,,,22.0,23.0,+22,23.0,22.0,22.0,22.0,23.0,,,19.0,0.0,,0.6,-9.0,4.998,,,0.653,0.85,0.0,21.0,,,,,,0.0,2026-03-13 17:36:07-07:00
88.06,1.0,10.0,2026-03-14 00:37:26,37.08162,-121.59959,332.0,0.0,200.0,-12.6,,,,,00:37:26,10.7,-2.0,42.7,0.0,167.0,0.1,-0.03,1.0,,-17.0,24.0,0.0,30.15,1295.0,,,0.0,,,,,0.0,0.0,,,,,,,,,,,,,,,,,,,0.0,21.0,0.0,0.0,30.1,0.0,,0.0,0.6,,,35.9,0.0,0.0,-0.4,5.0,3.6,,,,,22.0,23.0,+22,23.0,22.0,22.0,22.0,23.0,,,19.0,0.0,,0.6,-9.0,4.998,,,0.653,0.85,0.0,21.0,,,,,,0.0,2026-03-13 17:36:07-07:00
89.06,1.0,10.0,2026-03-14 00:37:27,37.08162,-121.59959,332.0,0.1,200.0,-12.6,,,,,00:37:27,10.7,-2.0,42.7,0.0,167.0,0.0,-0.03,1.0,,-8.0,24.0,0.0,30.15,1295.0,,,0.0,,,,,0.0,0.0,,,,,,,,,,,,,,,,,,,0.0,21.0,0.0,0.0,30.1,0.0,,0.0,0.6,,,35.9,0.0,0.0,-0.4,5.0,3.6,,,,,22.0,23.0,+22,23.0,22.0,22.0,22.0,23.0,,,19.0,0.0,,0.6,-9.0,4.998,,,0.653,0.85,0.0,21.0,,,,,,0.0,2026-03-13 17:36:07-07:00
90.06,1.0,10.0,2026-03-14 00:37:28,37.08162,-121.59959,331.0,0.0,200.0,-12.6,,,,,00:37:28,10.7,-2.0,42.8,0.0,167.0,0.1,-0.04,1.0,,0.0,24.0,0.0,30.15,1295.0,,,0.0,,,,,0.0,0.0,,,,,,,,,,,,,,,,,,,0.0,21.0,0.0,0.0,30.1,0.0,,0.0,0.6,,,35.9,0.0,0.0,-0.4,5.0,3.6,,,,,22.0,23.0,+22,23.0,22.0,23.0,23.0,23.0,,,19.0,0.0,,0.6,-9.0,4.998,,,0.653,0.85,0.0,21.0,,,,,,0.0,2026-03-13 17:36:07-07:00
91.06,1.0,10.0,2026-03-14 00:37:29,37.08163,-121.59959,331.0,0.0,200.0,-12.6,,,,,00:37:29,10.7,-2.0,42.8,0.0,167.0,0.1,-0.03,1.0,,12.0,24.0,0.0,30.15,1295.0,,,0.0,,,,,0.0,0.0,,,,,,,,,,,,,,,,,,,0.0,21.0,0.0,0.0,30.1,0.0,,0.0,0.6,,,35.9,0.0,0.0,-0.4,5.0,3.6,,,,,22.0,23.0,+22,23.0,22.0,22.0,22.0,23.0,,,19.0,0.0,,0.6,-9.0,4.998,,,0.653,0.85,0.0,21.0,,,,,,0.0,2026-03-13 17:36:07-07:00
92.06,1.0,10.0,2026-03-14 00:37:30,37.08163,-121.59959,330.0,0.0,200.0,-12.6,,,,,00:37:30,10.7,-2.0,42.9,0.0,167.0,0.1,-0.03,1.0,,31.0,24.0,0.0,30.15,1295.0,,,0.0,,,,,0.0,0.0,,,,,,,,,,,,,,,,,,,0.0,21.0,0.0,0.0,30.1,0.0,,0.0,0.6,,,35.9,0.0,0.0,-0.4,5.0,3.6,,,,,22.0,23.0,+22,23.0,22.0,23.0,23.0,23.0,,,19.0,0.0,,0.6,-9.0,4.998,,,0.654,0.85,0.0,21.0,,,,,,0.0,2026-03-13 17:36:07-07:00
93.06,2.0,10.0,2026-03-14 00:37:31,37.08163,-121.59959,327.0,0.0,200.0,-12.6,,,,,00:37:31,10.7,-2.0,42.9,0.0,167.0,0.1,-0.04,1.0,,20.0,24.0,0.0,30.15,1295.0,,,0.0,,,,,0.0,0.0,,,,,,,,,,,,,,,,,,,0.0,21.0,0.0,0.0,30.1,0.0,,0.0,0.6,,,35.9,0.0,0.0,-0.4,5.0,3.6,,,,,22.0,23.0,+22,23.0,22.0,23.0,23.0,23.0,,,19.0,0.0,,0.6,-9.0,4.998,,,0.654,0.85,0.0,21.0,,,,,,0.0,2026-03-13 17:36:07-07:00
94.06,2.0,10.0,2026-03-14 00:37:32,37.08163,-121.59959,327.0,0.0,200.0,-12.6,,,,,00:37:32,10.8,-2.0,42.9,0.0,167.0,0.1,-0.03,1.0,,-3.0,24.0,0.0,30.15,1295.0,,,0.0,,,,,0.0,0.0,,,,,,,,,,,,,,,,,,,0.0,21.0,0.0,0.0,30.1,0.0,,0.0,0.6,,,35.9,0.0,0.0,-0.4,5.0,3.6,,,,,22.0,23.0,+22,23.0,22.0,23.0,23.0,23.0,,,19.0,0.0,,0.6,-9.0,4.998,,,0.653,0.85,0.0,21.0,,,,,,0.0,2026-03-13 17:36:07-07:00
95.06,2.0,10.0,2026-03-14 00:37:33,37.08162,-121.59959,323.0,0.0,200.0,-12.6,,,,,00:37:33,10.7,-2.0,42.8,0.0,167.0,0.1,-0.03,1.0,,48.0,24.0,0.0,30.15,1295.0,,,0.0,,,,,0.0,0.0,,,,,,,,,,,,,,,,,,,0.0,21.0,0.0,0.0,30.1,0.0,,0.0,0.6,,,35.9,0.0,0.0,-0.4,5.0,3.6,,,,,22.0,23.0,+22,23.0,22.0,23.0,23.0,23.0,,,19.0,0.0,,0.6,-9.0,4.998,,,0.653,0.85,0.0,21.0,,,,,,0.0,2026-03-13 17:36:07-07:00
96.06,2.0,10.0,2026-03-14 00:37:34,37.08162,-121.59959,322.0,0.0,200.0,-12.6,,,,,00:37:34,10.8,-2.0,42.8,0.0,167.0,0.1,-0.03,1.0,,27.0,24.0,0.0,30.15,1295.0,,,0.0,,,,,0.0,0.0,,,,,,,,,,,,,,,,,,,0.0,21.0,0.0,0.0,30.1,0.0,,0.0,0.6,,,35.9,0.0,0.0,-0.4,5.0,3.6,,,,,22.0,23.0,+22,23.0,22.0,23.0,23.0,23.0,,,19.0,0.0,,0.6,-9.0,4.998,,,0.654,0.85,0.0,21.0,,,,,,0.0,2026-03-13 17:36:07-07:00
97.06,2.0,10.0,2026-03-14 00:37:35,37.08162,-121.59959,321.0,0.0,200.0,-12.6,,,,,00:37:35,10.7,-2.0,42.8,0.0,167.0,0.1,-0.03,1.0,,15.0,24.0,0.0,30.15,1296.0,,,0.0,,,,,0.0,0.0,,,,,,,,,,,,,,,,,,,0.0,21.0,0.0,0.0,30.1,0.0,,0.0,0.6,,,35.9,0.0,0.0,-0.4,5.0,3.6,,,,,22.0,23.0,+22,23.0,22.0,23.0,23.0,23.0,,,19.0,0.0,,0.6,-9.0,4.998,,,0.654,0.85,0.0,21.0,,,,,,0.0,2026-03-13 17:36:07-07:00
98.06,2.0,10.0,2026-03-14 00:37:36,37.08167,-121.59962,301.0,0.0,200.0,-12.6,,,,,00:37:36,10.8,-2.0,42.7,0.0,167.0,0.1,-0.03,1.0,,50.0,24.0,0.0,30.15,1296.0,,,0.0,,,,,0.0,0.0,,,,,,,,,,,,,,,,,,,0.0,21.0,0.0,0.0,30.1,0.0,,0.0,0.6,,,35.9,0.0,0.0,-0.4,5.0,3.6,,,,,22.0,23.0,+22,23.0,22.0,23.0,23.0,23.0,,,19.0,0.0,,0.6,-9.0,4.998,,,0.653,0.85,0.0,21.0,,,,,,0.0,2026-03-13 17:36:07-07:00
99.06,2.0,10.0,2026-03-14 00:37:37,37.08166,-121.59962,298.0,0.0,200.0,-12.6,,,,,00:37:37,10.8,-2.0,42.7,0.0,167.0,0.1,-0.03,1.0,,33.0,24.0,0.0,30.15,1296.0,,,0.0,,,,,0.0,0.0,,,,,,,,,,,,,,,,,,,0.0,21.0,0.0,0.0,30.1,0.0,,0.0,0.6,,,35.9,0.0,0.0,-0.4,5.0,3.6,,,,,22.0,23.0,+22,23.0,22.0,23.0,23.0,23.0,,,19.0,0.0,,0.6,-9.0,4.998,,,0.654,0.85,0.0,21.0,,,,,,0.0,2026-03-13 17:36:07-07:00
100.06,2.0,10.0,2026-03-14 00:37:38,37.08165,-121.59962,302.0,0.0,200.0,-12.6,,,,,00:37:38,10.7,-2.0,42.7,0.0,167.0,0.1,-0.04,1.0,,2.0,24.0,0.0,30.15,1295.0,,,0.0,,,,,0.0,0.0,,,,,,,,,,,,,,,,,,,0.0,21.0,0.0,0.0,30.1,0.0,,0.0,0.6,,,35.9,0.0,0.0,-0.4,5.0,3.6,,,,,22.0,23.0,+22,23.0,22.0,23.0,23.0,23.0,,,19.0,0.0,,0.6,-9.0,4.998,,,0.653,0.85,0.0,21.0,,,,,,0.0,2026-03-13 17:36:07-07:00
101.06,2.0,10.0,2026-03-14 00:37:39,37.08165,-121.59962,303.0,0.0,200.0,-12.6,,,,,00:37:39,10.8,-1.9,42.8,0.0,167.0,0.1,-0.03,1.0,,-18.0,24.0,0.0,30.15,1296.0,,,0.0,,,,,0.0,0.0,,,,,,,,,,,,,,,,,,,0.0,21.0,0.0,0.0,30.1,0.0,,0.0,0.6,,,35.9,0.0,0.0,-0.4,5.0,3.6,,,,,22.0,23.0,+22,23.0,22.0,23.0,23.0,23.0,,,19.0,0.0,,0.6,-9.0,4.998,,,0.653,0.85,0.0,21.0,,,,,,0.0,2026-03-13 17:36:07-07:00
102.06,2.0,10.0,2026-03-14 00:37:40,37.08165,-121.59961,305.0,0.0,200.0,-12.6,,,,,00:37:40,10.8,-2.0,42.7,0.0,167.0,0.1,-0.03,1.0,,3.0,24.0,0.0,30.15,1296.0,,,0.0,,,,,0.0,0.0,,,,,,,,,,,,,,,,,,,0.0,21.0,0.0,0.0,30.1,0.0,,0.0,0.6,,,35.9,0.0,0.0,-0.4,5.0,3.6,,,,,22.0,23.0,+22,23.0,22.0,23.0,23.0,23.0,,,19.0,0.0,,0.6,-9.0,4.998,,,0.653,0.85,0.0,21.0,,,,,,0.0,2026-03-13 17:36:07-07:00
103.06,2.0,10.0,2026-03-14 00:37:41,37.08164,-121.59961,306.0,0.1,200.0,-12.6,,,,,00:37:41,10.7,-2.0,42.7,0.0,167.0,0.1,-0.03,1.0,,8.0,24.0,0.0,30.15,1296.0,,,0.0,,,,,0.0,0.0,,,,,,,,,,,,,,,,,,,0.0,21.0,0.0,0.0,30.1,0.0,,0.0,0.6,,,35.9,0.0,0.0,-0.4,5.0,3.6,,,,,22.0,23.0,+22,23.0,22.0,23.0,23.0,23.0,,,19.0,0.0,,0.6,-9.0,4.998,,,0.654,0.85,0.0,21.0,,,,,,0.0,2026-03-13 17:36:07-07:00
104.06,2.0,10.0,2026-03-14 00:37:42,37.08164,-121.59961,306.0,0.0,200.0,-12.6,,,,,00:37:42,10.8,-2.1,42.7,0.0,167.0,0.1,-0.03,1.0,,18.0,24.0,0.0,30.15,1295.0,,,0.0,,,,,0.0,0.0,,,,,,,,,,,,,,,,,,,0.0,21.0,0.0,0.0,30.1,0.0,,0.0,0.6,,,35.9,0.0,0.0,-0.4,5.0,3.6,,,,,22.0,23.0,+22,23.0,22.0,23.0,23.0,23.0,,,19.0,0.0,,0.6,-9.0,4.998,,,0.653,0.85,0.0,21.0,,,,,,0.0,2026-03-13 17:36:07-07:00
105.06,2.0,10.0,2026-03-14 00:37:43,37.08164,-121.59961,307.0,0.0,200.0,-12.6,,,,,00:37:43,10.7,-2.1,42.6,0.0,167.0,0.1,-0.03,1.0,,34.0,24.0,0.0,30.15,1296.0,,,0.0,,,,,0.0,0.0,,,,,,,,,,,,,,,,,,,0.0,21.0,0.0,0.0,30.1,0.0,,0.0,0.6,,,35.9,0.0,0.0,-0.4,5.0,3.6,,,,,22.0,23.0,+22,23.0,22.0,23.0,23.0,23.0,,,19.0,0.0,,0.6,-9.0,4.998,,,0.654,0.85,0.0,21.0,,,,,,0.0,2026-03-13 17:36:07-07:00
106.06,2.0,10.0,2026-03-14 00:37:44,37.08164,-121.5996,307.0,0.0,200.0,-12.6,,,,,00:37:44,10.8,-2.0,42.7,0.0,167.0,0.1,-0.03,1.0,,22.0,24.0,0.0,30.15,1296.0,,,0.0,,,,,0.0,0.0,,,,,,,,,,,,,,,,,,,0.0,21.0,0.0,0.0,30.1,0.0,,0.0,0.6,,,35.9,0.0,0.0,-0.4,5.0,3.6,,,,,22.0,23.0,+22,23.0,22.0,23.0,23.0,23.0,,,19.0,0.0,,0.6,-9.0,4.998,,,0.654,0.85,0.0,21.0,,,,,,0.0,2026-03-13 17:36:07-07:00
107.06,2.0,10.0,2026-03-14 00:37:45,37.08164,-121.5996,308.0,0.0,200.0,-12.6,,,,,00:37:45,10.8,-2.0,42.7,0.0,167.0,0.1,-0.04,1.0,,42.0,24.0,0.0,30.15,1296.0,,,0.0,,,,,0.0,0.0,,,,,,,,,,,,,,,,,,,0.0,21.0,0.0,0.0,30.1,0.0,,0.0,0.6,,,35.9,0.0,0.0,-0.4,5.0,3.6,,,,,22.0,23.0,+22,23.0,22.0,23.0,23.0,23.0,,,19.0,0.0,,0.6,-9.0,4.998,,,0.654,0.85,0.0,21.0,,,,,,0.0,2026-03-13 17:36:07-07:00
108.06,2.0,10.0,2026-03-14 00:37:46,37.08163,-121.5996,309.0,0.0,200.0,-12.6,,,,,00:37:46,10.8,-2.0,42.7,0.0,167.0,0.1,-0.04,1.0,,38.0,24.0,0.0,30.15,1296.0,,,0.0,,,,,0.0,0.0,,,,,,,,,,,,,,,,,,,0.0,21.0,0.0,0.0,30.1,0.0,,0.0,0.6,,,35.9,0.0,0.0,-0.4,5.0,3.6,,,,,22.0,23.0,+22,23.0,22.0,23.0,23.0,23.0,,,19.0,0.0,,0.6,-9.0,4.998,,,0.654,0.85,0.0,21.0,,,,,,0.0,2026-03-13 17:36:07-07:00
109.06,2.0,10.0,2026-03-14 00:37:47,37.08163,-121.5996,310.0,0.0,200.0,-12.6,,,,,00:37:47,10.8,-1.9,42.6,0.0,167.0,0.1,-0.03,1.0,,35.0,24.0,0.0,30.15,1296.0,,,0.0,,,,,0.0,0.0,,,,,,,,,,,,,,,,,,,0.0,21.0,0.0,0.0,30.1,0.0,,0.0,0.6,,,35.9,0.0,0.0,-0.4,5.0,3.6,,,,,22.0,23.0,+22,23.0,22.0,23.0,23.0,23.0,,,19.0,0.0,,0.6,-9.0,4.998,,,0.654,0.85,0.0,21.0,,,,,,0.0,2026-03-13 17:36:07-07:00
110.06,2.0,10.0,2026-03-14 00:37:48,37.08163,-121.59959,312.0,0.0,200.0,-12.6,,,,,00:37:48,10.8,-2.0,42.6,0.0,167.0,0.1,-0.04,1.0,,25.0,24.0,0.0,30.15,1296.0,,,0.0,,,,,0.0,0.0,,,,,,,,,,,,,,,,,,,0.0,21.0,0.0,0.0,30.1,0.0,,0.0,0.6,,,35.9,0.0,0.0,-0.4,5.0,3.6,,,,,22.0,23.0,+22,23.0,22.0,23.0,23.0,23.0,,,19.0,0.0,,0.6,-9.0,4.998,,,0.654,0.851,0.0,21.0,,,,,,0.0,2026-03-13 17:36:07-07:00
111.06,2.0,10.0,2026-03-14 00:37:49,37.08163,-121.59959,313.0,0.0,200.0,-12.6,,,,,00:37:49,10.8,-2.0,42.6,0.0,167.0,0.1,-0.04,1.0,,61.0,24.0,0.0,30.15,1306.0,,,0.0,,,,,0.0,0.0,,,,,,,,,,,,,,,,,,,0.0,21.0,0.0,0.0,30.1,0.0,,0.0,0.6,,,35.9,0.0,0.0,-0.4,5.0,3.6,,,,,22.0,23.0,+22,23.0,22.0,23.0,23.0,23.0,,,19.0,0.0,,0.6,-9.0,4.998,,,0.654,0.85,0.0,21.0,,,,,,0.0,2026-03-13 17:36:07-07:00
112.06,2.0,10.0,2026-03-14 00:37:50,37.08162,-121.59959,315.0,0.0,200.0,-12.6,,,,,00:37:50,10.8,-2.0,42.6,0.0,167.0,0.1,-0.03,1.0,,51.0,24.0,0.0,30.15,1306.0,,,0.0,,,,,0.0,0.0,,,,,,,,,,,,,,,,,,,0.0,21.0,0.0,0.0,30.1,0.0,,0.0,0.6,,,35.9,0.0,0.0,-0.4,5.0,3.6,,,,,22.0,23.0,+22,23.0,22.0,23.0,23.0,23.0,,,19.0,0.0,,0.6,-9.0,4.998,,,0.654,0.85,0.0,21.0,,,,,,0.0,2026-03-13 17:36:07-07:00
113.06,2.0,10.0,2026-03-14 00:37:51,37.08162,-121.59959,316.0,0.0,200.0,-12.6,,,,,00:37:51,10.8,-2.0,42.6,0.0,168.0,0.1,-0.04,1.0,,38.0,24.0,0.0,30.15,1306.0,,,0.0,,,,,0.0,0.0,,,,,,,,,,,,,,,,,,,0.0,21.0,0.0,0.0,30.1,0.0,,0.0,0.6,,,35.9,0.0,0.0,-0.4,5.0,3.6,,,,,22.0,23.0,+22,23.0,22.0,23.0,23.0,23.0,,,19.0,0.0,,0.6,-9.0,4.998,,,0.654,0.85,0.0,21.0,,,,,,0.0,2026-03-13 17:36:07-07:00
114.06,2.0,10.0,2026-03-14 00:37:52,37.08161,-121.59966,259.0,0.0,200.0,-12.6,,,,,00:37:52,10.7,-2.0,42.6,0.0,169.0,0.1,-0.04,1.0,,36.0,24.0,0.0,30.15,1308.0,,,0.0,,,,,0.0,0.0,,,,,,,,,,,,,,,,,,,0.0,21.0,0.0,0.0,30.1,0.0,,0.0,0.6,,,35.9,0.0,0.0,-0.4,5.0,3.6,,,,,22.0,23.0,+22,23.0,22.0,23.0,23.0,23.0,,,19.0,0.0,,0.6,-9.0,4.998,,,0.654,0.851,0.0,21.0,,,,,,0.0,2026-03-13 17:36:07-07:00
115.06,2.0,10.0,2026-03-14 00:37:53,37.08161,-121.59966,261.0,0.1,200.0,-12.6,,,,,00:37:53,10.7,-1.9,42.6,0.0,169.0,0.1,-0.03,1.0,,-3.0,24.0,0.0,30.15,1308.0,,,0.0,,,,,0.0,0.0,,,,,,,,,,,,,,,,,,,0.0,21.0,0.0,0.0,30.1,0.0,,0.0,0.6,,,35.9,0.0,0.0,-0.4,5.0,3.6,,,,,22.0,23.0,+22,23.0,22.0,23.0,23.0,23.0,,,19.0,0.0,,0.6,-9.0,4.998,,,0.653,0.85,0.0,21.0,,,,,,0.0,2026-03-13 17:36:07-07:00
116.06,2.0,10.0,2026-03-14 00:37:54,37.0816,-121.59966,262.0,0.0,200.0,-12.6,,,,,00:37:54,10.8,-2.0,42.7,0.0,169.0,0.1,-0.03,1.0,,-20.0,24.0,0.0,30.15,1308.0,,,0.0,,,,,0.0,0.0,,,,,,,,,,,,,,,,,,,0.0,21.0,0.0,0.0,30.1,0.0,,0.0,0.6,,,35.9,0.0,0.0,-0.4,5.0,3.6,,,,,22.0,23.0,+22,23.0,22.0,23.0,23.0,23.0,,,19.0,0.0,,0.6,-9.0,4.998,,,0.654,0.85,0.0,21.0,,,,,,0.0,2026-03-13 17:36:07-07:00
117.06,2.0,10.0,2026-03-14 00:37:55,37.0816,-121.59966,263.0,0.0,200.0,-12.6,,,,,00:37:55,10.8,-2.0,42.8,0.0,169.0,0.1,-0.03,1.0,,-5.0,24.0,0.0,30.15,1309.0,,,0.0,,,,,0.0,0.0,,,,,,,,,,,,,,,,,,,0.0,21.0,0.0,0.0,30.1,0.0,,0.0,0.6,,,35.9,0.0,0.0,-0.4,5.0,3.6,,,,,22.0,23.0,+22,23.0,22.0,23.0,23.0,23.0,,,19.0,0.0,,0.6,-9.0,4.998,,,0.654,0.85,0.0,21.0,,,,,,0.0,2026-03-13 17:36:07-07:00
118.06,2.0,10.0,2026-03-14 00:37:56,37.08159,-121.59966,264.0,0.0,200.0,-12.6,,,,,00:37:56,10.7,-2.0,42.8,0.0,169.0,0.1,-0.03,1.0,,35.0,24.0,0.0,30.15,1309.0,,,0.0,,,,,0.0,0.0,,,,,,,,,,,,,,,,,,,0.0,21.0,0.0,0.0,30.1,0.0,,0.0,0.6,,,35.9,0.0,0.0,-0.4,5.0,3.6,,,,,22.0,23.0,+22,23.0,22.0,23.0,23.0,23.0,,,19.0,0.0,,0.6,-9.0,4.998,,,0.653,0.851,0.0,21.0,,,,,,0.0,2026-03-13 17:36:07-07:00
119.06,2.0,10.0,2026-03-14 00:37:57,37.08159,-121.59965,265.0,0.0,200.0,-12.6,,,,,00:37:57,10.7,-2.0,42.8,0.0,169.0,0.1,-0.03,1.0,,53.0,24.0,0.0,30.15,1309.0,,,0.0,,,,,0.0,0.0,,,,,,,,,,,,,,,,,,,0.0,21.0,0.0,0.0,30.1,0.0,,0.0,0.6,,,35.9,0.0,0.0,-0.4,5.0,3.6,,,,,22.0,23.0,+22,23.0,22.0,23.0,23.0,23.0,,,19.0,0.0,,0.6,-9.0,4.998,,,0.654,0.85,0.0,21.0,,,,,,0.0,2026-03-13 17:36:07-07:00
120.06,2.0,10.0,2026-03-14 00:37:58,37.08159,-121.59965,267.0,0.0,200.0,-12.6,,,,,00:37:58,10.7,-2.0,42.8,0.0,169.0,0.1,-0.03,1.0,,2.0,24.0,0.0,30.15,1309.0,,,0.0,,,,,0.0,0.0,,,,,,,,,,,,,,,,,,,0.0,21.0,0.0,0.0,30.1,0.0,,0.0,0.6,,,35.9,0.0,0.0,-0.4,5.0,3.6,,,,,22.0,23.0,+22,23.0,22.0,23.0,23.0,23.0,,,19.0,0.0,,0.6,-9.0,4.998,,,0.654,0.851,0.0,21.0,,,,,,0.0,2026-03-13 17:36:07-07:00
121.06,2.0,10.0,2026-03-14 00:37:59,37.08158,-121.59965,267.0,0.0,200.0,-12.6,,,,,00:37:59,10.7,-2.0,42.8,0.0,169.0,0.0,-0.03,1.0,,-15.0,24.0,0.0,30.15,1309.0,,,0.0,,,,,0.0,0.0,,,,,,,,,,,,,,,,,,,0.0,21.0,0.0,0.0,30.1,0.0,,0.0,0.6,,,35.9,0.0,0.0,-0.4,5.0,3.6,,,,,22.0,23.0,+22,23.0,22.0,23.0,23.0,23.0,,,19.0,0.0,,0.6,-9.0,4.998,,,0.654,0.851,0.0,21.0,,,,,,0.0,2026-03-13 17:36:07-07:00
122.06,2.0,10.0,2026-03-14 00:38:00,37.08158,-121.59965,268.0,0.0,200.0,-12.6,,,,,00:38:00,10.8,-2.0,42.8,0.0,169.0,0.0,-0.03,1.0,,14.0,24.0,0.0,30.15,1309.0,,,0.0,,,,,0.0,0.0,,,,,,,,,,,,,,,,,,,0.0,21.0,0.0,0.0,30.1,0.0,,0.0,0.6,,,35.9,0.0,0.0,-0.4,5.0,3.6,,,,,22.0,23.0,+22,23.0,22.0,23.0,23.0,23.0,,,19.0,0.0,,0.6,-9.0,4.998,,,0.654,0.851,0.0,21.0,,,,,,0.0,2026-03-13 17:36:07-07:00
123.06,2.0,10.0,2026-03-14 00:38:01,37.08159,-121.59965,274.0,0.0,200.0,-12.6,,,,,00:38:01,10.7,-1.9,42.8,0.0,169.0,0.1,-0.03,1.0,,28.0,24.0,0.0,30.15,1309.0,,,0.0,,,,,0.0,0.0,,,,,,,,,,,,,,,,,,,0.0,21.0,0.0,0.0,30.1,0.0,,0.0,0.6,,,35.9,0.0,0.0,-0.4,5.0,3.6,,,,,22.0,23.0,+22,23.0,22.0,23.0,23.0,23.0,,,19.0,0.0,,0.6,-9.0,4.998,,,0.654,0.851,0.0,21.0,,,,,,0.0,2026-03-13 17:36:07-07:00
124.06,2.0,10.0,2026-03-14 00:38:02,37.08158,-121.59965,271.0,0.0,200.0,-12.6,,,,,00:38:02,10.7,-1.9,42.9,0.0,170.0,0.1,-0.03,1.0,,6.0,24.0,0.0,30.15,1309.0,,,0.0,,,,,0.0,0.0,,,,,,,,,,,,,,,,,,,0.0,21.0,0.0,0.0,30.1,0.0,,0.0,0.6,,,35.9,0.0,0.0,-0.4,5.0,3.6,,,,,22.0,23.0,+22,23.0,22.0,23.0,23.0,23.0,,,19.0,0.0,,0.6,-9.0,4.998,,,0.654,0.85,0.0,21.0,,,,,,0.0,2026-03-13 17:36:07-07:00
125.06,2.0,10.0,2026-03-14 00:38:03,37.08158,-121.59965,271.0,0.0,200.0,-12.6,,,,,00:38:03,10.7,-1.9,42.9,0.0,171.0,0.1,-0.03,1.0,,48.0,24.0,0.0,30.15,1309.0,,,0.0,,,,,0.0,0.0,,,,,,,,,,,,,,,,,,,0.0,21.0,0.0,0.0,30.1,0.0,,0.0,0.6,,,35.9,0.0,0.0,-0.4,5.0,3.6,,,,,22.0,23.0,+22,23.0,22.0,23.0,23.0,23.0,,,19.0,0.0,,0.6,-9.0,4.998,,,0.654,0.851,0.0,21.0,,,,,,0.0,2026-03-13 17:36:07-07:00
126.06,2.0,10.0,2026-03-14 00:38:04,37.08158,-121.59965,271.0,0.0,200.0,-12.6,,,,,00:38:04,10.7,-1.9,42.9,0.0,171.0,0.1,-0.03,1.0,,46.0,24.0,0.0,30.15,1311.0,,,0.0,,,,,0.0,0.0,,,,,,,,,,,,,,,,,,,0.0,21.0,0.0,0.0,30.1,0.0,,0.0,0.6,,,35.9,0.0,0.0,-0.4,5.0,3.6,,,,,22.0,23.0,+22,23.0,22.0,23.0,23.0,23.0,,,19.0,0.0,,0.6,-9.0,4.998,,,0.654,0.851,0.0,21.0,,,,,,0.0,2026-03-13 17:36:07-07:00
127.06,2.0,10.0,2026-03-14 00:38:05,37.08158,-121.59965,273.0,0.0,200.0,-12.6,,,,,00:38:05,10.8,-1.9,43.0,0.0,171.0,0.1,-0.03,1.0,,35.0,24.0,0.0,30.15,1311.0,,,0.0,,,,,0.0,0.0,,,,,,,,,,,,,,,,,,,0.0,21.0,0.0,0.0,30.1,0.0,,0.0,0.6,,,35.9,0.0,0.0,-0.4,5.0,3.6,,,,,22.0,23.0,+22,23.0,22.0,23.0,23.0,23.0,,,19.0,0.0,,0.6,-9.0,4.998,,,0.654,0.851,0.0,21.0,,,,,,0.0,2026-03-13 17:36:07-07:00
128.06,2.0,10.0,2026-03-14 00:38:06,37.08157,-121.59966,272.0,0.0,200.0,-12.6,,,,,00:38:06,10.7,-1.9,43.0,0.0,172.0,0.1,-0.03,1.0,,37.0,24.0,0.0,30.15,1311.0,,,0.0,,,,,0.0,0.0,,,,,,,,,,,,,,,,,,,0.0,21.0,0.0,0.0,30.1,0.0,,0.0,0.6,,,35.9,0.0,0.0,-0.4,5.0,3.6,,,,,22.0,23.0,+22,23.0,22.0,23.0,23.0,23.0,,,19.0,0.0,,0.6,-9.0,4.998,,,0.654,0.851,0.0,21.0,,,,,,0.0,2026-03-13 17:36:07-07:00
129.06,2.0,10.0,2026-03-14 00:38:07,37.08157,-121.59966,273.0,0.0,200.0,-12.6,,,,,00:38:07,10.8,-1.9,43.0,0.0,172.0,0.1,-0.03,1.0,,17.0,24.0,0.0,30.15,1313.0,,,0.0,,,,,0.0,0.0,,,,,,,,,,,,,,,,,,,0.0,21.0,0.0,0.0,30.1,0.0,,0.0,0.6,,,35.9,0.0,0.0,-0.4,5.0,3.6,,,,,22.0,23.0,+22,23.0,22.0,23.0,23.0,23.0,,,19.0,0.0,,0.6,-9.0,4.998,,,0.654,0.851,0.0,21.0,,,,,,0.0,2026-03-13 17:36:07-07:00
130.06,2.0,10.0,2026-03-14 00:38:08,37.08157,-121.59966,273.0,0.0,200.0,-12.6,,,,,00:38:08,10.8,-1.9,43.0,0.0,172.0,0.1,-0.04,1.0,,5.0,24.0,0.0,30.15,1313.0,,,0.0,,,,,0.0,0.0,,,,,,,,,,,,,,,,,,,0.0,21.0,0.0,0.0,30.1,0.0,,0.0,0.6,,,35.9,0.0,0.0,-0.4,5.0,3.6,,,,,22.0,23.0,+22,23.0,22.0,23.0,23.0,23.0,,,19.0,0.0,,0.6,-9.0,4.998,,,0.654,0.85,0.0,21.0,,,,,,0.0,2026-03-13 17:36:07-07:00
131.06,2.0,10.0,2026-03-14 00:38:09,37.08157,-121.59966,278.0,0.1,200.0,-12.6,,,,,00:38:09,10.8,-1.9,42.9,0.0,172.0,0.1,-0.04,1.0,,5.0,24.0,0.0,30.15,1313.0,,,0.0,,,,,0.0,0.0,,,,,,,,,,,,,,,,,,,0.0,21.0,0.0,0.0,30.1,0.0,,0.0,0.6,,,35.9,0.0,0.0,-0.4,5.0,3.6,,,,,22.0,23.0,+22,23.0,22.0,23.0,23.0,23.0,,,19.0,0.0,,0.6,-9.0,4.998,,,0.653,0.85,0.0,21.0,,,,,,0.0,2026-03-13 17:36:07-07:00
132.06,2.0,10.0,2026-03-14 00:38:10,37.08157,-121.59966,279.0,0.0,200.0,-12.6,,,,,00:38:10,10.7,-2.0,42.9,0.0,172.0,0.1,-0.03,1.0,,-24.0,24.0,0.0,30.15,1313.0,,,0.0,,,,,0.0,0.0,,,,,,,,,,,,,,,,,,,0.0,21.0,0.0,0.0,30.1,0.0,,0.0,0.6,,,35.9,0.0,0.0,-0.4,5.0,3.6,,,,,22.0,23.0,+22,23.0,22.0,23.0,23.0,23.0,,,19.0,0.0,,0.6,-9.0,4.998,,,0.654,0.851,0.0,21.0,,,,,,0.0,2026-03-13 17:36:07-07:00
133.06,2.0,10.0,2026-03-14 00:38:11,37.08157,-121.59966,278.0,0.0,200.0,-12.6,,,,,00:38:11,10.8,-2.0,42.9,0.0,172.0,0.1,-0.03,1.0,,-3.0,24.0,0.0,30.15,1313.0,,,0.0,,,,,0.0,0.0,,,,,,,,,,,,,,,,,,,0.0,21.0,0.0,0.0,30.1,0.0,,0.0,0.6,,,35.9,0.0,0.0,-0.4,5.0,3.6,,,,,22.0,23.0,+22,23.0,22.0,23.0,23.0,23.0,,,19.0,0.0,,0.6,-9.0,4.998,,,0.653,0.851,0.0,21.0,,,,,,0.0,2026-03-13 17:36:07-07:00
134.06,2.0,10.0,2026-03-14 00:38:12,37.08157,-121.59966,279.0,0.0,200.0,-12.6,,,,,00:38:12,10.8,-2.0,42.9,0.0,172.0,0.1,-0.03,1.0,,-19.0,24.0,0.0,30.15,1313.0,,,0.0,,,,,0.0,0.0,,,,,,,,,,,,,,,,,,,0.0,21.0,0.0,0.0,30.1,0.0,,0.0,0.6,,,35.9,0.0,0.0,-0.4,5.0,3.6,,,,,22.0,23.0,+22,23.0,22.0,23.0,23.0,23.0,,,19.0,0.0,,0.6,-9.0,4.998,,,0.654,0.851,0.0,21.0,,,,,,0.0,2026-03-13 17:36:07-07:00
135.06,2.0,10.0,2026-03-14 00:38:13,37.08157,-121.59966,279.0,0.0,200.0,-12.6,,,,,00:38:13,10.8,-2.0,42.9,0.0,172.0,0.1,-0.03,1.0,,-53.0,24.0,0.0,30.15,1313.0,,,0.0,,,,,0.0,0.0,,,,,,,,,,,,,,,,,,,0.0,21.0,0.0,0.0,30.1,0.0,,0.0,0.6,,,35.9,0.0,0.0,-0.4,5.0,3.6,,,,,22.0,23.0,+22,23.0,22.0,23.0,23.0,23.0,,,19.0,0.0,,0.6,-9.0,4.998,,,0.654,0.851,0.0,21.0,,,,,,0.0,2026-03-13 17:36:07-07:00
136.06,2.0,10.0,2026-03-14 00:38:14,37.08157,-121.59966,280.0,0.0,200.0,-12.6,,,,,00:38:14,10.8,-2.0,42.9,0.0,172.0,0.1,-0.03,1.0,,-49.0,24.0,0.0,30.15,1313.0,,,0.0,,,,,0.0,0.0,,,,,,,,,,,,,,,,,,,0.0,21.0,0.0,0.0,30.1,0.0,,0.0,0.6,,,35.9,0.0,0.0,-0.4,5.0,3.6,,,,,22.0,23.0,+22,23.0,22.0,23.0,23.0,23.0,,,19.0,0.0,,0.6,-9.0,4.998,,,0.653,0.851,0.0,21.0,,,,,,0.0,2026-03-13 17:36:07-07:00
137.06,2.0,10.0,2026-03-14 00:38:15,37.08159,-121.59959,290.0,0.0,200.0,-12.6,,,,,00:38:15,10.8,-2.0,42.9,0.0,172.0,0.1,-0.03,1.0,,-18.0,24.0,0.0,30.15,1313.0,,,0.0,,,,,0.0,0.0,,,,,,,,,,,,,,,,,,,0.0,21.0,0.0,0.0,30.1,0.0,,0.0,0.6,,,35.9,0.0,0.0,-0.4,5.0,3.6,,,,,22.0,23.0,+22,23.0,22.0,23.0,23.0,23.0,,,19.0,0.0,,0.6,-9.0,0.0,,,0.654,0.851,0.0,21.0,,,,,,0.0,2026-03-13 17:36:07-07:00
138.06,2.0,10.0,2026-03-14 00:38:16,37.08159,-121.59959,290.0,0.0,200.0,-12.6,,,,,00:38:16,10.8,-2.0,42.9,0.0,172.0,0.1,-0.03,1.0,,-31.0,24.0,0.0,30.15,1313.0,,,0.0,,,,,0.0,0.0,,,,,,,,,,,,,,,,,,,0.0,21.0,0.0,0.0,30.1,0.0,,0.0,0.6,,,35.9,0.0,0.0,-0.3,5.0,3.6,,,,,22.0,23.0,+22,23.0,22.0,23.0,23.0,23.0,,,19.0,0.0,,0.6,-9.0,0.002,,,0.653,0.851,0.0,21.0,,,,,,0.0,2026-03-13 17:36:07-07:00
139.06,2.0,10.0,2026-03-14 00:38:17,37.08159,-121.59959,290.0,0.0,200.0,-12.6,,,,,00:38:17,10.8,-2.0,42.9,0.0,172.0,0.1,-0.03,1.0,,16.0,24.0,0.0,30.15,1313.0,,,0.0,,,,,0.0,0.0,,,,,,,,,,,,,,,,,,,0.0,21.0,0.0,0.0,30.1,0.0,,0.0,0.6,,,35.9,0.0,0.0,-0.3,5.0,3.6,,,,,22.0,23.0,+22,23.0,22.0,23.0,23.0,23.0,,,19.0,0.0,,0.6,-9.0,0.001,,,0.653,0.851,0.0,21.0,,,,,,0.0,2026-03-13 17:36:07-07:00
140.06,2.0,10.0,2026-03-14 00:38:18,37.08159,-121.59959,288.0,0.0,200.0,-12.6,,,,,00:38:18,10.7,-2.0,42.9,0.0,172.0,0.1,-0.03,1.0,,-31.0,24.0,0.0,30.15,1313.0,,,0.0,,,,,0.0,0.0,,,,,,,,,,,,,,,,,,,0.0,21.0,0.0,0.0,30.1,0.0,,0.0,0.6,,,35.9,0.0,0.0,-0.3,5.0,3.6,,,,,22.0,23.0,+22,23.0,22.0,23.0,23.0,23.0,,,19.0,0.0,,0.6,-9.0,0.001,,,0.653,0.851,0.0,21.0,,,,,,0.0,2026-03-13 17:36:07-07:00
141.06,2.0,10.0,2026-03-14 00:38:19,37.08159,-121.59959,288.0,0.1,200.0,-12.6,,,,,00:38:19,10.7,-2.0,42.9,0.0,172.0,0.1,-0.03,1.0,,-7.0,24.0,0.0,30.15,1313.0,,,0.0,,,,,0.0,0.0,,,,,,,,,,,,,,,,,,,0.0,21.0,0.0,0.0,30.1,0.0,,0.0,0.6,,,35.9,0.0,0.0,-0.3,5.0,3.6,,,,,22.0,23.0,+22,23.0,22.0,23.0,23.0,23.0,,,19.0,0.0,,0.6,-9.0,0.001,,,0.653,0.851,0.0,21.0,,,,,,0.0,2026-03-13 17:36:07-07:00
142.06,2.0,10.0,2026-03-14 00:38:20,37.08159,-121.59959,287.0,0.0,200.0,-12.6,,,,,00:38:20,10.7,-2.0,42.9,0.0,172.0,0.1,-0.03,1.0,,-20.0,24.0,0.0,30.15,1313.0,,,0.0,,,,,0.0,0.0,,,,,,,,,,,,,,,,,,,0.0,21.0,0.0,0.0,30.1,0.0,,0.0,0.6,,,35.9,0.0,0.0,-0.3,5.0,3.6,,,,,22.0,23.0,+22,23.0,22.0,23.0,23.0,23.0,,,19.0,0.0,,0.6,-9.0,0.001,,,0.653,0.851,0.0,21.0,,,,,,0.0,2026-03-13 17:36:07-07:00
143.06,2.0,10.0,2026-03-14 00:38:21,37.08159,-121.59959,288.0,0.0,200.0,-12.6,,,,,00:38:21,10.7,-2.0,42.9,0.0,172.0,0.1,-0.03,1.0,,2.0,24.0,0.0,30.15,1313.0,,,0.0,,,,,0.0,0.0,,,,,,,,,,,,,,,,,,,0.0,21.0,0.0,0.0,30.1,0.0,,0.0,0.6,,,35.9,0.0,0.0,-0.3,5.0,3.6,,,,,22.0,23.0,+22,23.0,22.0,23.0,23.0,23.0,,,19.0,0.0,,0.6,-9.0,0.001,,,0.654,0.851,0.0,21.0,,,,,,0.0,2026-03-13 17:36:07-07:00
144.06,2.0,10.0,2026-03-14 00:38:22,37.08159,-121.59959,288.0,0.0,200.0,-12.6,,,,,00:38:22,10.7,-2.0,42.9,0.0,172.0,0.1,-0.04,1.0,,-43.0,24.0,0.0,30.15,1313.0,,,0.0,,,,,0.0,0.0,,,,,,,,,,,,,,,,,,,0.0,21.0,0.0,0.0,30.1,0.0,,0.0,0.6,,,35.9,0.0,0.0,-0.3,5.0,3.6,,,,,22.0,23.0,+22,23.0,22.0,23.0,23.0,23.0,,,19.0,0.0,,0.6,-9.0,0.001,,,0.653,0.851,0.0,21.1,,,,,,0.0,2026-03-13 17:36:07-07:00
145.06,2.0,10.0,2026-03-14 00:38:23,37.08159,-121.59959,288.0,0.0,200.0,-12.6,,,,,00:38:23,10.7,-2.0,42.8,0.0,172.0,0.1,-0.03,1.0,,-35.0,24.0,0.0,30.15,1313.0,,,0.0,,,,,0.0,0.0,,,,,,,,,,,,,,,,,,,0.0,21.0,0.0,0.0,30.1,0.0,,0.0,0.0,,,35.9,0.0,0.0,-0.3,5.0,3.6,,,,,22.0,23.0,+22,23.0,22.0,23.0,23.0,23.0,,,19.0,0.0,,0.0,-9.0,0.001,,,0.654,0.851,0.0,21.0,,,,,,0.0,2026-03-13 17:36:07-07:00
146.06,2.0,10.0,2026-03-14 00:38:24,37.08159,-121.59959,290.0,0.0,200.0,-12.6,,,,,00:38:24,10.7,-2.0,42.9,0.0,172.0,0.1,-0.03,1.0,,-47.0,24.0,0.0,30.15,1313.0,,,0.0,,,,,0.0,0.0,,,,,,,,,,,,,,,,,,,0.0,21.0,0.0,0.0,30.1,0.0,,0.0,0.0,,,35.9,0.0,0.0,-0.3,5.0,3.6,,,,,22.0,23.0,+22,23.0,22.0,23.0,23.0,23.0,,,19.0,0.0,,0.0,-9.0,0.001,,,0.653,0.851,0.0,21.0,,,,,,0.0,2026-03-13 17:36:07-07:00
147.06,2.0,10.0,2026-03-14 00:38:25,37.08158,-121.59959,287.0,0.0,200.0,-12.6,,,,,00:38:25,10.7,-2.0,42.9,0.0,172.0,0.1,-0.03,1.0,,-58.0,24.0,0.0,30.15,1313.0,,,0.0,,,,,0.0,0.0,,,,,,,,,,,,,,,,,,,0.0,21.0,0.0,0.0,30.1,0.0,,0.0,0.0,,,35.9,0.0,0.0,-0.3,5.0,3.6,,,,,22.0,23.0,+22,23.0,22.0,23.0,23.0,23.0,,,19.0,0.0,,0.0,-9.0,0.001,,,0.653,0.851,0.0,21.0,,,,,,0.0,2026-03-13 17:36:07-07:00
148.06,2.0,10.0,2026-03-14 00:38:26,37.08158,-121.59959,287.0,0.0,200.0,-12.6,,,,,00:38:26,10.7,-2.0,42.9,0.0,172.0,0.1,-0.03,1.0,,-18.0,24.0,0.0,30.15,1323.0,,,0.0,,,,,0.0,0.0,,,,,,,,,,,,,,,,,,,0.0,21.0,0.0,0.0,30.1,0.0,,0.0,0.0,,,35.9,0.0,0.0,-0.3,5.0,3.6,,,,,22.0,23.0,+22,23.0,22.0,23.0,23.0,23.0,,,19.0,0.0,,0.0,-9.0,0.001,,,0.654,0.851,0.0,21.0,,,,,,0.0,2026-03-13 17:36:07-07:00
149.06,2.0,10.0,2026-03-14 00:38:27,37.08158,-121.5996,292.0,0.0,200.0,-12.6,,,,,00:38:27,10.7,-2.0,42.9,0.0,172.0,0.1,-0.03,1.0,,-22.0,24.0,0.0,30.15,1322.0,,,0.0,,,,,0.0,0.0,,,,,,,,,,,,,,,,,,,0.0,21.0,0.0,0.0,30.1,0.0,,0.0,0.0,,,35.9,0.0,0.0,-0.3,5.0,3.6,,,,,22.0,23.0,+22,23.0,22.0,23.0,23.0,23.0,,,19.0,0.0,,0.0,-9.0,0.002,,,0.654,0.851,0.0,21.0,,,,,,0.0,2026-03-13 17:36:07-07:00
150.06,2.0,10.0,2026-03-14 00:38:28,37.08158,-121.5996,292.0,0.0,200.0,-12.6,,,,,00:38:28,10.8,-2.0,42.9,0.0,172.0,0.1,-0.03,1.0,,-12.0,24.0,0.0,30.15,1322.0,,,0.0,,,,,0.0,0.0,,,,,,,,,,,,,,,,,,,0.0,21.0,0.0,0.0,30.1,0.0,,0.0,0.0,,,35.9,0.0,0.0,-0.3,5.0,3.6,,,,,22.0,23.0,+22,23.0,22.0,23.0,23.0,23.0,,,19.0,0.0,,0.0,-9.0,0.001,,,0.653,0.851,0.0,21.0,,,,,,0.0,2026-03-13 17:36:07-07:00
151.06,2.0,10.0,2026-03-14 00:38:29,37.08158,-121.5996,293.0,0.0,200.0,-12.6,,,,,00:38:29,10.7,-2.0,42.9,0.0,172.0,0.1,-0.03,1.0,,-11.0,24.0,0.0,30.15,1322.0,,,0.0,,,,,0.0,0.0,,,,,,,,,,,,,,,,,,,0.0,21.0,0.0,0.0,30.1,0.0,,0.0,4.4,,,35.9,0.0,0.0,-0.3,5.0,3.6,,,,,22.0,23.0,+22,23.0,22.0,23.0,23.0,23.0,,,19.0,0.0,,4.4,-9.0,0.001,,,0.653,0.851,0.0,21.0,,,,,,0.0,2026-03-13 17:36:07-07:00
152.06,2.0,10.0,2026-03-14 00:38:30,37.08159,-121.5996,291.0,0.1,200.0,-12.6,,,,,00:38:30,10.7,-2.0,42.9,0.0,172.0,0.1,-0.03,1.0,,-28.0,24.0,0.0,30.15,1322.0,,,0.0,,,,,0.0,0.0,,,,,,,,,,,,,,,,,,,0.0,21.0,0.0,0.0,30.1,0.0,,0.0,29.0,,,35.9,0.0,0.0,-0.3,5.0,3.6,,,,,23.0,23.0,+22,23.0,23.0,23.0,23.0,23.0,,,19.0,0.0,,29.0,-9.0,0.001,,,0.654,0.851,0.0,21.1,,,,,,0.0,2026-03-13 17:36:07-07:00
153.06,2.0,10.0,2026-03-14 00:38:31,37.08159,-121.5996,291.0,0.0,200.0,-12.6,,,,,00:38:31,10.7,-2.0,42.9,0.0,172.0,0.1,-0.03,1.0,,50.0,24.0,0.0,30.15,1322.0,,,0.0,,,,,0.0,0.0,,,,,,,,,,,,,,,,,,,0.0,21.0,0.0,0.0,30.1,0.5,,0.5,30.2,,,35.9,0.0,0.0,-0.3,5.0,3.6,,,,,22.0,23.0,+22,23.0,22.0,23.0,23.0,23.0,,,19.0,0.0,,30.2,-9.0,0.002,,,0.654,0.851,0.0,21.0,,,,,,0.0,2026-03-13 17:36:07-07:00
154.06,2.0,10.0,2026-03-14 00:38:32,37.08159,-121.5996,291.0,0.1,200.0,-12.6,,,,,00:38:32,10.8,-2.0,42.9,0.0,172.0,0.1,-0.03,1.0,,14.0,24.0,0.0,30.15,1322.0,,,0.0,,,,,0.0,0.0,,,,,,,,,,,,,,,,,,,0.0,21.0,0.0,0.0,30.1,1.4,,1.4,30.3,,,35.9,0.0,0.0,-0.3,5.0,3.6,,,,,23.0,23.0,+22,23.0,23.0,23.0,23.0,23.0,,,19.0,0.0,,30.3,-9.0,0.001,,,0.653,0.851,0.0,21.1,,,,,,0.0,2026-03-13 17:36:07-07:00
155.06,2.0,10.0,2026-03-14 00:38:33,37.08159,-121.5996,291.0,0.0,200.0,-12.6,,,,,00:38:33,10.8,-2.0,42.9,0.0,172.0,0.1,-0.03,1.0,,36.0,24.0,0.0,30.15,1323.0,,,0.0,,,,,0.0,0.0,,,,,,,,,,,,,,,,,,,0.0,21.0,0.0,0.0,30.1,2.1,,2.1,30.4,,,35.9,0.0,0.0,-0.3,5.0,3.6,,,,,22.0,23.0,+22,23.0,23.0,23.0,23.0,23.0,,,19.0,0.0,,30.4,-9.0,0.001,,,0.653,0.851,0.0,21.0,,,,,,0.0,2026-03-13 17:36:07-07:00
156.06,2.0,10.0,2026-03-14 00:38:34,37.08159,-121.59959,292.0,0.1,200.0,-12.6,,,,,00:38:34,10.8,-2.0,42.9,0.0,172.0,0.1,-0.03,1.0,,15.0,24.0,0.0,30.15,1322.0,,,0.0,,,,,0.0,0.0,,,,,,,,,,,,,,,,,,,0.0,21.0,0.0,0.0,30.1,2.7,,2.7,30.4,,,35.9,0.0,0.0,-0.3,5.0,3.6,,,,,23.0,23.0,+22,23.0,23.0,23.0,23.0,23.0,,,19.0,0.0,,30.4,-9.0,0.001,,,0.654,0.851,0.0,21.1,,,,,,0.0,2026-03-13 17:36:07-07:00
157.06,2.0,10.0,2026-03-14 00:38:35,37.08158,-121.59959,291.0,0.0,200.0,-12.6,,,,,00:38:35,10.8,-2.0,42.8,0.0,172.0,0.1,-0.03,1.0,,-8.0,24.0,0.0,30.15,1322.0,,,0.0,,,,,0.0,0.0,,,,,,,,,,,,,,,,,,,0.0,21.0,0.0,0.0,30.1,2.9,,2.9,31.2,,,35.9,0.0,0.0,-0.3,5.0,3.6,,,,,22.0,23.0,+22,23.0,23.0,23.0,23.0,23.0,,,19.0,0.0,,31.2,-9.0,0.001,,,0.653,0.851,0.0,21.1,,,,,,0.0,2026-03-13 17:36:07-07:00
