Session Time,GPS Fix Quality,Number of Satellites,GPS Date & Time,Latitude (deg),Longitude (deg),GPS Altitude (feet),Ground Speed (knots),Ground Track (deg),Mag Var (deg),Cross Track Error (NM),Destination Waypoint ID,Range to Destination (NM),Bearing to Destination (deg),System Time,Pitch (deg),Roll (deg),Magnetic Heading (deg),Indicated Airspeed (knots),Pressure Altitude (ft),Turn Rate (deg/s),Lateral Accel (g),Vertical Accel(g),Angle of Attack (%),Vertical Speed (ft/min),OAT (deg C),True Airspeed (knots),Barometer Setting (inHg),Density Altitude (ft),Wind Direction (deg),Wind Speed (knots),Heading Bug (deg),Altitude Bug (ft),Airspeed Bug (knots),Vertical Speed Bug (ft/min),Course (deg),CDI Source Type,CDI Source Port,CDI Scale (NM),CDI Deflection (%),Glideslope (%),AP Engaged,AP Roll Mode,AP Roll Force,AP Roll Position (steps),AP Roll Slip (bool),AP Pitch Force,AP Pitch Position (steps),AP Pitch Slip (bool),AP Yaw Force,AP Yaw Position,AP Yaw Slip (bool),Transponder Status,Transponder Reply (bool),Transponder Identing (bool),Transponder Code (octal),Oil Pressure (PSI),Oil Temp (deg C),RPM L,RPM R,Manifold Pressure (inHg),Fuel Flow 1 (gal/hr),Fuel Flow 2 (gal/hr),Total Fuel Flow (gal/hr),Fuel Pressure (PSI),Fuel Level L (gal),Fuel Level R (gal),Fuel Remaining (gal),Volts 1,Volts 2,Amps,Hobbs Time,Tach Time,Thermocouple 1 (deg C),Thermocouple 2 (deg C),Thermocouple 3 (deg C),Thermocouple 4 (deg C),CHT 4 (deg C),EGT 4 (deg C),CHT 3 (deg C),EGT 3 (deg C),CHT 2 (deg C),EGT 2 (deg C),CHT 1 (deg C),EGT 1 (deg C),Thermocouple 13 (deg C),Thermocouple 14 (deg C),ELEV POSITION (%),CO PPM PRESSURE (PSI),GP Input 3,FUEL PRESSURE (PSI),AILERN POSITION (%),CANOPY CONTACT (V),GP Input 7,GP Input 8,LEFT LEVEL (Sensor V),RIGHT LEVEL (Sensor V),OIL PRESSURE (PSI),OIL TEMPERATURE (deg C),GP Input 13,Contacts,Percent Power,EGT Leaning State,Unnamed: 103,RPM,AVG_CHT (deg C),CHT_Delta_T (deg C),OIL_Delta_T (deg C),OAT (deg F),Oil Temp (deg F),Thermocouple 1 (deg F),Thermocouple 2 (deg F),Thermocouple 3 (deg F),Thermocouple 4 (deg F),CHT 4 (deg F),EGT 4 (deg F),CHT 3 (deg F),EGT 3 (deg F),CHT 2 (deg F),EGT 2 (deg F),CHT 1 (deg F),EGT 1 (deg F),Thermocouple 13 (deg F),Thermocouple 14 (deg F),OIL TEMPERATURE (deg F),AVG_CHT (deg F),CHT_Delta_T (deg F),OIL_Delta_T (deg F),Fuel Flow Integral,Distance Traveled,MPG,Max CHT,Flight ID
0.06,1.0,6.0,2026-04-24 22:47:53,37.08164,-121.59959,323.0,0.1,114.7,-12.7,0.0,,0.0,0.0,0.0,0.0,0.0,0.0,0.0,0.0,0.0,0.0,,0.0,0.0,25.0,0.0,0.0,0.0,0.0,0.0,144.0,0.0,100.0,-500.0,0.0,0.0,0.0,0.0,0.0,0.0,0.0,0.0,0.0,0.0,0.0,0.0,0.0,0.0,0.0,0.0,0.0,0.0,0.0,0.0,0.0,0.0,0.0,0.0,0.0,0.0,0.0,0.0,0.0,0.0,0.0,0.0,23.0,0.0,0.0,0.0,12.7,10.5,0.0,0.0,0.0,0.0,0.0,0.0,0.0,,0.0,0.0,0.0,0.0,0.0,0.0,0.0,,0.0,0.0,0.0,0.0,0.0,0.0,0.0,0.0,,0.0,0.0,0.0,0.0,,0.0,0.0,0.0,-25.0,-25.0,77.0,32.0,32.0,32.0,32.0,32.0,32.0,32.0,32.0,,32.0,32.0,32.0,32.0,32.0,32.0,32.0,32.0,-13.0,-13.0,0.0,0.0,0.0,388.4,2026-04-24 15:47:53-07:00
1.06,1.0,6.0,2026-04-24 22:47:54,37.08163,-121.59959,323.0,0.1,114.7,-12.6,0.0,,0.0,0.0,0.0,10.9,-1.1,42.9,0.0,344.0,0.0,-0.02,1.0,0.0,-142.0,25.0,0.0,30.02,1661.0,0.0,0.0,144.0,0.0,100.0,-500.0,0.0,0.0,0.0,0.0,0.0,0.0,0.0,0.0,0.0,0.0,0.0,0.0,0.0,0.0,0.0,0.0,0.0,0.0,0.0,0.0,0.0,0.0,0.0,0.0,0.0,0.0,0.0,0.0,0.0,0.0,0.0,0.0,23.0,0.0,0.0,-0.7,12.7,10.5,0.0,0.0,0.0,0.0,23.0,23.0,23.0,23.0,23.0,23.0,23.0,23.0,0.0,0.0,19.0,254.4,0.0,0.5,3.0,0.0,0.0,0.0,0.929,0.84,0.0,0.0,0.0,0.0,0.0,,0.0,0.0,23.0,-2.0,-25.0,77.0,32.0,32.0,32.0,32.0,32.0,73.4,73.4,73.4,73.4,73.4,73.4,73.4,73.4,32.0,32.0,32.0,73.4,28.4,-13.0,0.0,0.16866666666666666,0.0,388.4,2026-04-24 15:47:53-07:00
2.06,1.0,6.0,2026-04-24 22:47:55,37.08163,-121.59958,324.0,0.0,114.7,-12.6,0.0,,0.0,0.0,0.0,10.9,-1.1,43.0,0.0,342.0,0.0,-0.02,1.0,0.0,-121.0,25.0,0.0,30.02,1661.0,0.0,0.0,144.0,0.0,100.0,-500.0,0.0,0.0,0.0,0.0,0.0,0.0,0.0,0.0,0.0,0.0,0.0,0.0,0.0,0.0,0.0,0.0,0.0,0.0,0.0,0.0,0.0,0.0,0.0,0.0,0.0,0.0,0.0,0.0,0.0,0.0,0.0,0.0,23.0,0.0,0.0,-0.7,12.7,10.5,0.0,0.0,0.0,0.0,23.0,23.0,23.0,23.0,23.0,23.0,23.0,23.0,0.0,0.0,19.0,254.4,0.0,0.5,3.0,0.0,0.0,0.0,0.929,0.846,0.0,22.2,0.0,0.0,0.0,,0.0,0.0,23.0,-2.0,-2.8000000000000007,77.0,32.0,32.0,32.0,32.0,32.0,73.4,73.4,73.4,73.4,73.4,73.4,73.4,73.4,32.0,32.0,71.96,73.4,28.4,26.96,0.0,0.253,0.0,388.4,2026-04-24 15:47:53-07:00
3.06,1.0,6.0,2026-04-24 22:47:56,37.08163,-121.59958,324.0,0.1,114.7,-12.6,0.0,,0.0,0.0,0.0,10.9,-1.2,43.0,0.0,340.0,0.0,-0.02,1.0,0.0,-138.0,25.0,0.0,30.02,1661.0,0.0,0.0,144.0,0.0,100.0,-500.0,0.0,0.0,0.0,0.0,0.0,0.0,0.0,0.0,0.0,0.0,0.0,0.0,0.0,0.0,0.0,0.0,0.0,0.0,0.0,0.0,0.0,0.0,0.0,0.0,0.0,0.0,0.0,0.0,0.0,0.0,0.0,0.0,23.0,0.0,0.0,-0.7,12.7,10.5,0.0,0.0,0.0,0.0,23.0,23.0,23.0,23.0,23.0,23.0,23.0,23.0,0.0,0.0,19.0,254.4,0.0,0.5,3.0,0.0,0.0,0.0,0.929,0.844,0.0,22.2,0.0,0.0,0.0,,0.0,0.0,23.0,-2.0,-2.8000000000000007,77.0,32.0,32.0,32.0,32.0,32.0,73.4,73.4,73.4,73.4,73.4,73.4,73.4,73.4,32.0,32.0,71.96,73.4,28.4,26.96,0.0,0.3373333333333333,0.0,388.4,2026-04-24 15:47:53-07:00
4.06,1.0,6.0,2026-04-24 22:47:57,37.08162,-121.59958,324.0,0.1,114.7,-12.6,0.0,,0.0,0.0,0.0,10.9,-1.1,43.0,0.0,338.0,0.0,-0.02,1.0,0.0,-122.0,25.0,0.0,30.02,1654.0,0.0,0.0,144.0,0.0,100.0,-500.0,0.0,0.0,0.0,0.0,0.0,0.0,0.0,0.0,0.0,0.0,0.0,0.0,0.0,0.0,0.0,0.0,0.0,0.0,0.0,0.0,0.0,0.0,0.0,0.0,0.0,0.0,0.0,0.0,0.0,0.0,0.0,0.0,23.0,0.0,0.0,-0.7,12.7,10.5,0.0,0.0,0.0,0.0,23.0,23.0,23.0,23.0,23.0,23.0,23.0,23.0,0.0,0.0,19.0,254.4,0.0,0.5,3.0,0.0,0.0,0.0,0.929,0.841,0.0,22.1,0.0,0.0,0.0,,0.0,0.0,23.0,-2.0,-2.8999999999999986,77.0,32.0,32.0,32.0,32.0,32.0,73.4,73.4,73.4,73.4,73.4,73.4,73.4,73.4,32.0,32.0,71.78,73.4,28.4,26.78,0.0,0.5059999999999999,0.0,388.4,2026-04-24 15:47:53-07:00
5.06,1.0,6.0,2026-04-24 22:47:58,37.08162,-121.59958,324.0,0.0,114.7,-12.6,0.0,,0.0,0.0,0.0,10.9,-1.2,43.0,0.0,335.0,0.1,-0.02,1.0,99.0,-133.0,25.0,0.0,30.02,1654.0,0.0,0.0,144.0,0.0,0.0,0.0,0.0,0.0,0.0,0.0,0.0,0.0,0.0,0.0,0.0,0.0,0.0,0.0,0.0,0.0,0.0,0.0,0.0,0.0,0.0,0.0,0.0,0.0,22.0,0.0,0.0,30.0,0.0,0.0,0.0,0.5,0.0,0.0,23.0,0.0,0.0,-0.7,12.7,10.5,0.0,0.0,0.0,0.0,23.0,23.0,23.0,23.0,23.0,23.0,23.0,23.0,0.0,0.0,18.0,254.4,0.0,0.5,3.0,0.0,0.0,0.0,0.929,0.839,0.0,22.1,0.0,0.0,0.0,,0.0,0.0,23.0,-2.0,-2.8999999999999986,77.0,71.6,32.0,32.0,32.0,32.0,73.4,73.4,73.4,73.4,73.4,73.4,73.4,73.4,32.0,32.0,71.78,73.4,28.4,26.78,0.0,0.5903333333333333,0.0,388.4,2026-04-24 15:47:53-07:00
6.06,1.0,6.0,2026-04-24 22:47:59,37.08162,-121.59958,323.0,0.1,114.7,-12.6,0.0,,0.0,0.0,0.0,10.9,-1.2,43.0,0.0,333.0,0.1,-0.02,1.0,99.0,-132.0,25.0,0.0,30.02,1654.0,0.0,0.0,144.0,0.0,0.0,0.0,0.0,0.0,0.0,0.0,0.0,0.0,0.0,0.0,0.0,0.0,0.0,0.0,0.0,0.0,0.0,0.0,0.0,0.0,0.0,0.0,0.0,0.0,22.0,0.0,0.0,30.0,0.0,0.0,0.0,0.5,0.0,0.0,23.0,0.0,0.0,-0.7,12.7,10.5,0.0,0.0,0.0,0.0,23.0,23.0,23.0,24.0,23.0,23.0,23.0,24.0,0.0,0.0,18.0,254.4,0.0,0.5,3.0,0.0,0.0,0.0,0.929,0.854,0.0,22.0,0.0,0.0,0.0,,0.0,0.0,23.0,-2.0,-3.0,77.0,71.6,32.0,32.0,32.0,32.0,73.4,73.4,73.4,75.2,73.4,73.4,73.4,75.2,32.0,32.0,71.6,73.4,28.4,26.6,0.0,0.6746666666666665,0.0,388.4,2026-04-24 15:47:53-07:00
7.06,1.0,6.0,2026-04-24 22:48:00,37.08162,-121.59958,323.0,0.1,114.7,-12.6,0.0,,0.0,0.0,0.0,10.9,-1.2,43.0,0.0,333.0,0.1,-0.02,1.0,99.0,-90.0,25.0,0.0,30.02,1646.0,0.0,0.0,144.0,0.0,0.0,0.0,0.0,0.0,0.0,0.0,0.0,0.0,0.0,0.0,0.0,0.0,0.0,0.0,0.0,0.0,0.0,0.0,0.0,0.0,0.0,0.0,0.0,0.0,22.0,0.0,0.0,30.0,0.0,0.0,0.0,0.5,0.0,0.0,23.0,0.0,0.0,-0.7,12.7,10.5,0.0,0.0,0.0,0.0,23.0,23.0,23.0,24.0,23.0,23.0,23.0,24.0,0.0,0.0,18.0,254.4,0.0,0.5,3.0,0.0,0.0,0.0,0.929,0.84,0.0,22.0,0.0,0.0,0.0,,0.0,0.0,23.0,-2.0,-3.0,77.0,71.6,32.0,32.0,32.0,32.0,73.4,73.4,73.4,75.2,73.4,73.4,73.4,75.2,32.0,32.0,71.6,73.4,28.4,26.6,0.0,0.8433333333333333,0.0,388.4,2026-04-24 15:47:53-07:00
8.06,1.0,8.0,2026-04-24 22:48:01,37.0816,-121.59956,327.0,0.0,114.7,-12.6,0.0,,0.0,0.0,0.0,10.9,-1.2,43.0,0.0,332.0,0.1,-0.02,1.0,99.0,-69.0,25.0,0.0,30.02,1646.0,0.0,0.0,144.0,0.0,0.0,0.0,0.0,0.0,0.0,0.0,0.0,0.0,0.0,0.0,0.0,0.0,0.0,0.0,0.0,0.0,0.0,0.0,0.0,0.0,0.0,0.0,0.0,0.0,22.0,0.0,0.0,30.0,0.0,0.0,0.0,0.5,0.0,0.0,23.0,0.0,0.0,-0.7,12.7,10.5,0.0,0.0,0.0,0.0,23.0,23.0,23.0,24.0,23.0,23.0,23.0,24.0,0.0,0.0,18.0,254.4,0.0,0.5,3.0,0.0,0.0,0.0,0.929,0.835,0.0,22.0,0.0,0.0,0.0,,0.0,0.0,23.0,-2.0,-3.0,77.0,71.6,32.0,32.0,32.0,32.0,73.4,73.4,73.4,75.2,73.4,73.4,73.4,75.2,32.0,32.0,71.6,73.4,28.4,26.6,0.0,0.9276666666666666,0.0,388.4,2026-04-24 15:47:53-07:00
9.06,1.0,9.0,2026-04-24 22:48:02,37.08164,-121.59958,308.0,0.0,114.7,-12.6,0.0,,0.0,0.0,0.0,10.9,-1.2,42.9,0.0,331.0,0.0,-0.02,1.0,99.0,-28.0,25.0,0.0,30.02,1646.0,0.0,0.0,144.0,0.0,0.0,0.0,0.0,0.0,0.0,0.0,0.0,0.0,0.0,0.0,0.0,0.0,0.0,0.0,0.0,0.0,0.0,0.0,0.0,0.0,0.0,0.0,0.0,0.0,22.0,0.0,0.0,30.0,0.0,0.0,0.0,0.5,0.0,0.0,23.0,0.0,0.0,-0.7,12.7,10.5,0.0,0.0,0.0,0.0,23.0,23.0,23.0,24.0,23.0,23.0,23.0,24.0,0.0,0.0,19.0,254.4,0.0,0.5,3.0,0.0,0.0,0.0,0.93,0.836,0.0,22.0,0.0,0.0,0.0,,0.0,0.0,23.0,-2.0,-3.0,77.0,71.6,32.0,32.0,32.0,32.0,73.4,73.4,73.4,75.2,73.4,73.4,73.4,75.2,32.0,32.0,71.6,73.4,28.4,26.6,0.0,0.9276666666666666,0.0,388.4,2026-04-24 15:47:53-07:00
10.06,1.0,9.0,2026-04-24 22:48:03,37.08164,-121.59958,308.0,0.0,114.7,-12.6,0.0,,0.0,0.0,0.0,10.9,-1.2,43.0,0.0,331.0,0.1,-0.03,1.0,99.0,-9.0,25.0,0.0,30.02,1654.0,0.0,0.0,144.0,0.0,0.0,0.0,0.0,0.0,0.0,0.0,0.0,0.0,0.0,0.0,0.0,0.0,0.0,0.0,0.0,0.0,0.0,0.0,0.0,0.0,0.0,0.0,0.0,0.0,22.0,0.0,0.0,30.0,0.0,0.0,0.0,0.5,0.0,0.0,23.0,0.0,0.0,-0.7,12.7,10.5,0.0,0.0,0.0,0.0,23.0,23.0,23.0,24.0,23.0,23.0,23.0,24.0,0.0,0.0,20.0,254.4,0.0,0.5,3.0,0.0,0.0,0.0,0.929,0.834,0.0,22.0,0.0,0.0,0.0,,0.0,0.0,23.0,-2.0,-3.0,77.0,71.6,32.0,32.0,32.0,32.0,73.4,73.4,73.4,75.2,73.4,73.4,73.4,75.2,32.0,32.0,71.6,73.4,28.4,26.6,0.0,0.9276666666666666,0.0,388.4,2026-04-24 15:47:53-07:00
11.06,1.0,9.0,2026-04-24 22:48:04,37.08164,-121.59958,307.0,0.0,114.7,-12.6,0.0,,0.0,0.0,0.0,10.9,-1.2,42.9,0.0,331.0,0.0,-0.02,1.0,99.0,-15.0,25.0,0.0,30.02,1654.0,0.0,0.0,144.0,0.0,0.0,0.0,0.0,0.0,0.0,0.0,0.0,0.0,0.0,0.0,0.0,0.0,0.0,0.0,0.0,0.0,0.0,0.0,0.0,0.0,0.0,0.0,0.0,0.0,22.0,0.0,0.0,30.0,0.0,0.0,0.0,0.5,0.0,0.0,23.0,0.0,0.0,-0.6,12.7,10.5,0.0,0.0,0.0,0.0,23.0,23.0,23.0,24.0,23.0,23.0,23.0,24.0,0.0,0.0,20.0,254.4,0.0,0.5,3.0,0.0,0.0,0.0,0.929,0.835,0.0,22.0,0.0,0.0,0.0,,0.0,0.0,23.0,-2.0,-3.0,77.0,71.6,32.0,32.0,32.0,32.0,73.4,73.4,73.4,75.2,73.4,73.4,73.4,75.2,32.0,32.0,71.6,73.4,28.4,26.6,0.0,0.9276666666666666,0.0,388.4,2026-04-24 15:47:53-07:00
12.06,1.0,9.0,2026-04-24 22:48:05,37.08164,-121.59958,307.0,0.0,114.7,-12.6,0.0,,0.0,0.0,0.0,10.9,-1.2,42.9,0.0,331.0,0.0,-0.02,1.0,99.0,-53.0,25.0,0.0,30.02,1654.0,0.0,0.0,144.0,0.0,0.0,0.0,0.0,0.0,0.0,0.0,0.0,0.0,0.0,0.0,0.0,0.0,0.0,0.0,0.0,0.0,0.0,0.0,0.0,0.0,0.0,0.0,0.0,0.0,22.0,0.0,0.0,30.0,0.0,0.0,0.0,0.5,0.0,0.0,23.0,0.0,0.0,-0.6,12.7,10.5,0.0,0.0,0.0,0.0,23.0,23.0,23.0,24.0,23.0,23.0,23.0,24.0,0.0,0.0,21.0,254.4,0.0,0.5,3.0,0.0,0.0,0.0,0.929,0.835,0.0,21.9,0.0,0.0,0.0,,0.0,0.0,23.0,-2.0,-3.1000000000000014,77.0,71.6,32.0,32.0,32.0,32.0,73.4,73.4,73.4,75.2,73.4,73.4,73.4,75.2,32.0,32.0,71.42,73.4,28.4,26.419999999999998,0.0,0.9276666666666666,0.0,388.4,2026-04-24 15:47:53-07:00
13.06,1.0,9.0,2026-04-24 22:48:06,37.08164,-121.59958,307.0,0.0,114.7,-12.6,0.0,,0.0,0.0,0.0,10.9,-1.3,42.9,0.0,330.0,0.0,-0.02,1.0,99.0,-78.0,25.0,0.0,30.02,1652.0,0.0,0.0,144.0,0.0,0.0,0.0,0.0,0.0,0.0,0.0,0.0,0.0,0.0,0.0,0.0,0.0,0.0,0.0,0.0,0.0,0.0,0.0,0.0,0.0,0.0,0.0,0.0,0.0,22.0,0.0,0.0,30.0,0.0,0.0,0.0,0.5,0.0,0.0,23.0,0.0,0.0,-0.6,12.7,10.5,0.0,0.0,0.0,0.0,23.0,23.0,23.0,24.0,23.0,23.0,23.0,24.0,0.0,0.0,21.0,254.4,0.0,0.5,3.0,0.0,0.0,0.0,0.929,0.836,0.0,21.9,0.0,0.0,0.0,,0.0,0.0,23.0,-2.0,-3.1000000000000014,77.0,71.6,32.0,32.0,32.0,32.0,73.4,73.4,73.4,75.2,73.4,73.4,73.4,75.2,32.0,32.0,71.42,73.4,28.4,26.419999999999998,0.0,0.9276666666666666,0.0,388.4,2026-04-24 15:47:53-07:00
14.06,1.0,9.0,2026-04-24 22:48:07,37.08164,-121.59958,306.0,0.1,114.7,-12.6,0.0,,0.0,0.0,0.0,10.9,-1.2,42.9,0.0,327.0,0.0,-0.02,1.0,99.0,-109.0,25.0,0.0,30.02,1652.0,0.0,0.0,144.0,0.0,0.0,0.0,0.0,0.0,0.0,0.0,0.0,0.0,0.0,0.0,0.0,0.0,0.0,0.0,0.0,0.0,0.0,0.0,0.0,0.0,0.0,0.0,0.0,0.0,22.0,0.0,0.0,30.0,0.0,0.0,0.0,0.5,0.0,0.0,23.0,0.0,0.0,-0.6,12.7,10.5,0.0,0.0,0.0,0.0,23.0,23.0,23.0,24.0,23.0,23.0,23.0,24.0,0.0,0.0,22.0,254.4,0.0,0.5,3.0,0.0,0.0,0.0,0.929,0.839,0.0,21.9,0.0,0.0,0.0,,0.0,0.0,23.0,-2.0,-3.1000000000000014,77.0,71.6,32.0,32.0,32.0,32.0,73.4,73.4,73.4,75.2,73.4,73.4,73.4,75.2,32.0,32.0,71.42,73.4,28.4,26.419999999999998,0.0,1.012,0.0,388.4,2026-04-24 15:47:53-07:00
15.06,1.0,9.0,2026-04-24 22:48:08,37.08164,-121.59958,306.0,0.0,114.7,-12.6,0.0,,0.0,0.0,0.0,10.9,-1.2,42.9,0.0,326.0,0.0,-0.02,1.0,99.0,-105.0,25.0,0.0,30.02,1652.0,0.0,0.0,144.0,0.0,0.0,0.0,0.0,0.0,0.0,0.0,0.0,0.0,0.0,0.0,0.0,0.0,0.0,0.0,0.0,0.0,0.0,0.0,0.0,0.0,0.0,0.0,0.0,0.0,22.0,0.0,0.0,30.0,0.0,0.0,0.0,0.5,0.0,0.0,23.0,0.0,0.0,-0.6,12.7,10.5,0.0,0.0,0.0,0.0,23.0,23.0,23.0,24.0,23.0,23.0,23.0,24.0,0.0,0.0,22.0,254.4,0.0,0.5,3.0,0.0,0.0,0.0,0.93,0.839,0.0,21.9,0.0,0.0,0.0,,0.0,0.0,23.0,-2.0,-3.1000000000000014,77.0,71.6,32.0,32.0,32.0,32.0,73.4,73.4,73.4,75.2,73.4,73.4,73.4,75.2,32.0,32.0,71.42,73.4,28.4,26.419999999999998,0.0,1.0963333333333334,0.0,388.4,2026-04-24 15:47:53-07:00
16.06,1.0,9.0,2026-04-24 22:48:09,37.08164,-121.59958,306.0,0.0,114.7,-12.6,0.0,,0.0,0.0,0.0,10.9,-1.2,42.9,0.0,326.0,0.0,-0.02,1.0,99.0,-55.0,25.0,0.0,30.02,1647.0,0.0,0.0,144.0,0.0,0.0,0.0,0.0,0.0,0.0,0.0,0.0,0.0,0.0,0.0,0.0,0.0,0.0,0.0,0.0,0.0,0.0,0.0,0.0,0.0,0.0,0.0,0.0,0.0,22.0,0.0,0.0,30.0,0.0,0.0,0.0,0.5,0.0,0.0,23.0,0.0,0.0,-0.6,12.7,10.5,0.0,0.0,0.0,0.0,23.0,23.0,23.0,24.0,23.0,23.0,23.0,24.0,0.0,0.0,22.0,254.4,0.0,0.5,3.0,0.0,0.0,0.0,0.93,0.839,0.0,21.9,0.0,0.0,0.0,,0.0,0.0,23.0,-2.0,-3.1000000000000014,77.0,71.6,32.0,32.0,32.0,32.0,73.4,73.4,73.4,75.2,73.4,73.4,73.4,75.2,32.0,32.0,71.42,73.4,28.4,26.419999999999998,0.0,1.0963333333333334,0.0,388.4,2026-04-24 15:47:53-07:00
17.06,1.0,9.0,2026-04-24 22:48:10,37.08164,-121.59958,306.0,0.0,114.7,-12.6,0.0,,0.0,0.0,0.0,10.9,-1.2,42.9,0.0,326.0,0.0,-0.02,1.0,99.0,-43.0,25.0,0.0,30.02,1647.0,0.0,0.0,144.0,0.0,0.0,0.0,0.0,0.0,0.0,0.0,0.0,0.0,0.0,0.0,0.0,0.0,0.0,0.0,0.0,0.0,0.0,0.0,0.0,0.0,0.0,0.0,0.0,0.0,22.0,0.0,0.0,30.0,0.0,0.0,0.0,0.5,0.0,0.0,23.0,0.0,0.0,-0.5,12.7,10.5,0.0,0.0,0.0,0.0,23.0,23.0,23.0,24.0,23.0,23.0,23.0,24.0,0.0,0.0,22.0,254.4,0.0,0.5,3.0,0.0,0.0,0.0,0.929,0.836,0.0,21.9,0.0,0.0,0.0,,0.0,0.0,23.0,-2.0,-3.1000000000000014,77.0,71.6,32.0,32.0,32.0,32.0,73.4,73.4,73.4,75.2,73.4,73.4,73.4,75.2,32.0,32.0,71.42,73.4,28.4,26.419999999999998,0.0,1.0963333333333334,0.0,388.4,2026-04-24 15:47:53-07:00
18.06,1.0,9.0,2026-04-24 22:48:11,37.08164,-121.59958,306.0,0.0,114.7,-12.6,0.0,,0.0,0.0,0.0,10.9,-1.2,42.9,0.0,326.0,0.1,-0.02,1.0,99.0,-12.0,25.0,0.0,30.02,1647.0,0.0,0.0,144.0,0.0,0.0,0.0,0.0,0.0,0.0,0.0,0.0,0.0,0.0,0.0,0.0,0.0,0.0,0.0,0.0,0.0,0.0,0.0,0.0,0.0,0.0,0.0,0.0,0.0,22.0,0.0,0.0,30.0,0.0,0.0,0.0,0.5,0.0,0.0,23.0,0.0,0.0,-0.5,12.7,10.5,0.0,0.0,0.0,0.0,23.0,23.0,23.0,24.0,23.0,23.0,23.0,24.0,0.0,0.0,22.0,254.4,0.0,0.5,3.0,0.0,0.0,0.0,0.93,0.834,0.0,21.9,0.0,0.0,0.0,,0.0,0.0,23.0,-2.0,-3.1000000000000014,77.0,71.6,32.0,32.0,32.0,32.0,73.4,73.4,73.4,75.2,73.4,73.4,73.4,75.2,32.0,32.0,71.42,73.4,28.4,26.419999999999998,0.0,1.0963333333333334,0.0,388.4,2026-04-24 15:47:53-07:00
19.06,1.0,9.0,2026-04-24 22:48:12,37.08164,-121.59958,306.0,0.0,114.7,-12.6,0.0,,0.0,0.0,0.0,10.9,-1.2,42.9,0.0,326.0,0.0,-0.02,1.0,99.0,-25.0,25.0,0.0,30.02,1647.0,0.0,0.0,144.0,0.0,0.0,0.0,0.0,0.0,0.0,0.0,0.0,0.0,0.0,0.0,0.0,0.0,0.0,0.0,0.0,0.0,0.0,0.0,0.0,0.0,0.0,0.0,0.0,0.0,22.0,0.0,0.0,30.0,0.0,0.0,0.0,0.5,0.0,0.0,23.0,0.0,0.0,-0.5,12.7,10.5,0.0,0.0,0.0,0.0,23.0,23.0,23.0,24.0,23.0,23.0,23.0,24.0,0.0,0.0,22.0,254.4,0.0,0.5,3.0,0.0,0.0,0.0,0.929,0.835,0.0,21.9,0.0,0.0,0.0,,0.0,0.0,23.0,-2.0,-3.1000000000000014,77.0,71.6,32.0,32.0,32.0,32.0,73.4,73.4,73.4,75.2,73.4,73.4,73.4,75.2,32.0,32.0,71.42,73.4,28.4,26.419999999999998,0.0,1.0963333333333334,0.0,388.4,2026-04-24 15:47:53-07:00
20.06,1.0,9.0,2026-04-24 22:48:13,37.08164,-121.59958,306.0,0.0,114.7,-12.6,0.0,,0.0,0.0,0.0,10.9,-1.3,42.9,0.0,325.0,0.0,-0.02,1.0,99.0,-17.0,25.0,0.0,30.02,1648.0,0.0,0.0,144.0,0.0,0.0,0.0,0.0,0.0,0.0,0.0,0.0,0.0,0.0,0.0,0.0,0.0,0.0,0.0,0.0,0.0,0.0,0.0,0.0,0.0,0.0,0.0,0.0,0.0,22.0,0.0,0.0,30.0,0.0,0.0,0.0,0.5,0.0,0.0,23.0,0.0,0.0,-0.5,12.7,10.5,0.0,0.0,0.0,0.0,23.0,23.0,23.0,24.0,23.0,23.0,23.0,24.0,0.0,0.0,22.0,254.4,0.0,0.5,3.0,0.0,0.0,0.0,0.929,0.833,0.0,21.9,0.0,0.0,0.0,,0.0,0.0,23.0,-2.0,-3.1000000000000014,77.0,71.6,32.0,32.0,32.0,32.0,73.4,73.4,73.4,75.2,73.4,73.4,73.4,75.2,32.0,32.0,71.42,73.4,28.4,26.419999999999998,0.0,1.0963333333333334,0.0,388.4,2026-04-24 15:47:53-07:00
21.06,1.0,9.0,2026-04-24 22:48:14,37.08164,-121.59958,306.0,0.0,114.7,-12.6,0.0,,0.0,0.0,0.0,10.9,-1.3,42.9,0.0,325.0,0.0,-0.02,1.0,99.0,-23.0,26.0,0.0,30.02,1648.0,0.0,0.0,144.0,0.0,0.0,0.0,0.0,0.0,0.0,0.0,0.0,0.0,0.0,0.0,0.0,0.0,0.0,0.0,0.0,0.0,0.0,0.0,0.0,0.0,0.0,0.0,0.0,0.0,22.0,0.0,0.0,30.0,0.0,0.0,0.0,0.5,0.0,0.0,23.0,0.0,0.0,-0.5,12.7,10.5,0.0,0.0,0.0,0.0,23.0,23.0,23.0,24.0,23.0,23.0,23.0,24.0,0.0,0.0,22.0,254.4,0.0,0.5,3.0,0.0,0.0,0.0,0.929,0.83,0.0,21.9,0.0,0.0,0.0,,0.0,0.0,23.0,-3.0,-4.100000000000001,78.8,71.6,32.0,32.0,32.0,32.0,73.4,73.4,73.4,75.2,73.4,73.4,73.4,75.2,32.0,32.0,71.42,73.4,26.6,24.619999999999997,0.0,1.0963333333333334,0.0,388.4,2026-04-24 15:47:53-07:00
22.06,1.0,9.0,2026-04-24 22:48:15,37.08164,-121.59958,306.0,0.0,114.7,-12.6,0.0,,0.0,0.0,0.0,10.9,-1.3,42.9,0.0,325.0,0.0,-0.02,1.0,99.0,-19.0,26.0,0.0,30.02,1648.0,0.0,0.0,144.0,0.0,0.0,0.0,0.0,0.0,0.0,0.0,0.0,0.0,0.0,0.0,0.0,0.0,0.0,0.0,0.0,0.0,0.0,0.0,0.0,0.0,0.0,0.0,0.0,0.0,22.0,0.0,0.0,30.0,0.0,0.0,0.0,0.5,0.0,0.0,23.0,0.0,0.0,-0.5,12.7,10.5,0.0,0.0,0.0,0.0,23.0,23.0,23.0,24.0,23.0,23.0,23.0,24.0,0.0,0.0,22.0,254.4,0.0,0.5,3.0,0.0,0.0,0.0,0.929,0.83,0.0,21.9,0.0,0.0,0.0,,0.0,0.0,23.0,-3.0,-4.100000000000001,78.8,71.6,32.0,32.0,32.0,32.0,73.4,73.4,73.4,75.2,73.4,73.4,73.4,75.2,32.0,32.0,71.42,73.4,26.6,24.619999999999997,0.0,1.0963333333333334,0.0,388.4,2026-04-24 15:47:53-07:00
23.06,1.0,9.0,2026-04-24 22:48:16,37.08164,-121.59958,306.0,0.0,114.7,-12.6,0.0,,0.0,0.0,0.0,10.9,-1.3,42.9,0.0,325.0,0.0,-0.02,1.0,99.0,-7.0,26.0,0.0,30.02,1656.0,0.0,0.0,144.0,0.0,0.0,0.0,0.0,0.0,0.0,0.0,0.0,0.0,0.0,0.0,0.0,0.0,0.0,0.0,0.0,0.0,0.0,0.0,0.0,0.0,0.0,0.0,0.0,0.0,22.0,0.0,0.0,30.0,0.0,0.0,0.0,0.5,0.0,0.0,23.0,0.0,0.0,-0.5,12.7,10.5,0.0,0.0,0.0,0.0,23.0,23.0,23.0,24.0,23.0,23.0,23.0,24.0,0.0,0.0,22.0,254.4,0.0,0.5,3.0,0.0,0.0,0.0,0.929,0.831,0.0,21.9,0.0,0.0,0.0,,0.0,0.0,23.0,-3.0,-4.100000000000001,78.8,71.6,32.0,32.0,32.0,32.0,73.4,73.4,73.4,75.2,73.4,73.4,73.4,75.2,32.0,32.0,71.42,73.4,26.6,24.619999999999997,0.0,1.0963333333333334,0.0,388.4,2026-04-24 15:47:53-07:00
24.06,1.0,9.0,2026-04-24 22:48:17,37.08164,-121.59958,306.0,0.0,114.7,-12.6,0.0,,0.0,0.0,0.0,10.9,-1.2,42.9,0.0,324.0,0.0,-0.02,1.0,99.0,-38.0,26.0,0.0,30.02,1656.0,0.0,0.0,144.0,0.0,0.0,0.0,0.0,0.0,0.0,0.0,0.0,0.0,0.0,0.0,0.0,0.0,0.0,0.0,0.0,0.0,0.0,0.0,0.0,0.0,0.0,0.0,0.0,0.0,22.0,0.0,0.0,30.0,0.0,0.0,0.0,0.4,0.0,0.0,23.0,0.0,0.0,-0.4,12.7,10.5,0.0,0.0,0.0,0.0,23.0,23.0,23.0,24.0,23.0,23.0,23.0,24.0,0.0,0.0,22.0,254.4,0.0,0.4,3.0,0.0,0.0,0.0,0.929,0.831,0.0,21.9,0.0,0.0,0.0,,0.0,0.0,23.0,-3.0,-4.100000000000001,78.8,71.6,32.0,32.0,32.0,32.0,73.4,73.4,73.4,75.2,73.4,73.4,73.4,75.2,32.0,32.0,71.42,73.4,26.6,24.619999999999997,0.0,1.0963333333333334,0.0,388.4,2026-04-24 15:47:53-07:00
25.06,1.0,9.0,2026-04-24 22:48:18,37.08164,-121.59958,306.0,0.0,114.7,-12.6,0.0,,0.0,0.0,0.0,10.9,-1.2,42.8,0.0,323.0,0.0,-0.02,1.0,99.0,-49.0,26.0,0.0,30.02,1656.0,0.0,0.0,144.0,0.0,0.0,0.0,0.0,0.0,0.0,0.0,0.0,0.0,0.0,0.0,0.0,0.0,0.0,0.0,0.0,0.0,0.0,0.0,0.0,0.0,0.0,0.0,0.0,0.0,22.0,0.0,0.0,30.0,0.0,0.0,0.0,0.4,0.0,0.0,23.0,0.0,0.0,-0.4,12.7,10.5,0.0,0.0,0.0,0.0,23.0,23.0,23.0,24.0,23.0,23.0,23.0,24.0,0.0,0.0,22.0,254.4,0.0,0.4,3.0,0.0,0.0,0.0,0.929,0.831,0.0,21.9,0.0,0.0,0.0,,0.0,0.0,23.0,-3.0,-4.100000000000001,78.8,71.6,32.0,32.0,32.0,32.0,73.4,73.4,73.4,75.2,73.4,73.4,73.4,75.2,32.0,32.0,71.42,73.4,26.6,24.619999999999997,0.0,1.0963333333333334,0.0,388.4,2026-04-24 15:47:53-07:00
26.06,1.0,9.0,2026-04-24 22:48:19,37.08164,-121.59958,307.0,0.0,114.7,-12.6,0.0,,0.0,0.0,0.0,10.9,-1.3,42.8,0.0,322.0,0.0,-0.02,1.0,99.0,-55.0,26.0,0.0,30.02,1654.0,0.0,0.0,144.0,0.0,0.0,0.0,0.0,0.0,0.0,0.0,0.0,0.0,0.0,0.0,0.0,0.0,0.0,0.0,0.0,0.0,0.0,0.0,0.0,0.0,0.0,0.0,0.0,0.0,22.0,0.0,0.0,30.0,0.0,0.0,0.0,0.1,0.0,0.0,23.0,0.0,0.0,-0.4,12.7,10.5,0.0,0.0,0.0,0.0,23.0,23.0,23.0,24.0,23.0,23.0,23.0,24.0,0.0,0.0,22.0,254.4,0.0,0.1,3.0,0.0,0.0,0.0,0.929,0.83,0.0,21.9,0.0,0.0,0.0,,0.0,0.0,23.0,-3.0,-4.100000000000001,78.8,71.6,32.0,32.0,32.0,32.0,73.4,73.4,73.4,75.2,73.4,73.4,73.4,75.2,32.0,32.0,71.42,73.4,26.6,24.619999999999997,0.0,1.0963333333333334,0.0,388.4,2026-04-24 15:47:53-07:00
27.06,1.0,9.0,2026-04-24 22:48:20,37.08164,-121.59958,307.0,0.0,114.7,-12.6,0.0,,0.0,0.0,0.0,10.9,-1.3,42.8,0.0,322.0,0.0,-0.02,1.0,99.0,-55.0,26.0,0.0,30.02,1654.0,0.0,0.0,144.0,0.0,0.0,0.0,0.0,0.0,0.0,0.0,0.0,0.0,0.0,0.0,0.0,0.0,0.0,0.0,0.0,0.0,0.0,0.0,0.0,0.0,0.0,0.0,0.0,0.0,22.0,0.0,0.0,30.0,0.0,0.0,0.0,0.0,0.0,0.0,23.0,0.0,0.0,-0.4,12.7,10.5,0.0,0.0,0.0,0.0,23.0,23.0,23.0,24.0,23.0,23.0,23.0,24.0,0.0,0.0,22.0,254.4,0.0,0.0,3.0,0.001,0.0,0.0,0.929,0.831,0.0,21.9,0.0,0.0,0.0,,0.0,0.0,23.0,-3.0,-4.100000000000001,78.8,71.6,32.0,32.0,32.0,32.0,73.4,73.4,73.4,75.2,73.4,73.4,73.4,75.2,32.0,32.0,71.42,73.4,26.6,24.619999999999997,0.0,1.0963333333333334,0.0,388.4,2026-04-24 15:47:53-07:00
28.06,1.0,9.0,2026-04-24 22:48:21,37.08164,-121.59958,307.0,0.1,114.7,-12.6,0.0,,0.0,0.0,0.0,10.9,-1.3,42.8,0.0,320.0,0.0,-0.02,1.0,99.0,-68.0,26.0,0.0,30.02,1654.0,0.0,0.0,144.0,0.0,0.0,0.0,0.0,0.0,0.0,0.0,0.0,0.0,0.0,0.0,0.0,0.0,0.0,0.0,0.0,0.0,0.0,0.0,0.0,0.0,0.0,0.0,0.0,0.0,22.0,0.0,0.0,30.0,0.0,0.0,0.0,32.3,0.0,0.0,23.0,0.0,0.0,-0.4,12.7,10.5,0.0,0.0,0.0,0.0,23.0,23.0,23.0,24.0,23.0,23.0,23.0,24.0,0.0,0.0,23.0,254.4,0.0,32.3,3.0,0.001,0.0,0.0,0.929,0.831,0.0,21.9,0.0,0.0,0.0,,0.0,0.0,23.0,-3.0,-4.100000000000001,78.8,71.6,32.0,32.0,32.0,32.0,73.4,73.4,73.4,75.2,73.4,73.4,73.4,75.2,32.0,32.0,71.42,73.4,26.6,24.619999999999997,0.0,1.1806666666666665,0.0,388.4,2026-04-24 15:47:53-07:00
29.06,1.0,9.0,2026-04-24 22:48:22,37.08164,-121.59958,307.0,0.0,114.7,-12.6,0.0,,0.0,0.0,0.0,10.9,-1.3,42.8,0.0,317.0,0.0,-0.02,1.0,99.0,-101.0,26.0,0.0,30.02,1649.0,0.0,0.0,144.0,0.0,0.0,0.0,0.0,0.0,0.0,0.0,0.0,0.0,0.0,0.0,0.0,0.0,0.0,0.0,0.0,0.0,0.0,0.0,0.0,0.0,0.0,0.0,0.0,0.0,22.0,0.0,0.0,30.0,0.0,0.0,0.0,33.7,0.0,0.0,23.0,0.0,0.0,-0.4,12.7,10.5,0.0,0.0,0.0,0.0,23.0,23.0,23.0,24.0,23.0,23.0,23.0,24.0,0.0,0.0,23.0,254.4,0.0,33.7,3.0,0.001,0.0,0.0,0.929,0.83,0.0,21.9,0.0,0.0,0.0,,0.0,0.0,23.0,-3.0,-4.100000000000001,78.8,71.6,32.0,32.0,32.0,32.0,73.4,73.4,73.4,75.2,73.4,73.4,73.4,75.2,32.0,32.0,71.42,73.4,26.6,24.619999999999997,0.0,1.265,0.0,388.4,2026-04-24 15:47:53-07:00
30.06,1.0,9.0,2026-04-24 22:48:23,37.08164,-121.59958,307.0,0.1,114.7,-12.6,0.0,,0.0,0.0,0.0,10.9,-1.3,42.8,0.0,315.0,0.0,-0.02,1.0,99.0,-121.0,26.0,0.0,30.02,1649.0,0.0,0.0,144.0,0.0,0.0,0.0,0.0,0.0,0.0,0.0,0.0,0.0,0.0,0.0,0.0,0.0,0.0,0.0,0.0,0.0,0.0,0.0,0.0,0.0,0.0,0.0,0.0,0.0,22.0,0.0,0.0,30.0,0.0,0.0,0.0,33.1,0.0,0.0,23.0,0.0,0.0,-0.4,12.7,10.5,0.0,0.0,0.0,0.0,23.0,24.0,23.0,24.0,23.0,24.0,23.0,24.0,0.0,0.0,23.0,254.4,0.0,33.1,3.0,0.001,0.0,0.0,0.929,0.83,0.0,21.9,0.0,0.0,0.0,,0.0,0.0,23.0,-3.0,-4.100000000000001,78.8,71.6,32.0,32.0,32.0,32.0,73.4,75.2,73.4,75.2,73.4,75.2,73.4,75.2,32.0,32.0,71.42,73.4,26.6,24.619999999999997,0.0,1.3493333333333333,0.0,388.4,2026-04-24 15:47:53-07:00
31.06,1.0,9.0,2026-04-24 22:48:24,37.08164,-121.59958,308.0,0.0,114.7,-12.6,0.0,,0.0,0.0,0.0,10.9,-1.3,42.8,0.0,312.0,0.0,-0.02,1.0,99.0,-138.0,26.0,0.0,30.02,1649.0,0.0,0.0,144.0,0.0,0.0,0.0,0.0,0.0,0.0,0.0,0.0,0.0,0.0,0.0,0.0,0.0,0.0,0.0,0.0,0.0,0.0,0.0,0.0,0.0,0.0,0.0,0.0,0.0,22.0,0.0,0.0,30.0,0.0,0.0,0.0,31.9,0.0,0.0,23.0,0.0,0.0,-0.4,12.7,10.5,0.0,0.0,0.0,0.0,23.0,24.0,23.0,24.0,23.0,24.0,23.0,24.0,0.0,0.0,23.0,254.3,0.0,31.9,3.0,0.001,0.0,0.0,0.929,0.83,0.0,21.9,0.0,0.0,0.0,,0.0,0.0,23.0,-3.0,-4.100000000000001,78.8,71.6,32.0,32.0,32.0,32.0,73.4,75.2,73.4,75.2,73.4,75.2,73.4,75.2,32.0,32.0,71.42,73.4,26.6,24.619999999999997,0.0,1.4336666666666666,0.0,388.4,2026-04-24 15:47:53-07:00
32.06,1.0,9.0,2026-04-24 22:48:25,37.08164,-121.59958,308.0,0.0,114.7,-12.6,0.0,,0.0,0.0,0.0,10.9,-1.3,42.8,0.0,311.0,0.0,-0.02,1.0,99.0,-129.0,26.0,0.0,30.02,1650.0,0.0,0.0,144.0,0.0,0.0,0.0,0.0,0.0,0.0,0.0,0.0,0.0,0.0,0.0,0.0,0.0,0.0,0.0,0.0,0.0,0.0,0.0,0.0,0.0,0.0,0.0,0.0,0.0,22.0,0.0,0.0,30.0,1.1,0.0,1.1,31.8,0.0,0.0,23.0,0.0,0.0,-0.4,12.7,10.5,0.0,0.0,0.0,0.0,23.0,23.0,23.0,24.0,23.0,23.0,23.0,24.0,0.0,0.0,23.0,254.3,0.0,31.8,3.0,0.001,0.0,0.0,0.929,0.83,0.0,21.9,0.0,0.0,0.0,,0.0,0.0,23.0,-3.0,-4.100000000000001,78.8,71.6,32.0,32.0,32.0,32.0,73.4,73.4,73.4,75.2,73.4,73.4,73.4,75.2,32.0,32.0,71.42,73.4,26.6,24.619999999999997,0.00015277777777777834,1.4336666666666666,0.0,388.4,2026-04-24 15:47:53-07:00
33.06,1.0,9.0,2026-04-24 22:48:26,37.08164,-121.59958,308.0,0.0,114.7,-12.6,0.0,,0.0,0.0,0.0,10.9,-1.3,42.9,0.0,309.0,0.0,-0.02,1.0,99.0,-111.0,26.0,0.0,30.02,1650.0,0.0,0.0,144.0,0.0,0.0,0.0,0.0,0.0,0.0,0.0,0.0,0.0,0.0,0.0,0.0,0.0,0.0,0.0,0.0,0.0,0.0,0.0,0.0,0.0,0.0,0.0,0.0,0.0,22.0,0.0,0.0,30.0,1.9,0.0,1.9,31.6,0.0,0.0,23.0,0.0,0.0,-0.4,12.7,10.5,0.0,0.0,0.0,0.0,23.0,23.0,23.0,24.0,23.0,23.0,23.0,24.0,0.0,0.0,23.0,254.3,0.0,31.6,3.0,0.001,0.0,0.0,0.929,0.83,0.0,21.9,0.0,0.0,0.0,,0.0,0.0,23.0,-3.0,-4.100000000000001,78.8,71.6,32.0,32.0,32.0,32.0,73.4,73.4,73.4,75.2,73.4,73.4,73.4,75.2,32.0,32.0,71.42,73.4,26.6,24.619999999999997,0.000569444444444445,1.4336666666666666,0.0,388.4,2026-04-24 15:47:53-07:00
34.06,1.0,9.0,2026-04-24 22:48:27,37.08164,-121.59958,308.0,0.0,114.7,-12.6,0.0,,0.0,0.0,0.0,10.9,-1.3,42.9,0.0,308.0,0.0,-0.02,1.0,99.0,-100.0,26.0,0.0,30.02,1650.0,0.0,0.0,144.0,0.0,0.0,0.0,0.0,0.0,0.0,0.0,0.0,0.0,0.0,0.0,0.0,0.0,0.0,0.0,0.0,0.0,0.0,0.0,0.0,0.0,0.0,0.0,0.0,0.0,22.0,0.0,0.0,30.0,2.5,0.0,2.5,31.6,0.0,0.0,23.0,0.0,0.0,-0.4,12.7,10.5,0.0,0.0,0.0,0.0,23.0,23.0,23.0,24.0,23.0,23.0,23.0,24.0,0.0,0.0,23.0,254.3,0.0,31.6,3.0,0.001,0.0,0.0,0.929,0.83,0.0,21.9,0.0,0.0,0.0,,0.0,0.0,23.0,-3.0,-4.100000000000001,78.8,71.6,32.0,32.0,32.0,32.0,73.4,73.4,73.4,75.2,73.4,73.4,73.4,75.2,32.0,32.0,71.42,73.4,26.6,24.619999999999997,0.0011805555555555562,1.4336666666666666,0.0,388.4,2026-04-24 15:47:53-07:00
35.06,1.0,9.0,2026-04-24 22:48:28,37.08164,-121.59958,308.0,0.0,114.7,-12.6,0.0,,0.0,0.0,0.0,10.9,-1.3,42.9,0.0,307.0,0.0,-0.02,1.0,99.0,-97.0,26.0,0.0,30.02,1644.0,0.0,0.0,144.0,0.0,0.0,0.0,0.0,0.0,0.0,0.0,0.0,0.0,0.0,0.0,0.0,0.0,0.0,0.0,0.0,0.0,0.0,0.0,0.0,0.0,0.0,0.0,0.0,0.0,22.0,0.0,0.0,30.0,3.0,0.0,3.0,31.6,0.0,0.0,23.0,0.0,0.0,-0.4,12.7,10.5,0.0,0.0,0.0,0.0,23.0,24.0,23.0,24.0,23.0,24.0,23.0,24.0,0.0,0.0,23.0,254.3,0.0,31.6,3.0,0.001,0.0,0.0,0.929,0.83,0.0,21.9,0.0,0.0,0.0,,0.0,0.0,23.0,-3.0,-4.100000000000001,78.8,71.6,32.0,32.0,32.0,32.0,73.4,75.2,73.4,75.2,73.4,75.2,73.4,75.2,32.0,32.0,71.42,73.4,26.6,24.619999999999997,0.001944444444444445,1.4336666666666666,0.0,388.4,2026-04-24 15:47:53-07:00
36.06,1.0,9.0,2026-04-24 22:48:29,37.08164,-121.59958,309.0,0.0,114.7,-12.6,0.0,,0.0,0.0,0.0,10.9,-1.3,42.9,0.0,306.0,0.0,-0.02,1.0,99.0,-78.0,26.0,0.0,30.02,1644.0,0.0,0.0,144.0,0.0,0.0,0.0,0.0,0.0,0.0,0.0,0.0,0.0,0.0,0.0,0.0,0.0,0.0,0.0,0.0,0.0,0.0,0.0,0.0,0.0,0.0,0.0,0.0,0.0,22.0,0.0,0.0,30.0,3.4,0.0,3.4,31.6,0.0,0.0,23.0,0.0,0.0,-0.4,12.7,10.5,0.0,0.0,0.0,0.0,23.0,23.0,23.0,24.0,23.0,23.0,23.0,24.0,0.0,0.0,23.0,254.3,0.0,31.6,3.0,0.001,0.0,0.0,0.929,0.83,0.0,21.9,0.0,0.0,0.0,,0.0,0.0,23.0,-3.0,-4.100000000000001,78.8,71.6,32.0,32.0,32.0,32.0,73.4,73.4,73.4,75.2,73.4,73.4,73.4,75.2,32.0,32.0,71.42,73.4,26.6,24.619999999999997,0.002833333333333334,1.4336666666666666,0.0,388.4,2026-04-24 15:47:53-07:00
37.06,1.0,9.0,2026-04-24 22:48:30,37.08164,-121.59958,309.0,0.0,114.7,-12.6,0.0,,0.0,0.0,0.0,10.9,-1.3,42.8,0.0,304.0,0.0,-0.02,1.0,99.0,-92.0,26.0,0.0,30.02,1644.0,0.0,0.0,144.0,0.0,0.0,0.0,0.0,0.0,0.0,0.0,0.0,0.0,0.0,0.0,0.0,0.0,0.0,0.0,0.0,0.0,0.0,0.0,0.0,0.0,0.0,0.0,0.0,0.0,22.0,0.0,0.0,30.0,3.1,0.0,3.1,33.7,0.0,0.0,23.0,0.0,0.0,-0.4,12.7,10.5,0.0,0.0,0.0,0.0,23.0,23.0,23.0,24.0,23.0,23.0,23.0,24.0,0.0,0.0,23.0,254.3,0.0,33.7,3.0,0.001,0.0,0.0,0.929,0.83,0.0,21.9,0.0,0.0,0.0,,0.0,0.0,23.0,-3.0,-4.100000000000001,78.8,71.6,32.0,32.0,32.0,32.0,73.4,73.4,73.4,75.2,73.4,73.4,73.4,75.2,32.0,32.0,71.42,73.4,26.6,24.619999999999997,0.003736111111111112,1.4336666666666666,0.0,388.4,2026-04-24 15:47:53-07:00
38.06,1.0,9.0,2026-04-24 22:48:31,37.08164,-121.59958,309.0,0.0,114.7,-12.6,0.0,,0.0,0.0,0.0,10.9,-1.3,42.8,0.0,303.0,0.0,-0.02,1.0,99.0,-88.0,26.0,0.0,30.02,1639.0,0.0,0.0,144.0,0.0,0.0,0.0,0.0,0.0,0.0,0.0,0.0,0.0,0.0,0.0,0.0,0.0,0.0,0.0,0.0,0.0,0.0,0.0,0.0,0.0,0.0,0.0,0.0,0.0,22.0,0.0,0.0,30.0,3.1,0.0,3.1,32.8,0.0,0.0,23.0,0.0,0.0,-0.4,12.7,10.5,0.0,0.0,0.0,0.0,23.0,23.0,23.0,24.0,23.0,23.0,23.0,24.0,0.0,0.0,23.0,254.3,0.0,32.8,3.0,0.0,0.0,0.0,0.929,0.83,0.0,21.9,0.0,0.0,0.0,,0.0,0.0,23.0,-3.0,-4.100000000000001,78.8,71.6,32.0,32.0,32.0,32.0,73.4,73.4,73.4,75.2,73.4,73.4,73.4,75.2,32.0,32.0,71.42,73.4,26.6,24.619999999999997,0.004597222222222223,1.4336666666666666,0.0,388.4,2026-04-24 15:47:53-07:00
39.06,1.0,9.0,2026-04-24 22:48:32,37.08164,-121.59958,309.0,0.0,114.7,-12.6,0.0,,0.0,0.0,0.0,10.9,-1.3,42.8,0.0,302.0,0.0,-0.02,1.0,99.0,-42.0,26.0,0.0,30.02,1640.0,0.0,0.0,144.0,0.0,0.0,0.0,0.0,0.0,0.0,0.0,0.0,0.0,0.0,0.0,0.0,0.0,0.0,0.0,0.0,0.0,0.0,0.0,0.0,0.0,0.0,0.0,0.0,0.0,22.0,0.0,0.0,30.0,3.1,0.0,3.1,32.5,0.0,0.0,23.0,0.0,0.0,-0.5,12.7,10.5,0.0,0.0,0.0,0.0,23.0,23.0,23.0,24.0,23.0,23.0,23.0,24.0,0.0,0.0,23.0,254.3,0.0,32.5,3.0,0.0,0.0,0.0,0.929,0.83,0.0,21.9,0.0,0.0,0.0,,0.0,0.0,23.0,-3.0,-4.100000000000001,78.8,71.6,32.0,32.0,32.0,32.0,73.4,73.4,73.4,75.2,73.4,73.4,73.4,75.2,32.0,32.0,71.42,73.4,26.6,24.619999999999997,0.005458333333333334,1.4336666666666666,0.0,388.4,2026-04-24 15:47:53-07:00
40.06,1.0,9.0,2026-04-24 22:48:33,37.08164,-121.59959,309.0,0.0,114.7,-12.6,0.0,,0.0,0.0,0.0,10.9,-1.3,42.9,0.0,302.0,0.0,-0.02,1.0,99.0,9.0,26.0,0.0,30.02,1640.0,0.0,0.0,144.0,0.0,0.0,0.0,0.0,0.0,0.0,0.0,0.0,0.0,0.0,0.0,0.0,0.0,0.0,0.0,0.0,0.0,0.0,0.0,0.0,0.0,0.0,0.0,0.0,0.0,22.0,0.0,0.0,30.0,0.0,0.0,0.0,32.3,0.0,0.0,23.0,0.0,0.0,-0.5,12.7,10.5,0.0,0.0,0.0,0.0,23.0,24.0,23.0,24.0,23.0,24.0,23.0,24.0,0.0,0.0,23.0,254.3,0.0,32.3,3.0,0.0,0.0,0.0,0.929,0.83,0.0,21.9,0.0,0.0,0.0,,0.0,0.0,23.0,-3.0,-4.100000000000001,78.8,71.6,32.0,32.0,32.0,32.0,73.4,75.2,73.4,75.2,73.4,75.2,73.4,75.2,32.0,32.0,71.42,73.4,26.6,24.619999999999997,0.00588888888888889,1.4336666666666666,0.0,388.4,2026-04-24 15:47:53-07:00
41.06,1.0,9.0,2026-04-24 22:48:34,37.08164,-121.59959,309.0,0.0,114.7,-12.6,0.0,,0.0,0.0,0.0,10.8,-1.3,42.9,0.0,302.0,0.0,-0.02,1.0,99.0,-1.0,26.0,0.0,30.02,1640.0,0.0,0.0,144.0,0.0,0.0,0.0,0.0,0.0,0.0,0.0,0.0,0.0,0.0,0.0,0.0,0.0,0.0,0.0,0.0,0.0,0.0,0.0,0.0,0.0,0.0,0.0,0.0,0.0,22.0,0.0,0.0,30.0,0.0,0.0,0.0,32.0,0.0,0.0,23.0,0.0,0.0,-0.5,12.7,10.5,0.0,0.0,0.0,0.0,23.0,24.0,23.0,24.0,23.0,24.0,23.0,24.0,0.0,0.0,23.0,254.3,0.0,32.0,3.0,0.0,0.0,0.0,0.929,0.83,0.0,21.9,0.0,0.0,0.0,,0.0,0.0,23.0,-3.0,-4.100000000000001,78.8,71.6,32.0,32.0,32.0,32.0,73.4,75.2,73.4,75.2,73.4,75.2,73.4,75.2,32.0,32.0,71.42,73.4,26.6,24.619999999999997,0.00588888888888889,1.4336666666666666,0.0,388.4,2026-04-24 15:47:53-07:00
42.06,1.0,9.0,2026-04-24 22:48:35,37.08164,-121.59959,309.0,0.1,114.7,-12.6,0.0,,0.0,0.0,0.0,10.8,-1.3,42.9,0.0,302.0,0.0,-0.02,1.0,99.0,8.0,26.0,0.0,30.02,1648.0,0.0,0.0,144.0,0.0,0.0,0.0,0.0,0.0,0.0,0.0,0.0,0.0,0.0,0.0,0.0,0.0,0.0,0.0,0.0,0.0,0.0,0.0,0.0,0.0,0.0,0.0,0.0,0.0,22.0,0.0,0.0,30.0,0.0,0.0,0.0,31.9,0.0,0.0,23.0,0.0,0.0,-0.5,12.7,10.5,0.0,0.0,0.0,0.0,23.0,24.0,23.0,24.0,23.0,24.0,23.0,24.0,0.0,0.0,23.0,225.0,0.0,31.9,3.0,0.0,0.0,0.0,0.929,0.83,0.0,21.9,0.0,0.0,0.0,,0.0,0.0,23.0,-3.0,-4.100000000000001,78.8,71.6,32.0,32.0,32.0,32.0,73.4,75.2,73.4,75.2,73.4,75.2,73.4,75.2,32.0,32.0,71.42,73.4,26.6,24.619999999999997,0.00588888888888889,1.518,0.0,388.4,2026-04-24 15:47:53-07:00
43.06,1.0,9.0,2026-04-24 22:48:36,37.08164,-121.59959,309.0,0.0,114.7,-12.6,0.0,,0.0,0.0,0.0,10.8,-1.2,42.9,0.0,302.0,0.0,-0.02,1.0,99.0,-37.0,26.0,0.0,30.02,1648.0,0.0,0.0,144.0,0.0,0.0,0.0,0.0,0.0,0.0,0.0,0.0,0.0,0.0,0.0,0.0,0.0,0.0,0.0,0.0,0.0,0.0,0.0,0.0,0.0,0.0,0.0,0.0,0.0,22.0,0.0,0.0,30.0,0.0,0.0,0.0,31.7,0.0,0.0,23.0,0.0,0.0,-0.5,12.7,10.5,0.0,0.0,0.0,0.0,23.0,24.0,23.0,24.0,23.0,24.0,23.0,24.0,0.0,0.0,23.0,175.2,0.0,31.7,3.0,0.001,0.0,0.0,0.929,0.83,0.0,21.9,0.0,0.0,0.0,,0.0,0.0,23.0,-3.0,-4.100000000000001,78.8,71.6,32.0,32.0,32.0,32.0,73.4,75.2,73.4,75.2,73.4,75.2,73.4,75.2,32.0,32.0,71.42,73.4,26.6,24.619999999999997,0.00588888888888889,1.6023333333333332,0.0,388.4,2026-04-24 15:47:53-07:00
44.06,1.0,9.0,2026-04-24 22:48:37,37.08164,-121.59959,309.0,0.0,114.7,-12.6,0.0,,0.0,0.0,0.0,10.8,-1.2,43.0,0.0,301.0,0.0,-0.02,1.0,99.0,-62.0,26.0,0.0,30.02,1648.0,0.0,0.0,144.0,0.0,0.0,0.0,0.0,0.0,0.0,0.0,0.0,0.0,0.0,0.0,0.0,0.0,0.0,0.0,0.0,0.0,0.0,0.0,0.0,0.0,0.0,0.0,0.0,0.0,22.0,0.0,0.0,30.0,0.0,0.0,0.0,31.6,0.0,0.0,23.0,0.0,0.0,-0.5,12.7,10.5,0.0,0.0,0.0,0.0,23.0,24.0,23.0,24.0,23.0,24.0,23.0,24.0,0.0,0.0,23.0,136.4,0.0,31.6,3.0,0.0,0.0,0.0,0.929,0.83,0.0,21.9,0.0,0.0,0.0,,0.0,0.0,23.0,-3.0,-4.100000000000001,78.8,71.6,32.0,32.0,32.0,32.0,73.4,75.2,73.4,75.2,73.4,75.2,73.4,75.2,32.0,32.0,71.42,73.4,26.6,24.619999999999997,0.00588888888888889,1.6023333333333332,0.0,388.4,2026-04-24 15:47:53-07:00
45.06,1.0,9.0,2026-04-24 22:48:38,37.08164,-121.59959,309.0,0.0,114.7,-12.6,0.0,,0.0,0.0,0.0,10.9,-1.3,42.9,0.0,300.0,0.1,-0.02,1.0,99.0,-52.0,26.0,0.0,30.02,1647.0,0.0,0.0,144.0,0.0,0.0,0.0,0.0,0.0,0.0,0.0,0.0,0.0,0.0,0.0,0.0,0.0,0.0,0.0,0.0,0.0,0.0,0.0,0.0,0.0,0.0,0.0,0.0,0.0,22.0,0.0,0.0,30.0,0.0,0.0,0.0,31.4,0.0,0.0,23.0,0.0,0.0,-0.5,12.7,10.5,0.0,0.0,0.0,0.0,23.0,24.0,23.0,24.0,23.0,24.0,23.0,24.0,0.0,0.0,23.0,106.2,0.0,31.4,3.0,0.0,0.0,0.0,0.929,0.83,0.0,21.9,0.0,0.0,0.0,,0.0,0.0,23.0,-3.0,-4.100000000000001,78.8,71.6,32.0,32.0,32.0,32.0,73.4,75.2,73.4,75.2,73.4,75.2,73.4,75.2,32.0,32.0,71.42,73.4,26.6,24.619999999999997,0.00588888888888889,1.6023333333333332,0.0,388.4,2026-04-24 15:47:53-07:00
46.06,1.0,9.0,2026-04-24 22:48:39,37.08164,-121.59959,309.0,0.0,114.7,-12.6,0.0,,0.0,0.0,0.0,10.9,-1.3,42.9,0.0,300.0,0.0,-0.02,1.0,99.0,-26.0,26.0,0.0,30.02,1647.0,0.0,0.0,144.0,0.0,0.0,0.0,0.0,0.0,0.0,0.0,0.0,0.0,0.0,0.0,0.0,0.0,0.0,0.0,0.0,0.0,0.0,0.0,0.0,0.0,0.0,0.0,0.0,0.0,22.0,0.0,0.0,30.0,0.0,0.0,0.0,31.2,0.0,0.0,23.0,0.0,0.0,-0.5,12.7,10.5,0.0,0.0,0.0,0.0,23.0,24.0,23.0,24.0,23.0,24.0,23.0,24.0,0.0,0.0,23.0,82.8,0.0,31.2,3.0,0.0,0.0,0.0,0.929,0.83,0.0,21.9,0.0,0.0,0.0,,0.0,0.0,23.0,-3.0,-4.100000000000001,78.8,71.6,32.0,32.0,32.0,32.0,73.4,75.2,73.4,75.2,73.4,75.2,73.4,75.2,32.0,32.0,71.42,73.4,26.6,24.619999999999997,0.00588888888888889,1.6023333333333332,0.0,388.4,2026-04-24 15:47:53-07:00
47.06,1.0,9.0,2026-04-24 22:48:40,37.08164,-121.59959,309.0,0.0,114.7,-12.6,0.0,,0.0,0.0,0.0,10.9,-1.3,42.9,0.0,300.0,0.0,-0.02,1.0,99.0,6.0,26.0,0.0,30.02,1647.0,0.0,0.0,144.0,0.0,0.0,0.0,0.0,0.0,0.0,0.0,0.0,0.0,0.0,0.0,0.0,0.0,0.0,0.0,0.0,0.0,0.0,0.0,0.0,0.0,0.0,0.0,0.0,0.0,22.0,0.0,0.0,30.0,0.0,0.0,0.0,31.2,0.0,0.0,23.0,0.0,0.0,-0.5,12.7,10.5,0.0,0.0,0.0,0.0,23.0,24.0,23.0,24.0,23.0,24.0,23.0,24.0,0.0,0.0,23.0,64.5,0.0,31.2,3.0,0.0,0.0,0.0,0.929,0.83,0.0,21.9,0.0,0.0,0.0,,0.0,0.0,23.0,-3.0,-4.100000000000001,78.8,71.6,32.0,32.0,32.0,32.0,73.4,75.2,73.4,75.2,73.4,75.2,73.4,75.2,32.0,32.0,71.42,73.4,26.6,24.619999999999997,0.00588888888888889,1.6023333333333332,0.0,388.4,2026-04-24 15:47:53-07:00
48.06,1.0,9.0,2026-04-24 22:48:41,37.08164,-121.59959,309.0,0.1,114.7,-12.6,0.0,,0.0,0.0,0.0,10.9,-1.3,42.8,0.0,300.0,0.1,-0.02,1.0,99.0,22.0,26.0,0.0,30.02,1646.0,0.0,0.0,144.0,0.0,0.0,0.0,0.0,0.0,0.0,0.0,0.0,0.0,0.0,0.0,0.0,0.0,0.0,0.0,0.0,0.0,0.0,0.0,0.0,0.0,0.0,0.0,0.0,0.0,22.0,0.0,0.0,30.0,0.0,0.0,0.0,31.1,0.0,0.0,23.0,0.0,0.0,-0.5,12.7,10.5,0.0,0.0,0.0,0.0,23.0,24.0,23.0,24.0,23.0,24.0,23.0,24.0,0.0,0.0,23.0,50.4,0.0,31.1,3.0,0.0,0.0,0.0,1.085,0.841,0.0,21.9,0.0,0.0,0.0,,0.0,0.0,23.0,-3.0,-4.100000000000001,78.8,71.6,32.0,32.0,32.0,32.0,73.4,75.2,73.4,75.2,73.4,75.2,73.4,75.2,32.0,32.0,71.42,73.4,26.6,24.619999999999997,0.00588888888888889,1.6866666666666665,0.0,388.4,2026-04-24 15:47:53-07:00
49.06,1.0,9.0,2026-04-24 22:48:42,37.08164,-121.59959,309.0,0.0,114.7,-12.6,0.0,,0.0,0.0,0.0,10.9,-1.3,42.8,0.0,300.0,0.0,-0.02,1.0,99.0,39.0,26.0,0.0,30.02,1646.0,0.0,0.0,144.0,0.0,0.0,0.0,0.0,0.0,0.0,0.0,0.0,0.0,0.0,0.0,0.0,0.0,0.0,0.0,0.0,0.0,0.0,0.0,0.0,0.0,0.0,0.0,0.0,0.0,22.0,0.0,0.0,30.0,0.0,0.0,0.0,30.9,0.0,0.0,23.0,0.0,0.0,-0.5,12.7,10.5,0.0,0.0,0.0,0.0,23.0,24.0,23.0,24.0,23.0,24.0,23.0,24.0,0.0,0.0,23.0,39.4,0.0,30.9,3.0,0.0,0.0,0.0,1.064,0.874,0.0,21.9,0.0,0.0,0.0,,0.0,0.0,23.0,-3.0,-4.100000000000001,78.8,71.6,32.0,32.0,32.0,32.0,73.4,75.2,73.4,75.2,73.4,75.2,73.4,75.2,32.0,32.0,71.42,73.4,26.6,24.619999999999997,0.00588888888888889,1.771,0.0,388.4,2026-04-24 15:47:53-07:00
50.06,1.0,9.0,2026-04-24 22:48:43,37.08164,-121.59959,309.0,0.0,114.7,-12.6,0.0,,0.0,0.0,0.0,10.9,-1.3,42.8,0.0,300.0,0.0,-0.02,1.0,99.0,35.0,26.0,0.0,30.02,1647.0,0.0,0.0,144.0,0.0,0.0,0.0,0.0,0.0,0.0,0.0,0.0,0.0,0.0,0.0,0.0,0.0,0.0,0.0,0.0,0.0,0.0,0.0,0.0,0.0,0.0,0.0,0.0,0.0,22.0,0.0,0.0,30.0,0.0,0.0,0.0,30.8,0.0,0.0,23.0,0.0,0.0,-0.5,12.7,10.5,0.0,0.0,0.0,0.0,23.0,24.0,23.0,24.0,23.0,24.0,23.0,24.0,0.0,0.0,23.0,30.8,0.0,30.8,3.0,0.0,0.0,0.0,0.952,0.879,0.0,21.9,0.0,0.0,0.0,,0.0,0.0,23.0,-3.0,-4.100000000000001,78.8,71.6,32.0,32.0,32.0,32.0,73.4,75.2,73.4,75.2,73.4,75.2,73.4,75.2,32.0,32.0,71.42,73.4,26.6,24.619999999999997,0.00588888888888889,1.771,0.0,388.4,2026-04-24 15:47:53-07:00
51.06,1.0,9.0,2026-04-24 22:48:44,37.08164,-121.59959,309.0,0.0,114.7,-12.6,0.0,,0.0,0.0,0.0,11.0,-1.2,42.8,0.0,300.0,0.0,-0.02,1.0,99.0,21.0,26.0,0.0,30.02,1647.0,0.0,0.0,144.0,0.0,0.0,0.0,0.0,0.0,0.0,0.0,0.0,0.0,0.0,0.0,0.0,0.0,0.0,0.0,0.0,0.0,0.0,0.0,0.0,0.0,0.0,0.0,0.0,0.0,22.0,0.0,0.0,30.0,0.0,0.0,0.0,30.7,0.0,0.0,23.0,0.0,0.0,-0.5,12.7,10.5,0.0,0.0,0.0,0.0,23.0,24.0,23.0,24.0,23.0,24.0,23.0,24.0,0.0,0.0,23.0,24.2,0.0,30.7,3.0,0.0,0.0,0.0,0.929,0.84,0.0,21.9,0.0,0.0,0.0,,0.0,0.0,23.0,-3.0,-4.100000000000001,78.8,71.6,32.0,32.0,32.0,32.0,73.4,75.2,73.4,75.2,73.4,75.2,73.4,75.2,32.0,32.0,71.42,73.4,26.6,24.619999999999997,0.00588888888888889,1.771,0.0,388.4,2026-04-24 15:47:53-07:00
52.06,1.0,9.0,2026-04-24 22:48:45,37.08164,-121.59959,309.0,0.0,114.7,-12.6,0.0,,0.0,0.0,0.0,10.9,-1.3,42.8,0.0,300.0,0.0,-0.02,1.0,99.0,24.0,26.0,0.0,30.02,1647.0,0.0,0.0,144.0,0.0,0.0,0.0,0.0,0.0,0.0,0.0,0.0,0.0,0.0,0.0,0.0,0.0,0.0,0.0,0.0,0.0,0.0,0.0,0.0,0.0,0.0,0.0,0.0,0.0,22.0,0.0,0.0,30.0,0.0,0.0,0.0,30.6,0.0,0.0,23.0,0.0,0.0,-0.5,12.7,10.5,0.0,0.0,0.0,0.0,23.0,24.0,23.0,24.0,23.0,24.0,23.0,24.0,0.0,0.0,23.0,19.0,0.0,30.6,3.0,0.0,0.0,0.0,0.929,0.834,0.0,21.9,0.0,0.0,0.0,,0.0,0.0,23.0,-3.0,-4.100000000000001,78.8,71.6,32.0,32.0,32.0,32.0,73.4,75.2,73.4,75.2,73.4,75.2,73.4,75.2,32.0,32.0,71.42,73.4,26.6,24.619999999999997,0.00588888888888889,1.771,0.0,388.4,2026-04-24 15:47:53-07:00
53.06,1.0,9.0,2026-04-24 22:48:46,37.08164,-121.59959,309.0,0.0,114.7,-12.6,0.0,,0.0,0.0,0.0,10.9,-1.3,42.8,0.0,300.0,0.0,-0.02,1.0,99.0,18.0,26.0,0.0,30.02,1657.0,0.0,0.0,144.0,0.0,0.0,0.0,0.0,0.0,0.0,0.0,0.0,0.0,0.0,0.0,0.0,0.0,0.0,0.0,0.0,0.0,0.0,0.0,0.0,0.0,0.0,0.0,0.0,0.0,22.0,0.0,0.0,30.0,0.0,0.0,0.0,30.4,0.0,0.0,23.0,0.0,0.0,-0.4,12.7,10.5,0.0,0.0,0.0,0.0,23.0,24.0,23.0,24.0,23.0,24.0,23.0,24.0,0.0,0.0,23.0,15.0,0.0,30.4,3.0,0.0,0.0,0.0,0.929,0.85,0.0,21.9,0.0,0.0,0.0,,0.0,0.0,23.0,-3.0,-4.100000000000001,78.8,71.6,32.0,32.0,32.0,32.0,73.4,75.2,73.4,75.2,73.4,75.2,73.4,75.2,32.0,32.0,71.42,73.4,26.6,24.619999999999997,0.00588888888888889,1.771,0.0,388.4,2026-04-24 15:47:53-07:00
54.06,1.0,9.0,2026-04-24 22:48:47,37.08164,-121.59959,309.0,0.0,114.7,-12.6,0.0,,0.0,0.0,0.0,11.0,-1.3,42.7,0.0,300.0,0.1,-0.02,1.0,99.0,2.0,26.0,0.0,30.02,1657.0,0.0,0.0,144.0,0.0,0.0,0.0,0.0,0.0,0.0,0.0,0.0,0.0,0.0,0.0,0.0,0.0,0.0,0.0,0.0,0.0,0.0,0.0,0.0,0.0,0.0,0.0,0.0,0.0,22.0,0.0,0.0,30.0,0.0,0.0,0.0,30.3,0.0,0.0,23.0,0.0,0.0,-0.4,12.7,10.5,0.0,0.0,0.0,0.0,23.0,24.0,23.0,24.0,23.0,24.0,23.0,24.0,0.0,0.0,23.0,11.9,0.0,30.3,3.0,0.0,0.0,0.0,0.929,0.846,0.0,21.9,0.0,0.0,0.0,,0.0,0.0,23.0,-3.0,-4.100000000000001,78.8,71.6,32.0,32.0,32.0,32.0,73.4,75.2,73.4,75.2,73.4,75.2,73.4,75.2,32.0,32.0,71.42,73.4,26.6,24.619999999999997,0.00588888888888889,1.771,0.0,388.4,2026-04-24 15:47:53-07:00
55.06,1.0,9.0,2026-04-24 22:48:48,37.08164,-121.59959,309.0,0.0,114.7,-12.6,0.0,,0.0,0.0,0.0,10.9,-1.3,42.7,0.0,300.0,0.0,-0.02,1.0,99.0,-5.0,26.0,0.0,30.02,1657.0,0.0,0.0,144.0,0.0,0.0,0.0,0.0,0.0,0.0,0.0,0.0,0.0,0.0,0.0,0.0,0.0,0.0,0.0,0.0,0.0,0.0,0.0,0.0,0.0,0.0,0.0,0.0,0.0,22.0,0.0,0.0,30.0,0.0,0.0,0.0,30.2,0.0,0.0,23.0,0.0,0.0,-0.4,12.7,10.5,0.0,0.0,0.0,0.0,23.0,24.0,23.0,24.0,23.0,24.0,23.0,24.0,0.0,0.0,23.0,9.4,0.0,30.2,3.0,0.0,0.0,0.0,0.929,0.861,0.0,21.9,0.0,0.0,0.0,,0.0,0.0,23.0,-3.0,-4.100000000000001,78.8,71.6,32.0,32.0,32.0,32.0,73.4,75.2,73.4,75.2,73.4,75.2,73.4,75.2,32.0,32.0,71.42,73.4,26.6,24.619999999999997,0.00588888888888889,1.771,0.0,388.4,2026-04-24 15:47:53-07:00
56.06,1.0,9.0,2026-04-24 22:48:49,37.08164,-121.59959,307.0,0.0,114.7,-12.6,0.0,,0.0,0.0,0.0,10.9,-1.3,42.7,0.0,300.0,0.0,-0.02,1.0,99.0,-18.0,26.0,0.0,30.02,1657.0,0.0,0.0,144.0,0.0,0.0,0.0,0.0,0.0,0.0,0.0,0.0,0.0,0.0,0.0,0.0,0.0,0.0,0.0,0.0,0.0,0.0,0.0,0.0,0.0,0.0,0.0,0.0,0.0,22.0,0.0,0.0,30.0,0.0,0.0,0.0,30.1,0.0,0.0,23.0,0.0,0.0,-0.4,12.7,10.5,0.0,0.0,0.0,0.0,23.0,24.0,23.0,24.0,23.0,24.0,23.0,24.0,0.0,0.0,23.0,7.5,0.0,30.1,3.0,0.0,0.0,0.0,0.929,0.852,0.0,21.9,0.0,0.0,0.0,,0.0,0.0,23.0,-3.0,-4.100000000000001,78.8,71.6,32.0,32.0,32.0,32.0,73.4,75.2,73.4,75.2,73.4,75.2,73.4,75.2,32.0,32.0,71.42,73.4,26.6,24.619999999999997,0.00588888888888889,1.771,0.0,388.4,2026-04-24 15:47:53-07:00
57.06,1.0,9.0,2026-04-24 22:48:50,37.08164,-121.59959,307.0,0.1,114.7,-12.6,0.0,,0.0,0.0,0.0,10.9,-1.3,42.7,0.0,300.0,0.0,-0.02,1.0,99.0,-9.0,26.0,0.0,30.02,1657.0,0.0,0.0,144.0,0.0,0.0,0.0,0.0,0.0,0.0,0.0,0.0,0.0,0.0,0.0,0.0,0.0,0.0,0.0,0.0,0.0,0.0,0.0,0.0,0.0,0.0,0.0,0.0,0.0,22.0,0.0,0.0,30.0,0.0,0.0,0.0,30.0,0.0,0.0,23.0,0.0,0.0,-0.4,12.7,10.5,0.0,0.0,0.0,0.0,23.0,24.0,23.0,24.0,23.0,24.0,23.0,24.0,0.0,0.0,23.0,6.1,0.0,30.0,3.0,0.001,0.0,0.0,0.929,0.84,0.0,21.9,0.0,0.0,0.0,,0.0,0.0,23.0,-3.0,-4.100000000000001,78.8,71.6,32.0,32.0,32.0,32.0,73.4,75.2,73.4,75.2,73.4,75.2,73.4,75.2,32.0,32.0,71.42,73.4,26.6,24.619999999999997,0.00588888888888889,1.8553333333333333,0.0,388.4,2026-04-24 15:47:53-07:00
58.06,1.0,9.0,2026-04-24 22:48:51,37.08164,-121.59959,307.0,0.0,114.7,-12.6,0.0,,0.0,0.0,0.0,10.9,-1.3,42.7,0.0,300.0,0.0,-0.02,1.0,99.0,3.0,26.0,0.0,30.02,1657.0,0.0,0.0,144.0,0.0,0.0,0.0,0.0,0.0,0.0,0.0,0.0,0.0,0.0,0.0,0.0,0.0,0.0,0.0,0.0,0.0,0.0,0.0,0.0,0.0,0.0,0.0,0.0,0.0,22.0,0.0,0.0,30.0,0.0,0.0,0.0,29.9,0.0,0.0,23.0,0.0,0.0,-0.4,12.7,10.5,0.0,0.0,0.0,0.0,23.0,24.0,23.0,24.0,23.0,24.0,23.0,24.0,0.0,0.0,23.0,4.9,0.0,29.9,3.0,0.0,0.0,0.0,0.929,0.837,0.0,21.9,0.0,0.0,0.0,,0.0,0.0,23.0,-3.0,-4.100000000000001,78.8,71.6,32.0,32.0,32.0,32.0,73.4,75.2,73.4,75.2,73.4,75.2,73.4,75.2,32.0,32.0,71.42,73.4,26.6,24.619999999999997,0.00588888888888889,1.9396666666666667,0.0,388.4,2026-04-24 15:47:53-07:00
59.06,1.0,9.0,2026-04-24 22:48:52,37.08164,-121.59959,307.0,0.0,114.7,-12.6,0.0,,0.0,0.0,0.0,10.9,-1.3,42.7,0.0,300.0,0.0,-0.02,1.0,99.0,2.0,26.0,0.0,30.02,1657.0,0.0,0.0,144.0,0.0,0.0,0.0,0.0,0.0,0.0,0.0,0.0,0.0,0.0,0.0,0.0,0.0,0.0,0.0,0.0,0.0,0.0,0.0,0.0,0.0,0.0,0.0,0.0,0.0,22.0,0.0,0.0,30.0,0.0,0.0,0.0,29.8,0.0,0.0,23.0,0.0,0.0,-0.4,12.7,10.5,0.0,0.0,0.0,0.0,23.0,24.0,23.0,24.0,23.0,24.0,23.0,24.0,0.0,0.0,23.0,4.1,0.0,29.8,3.0,0.0,0.0,0.0,0.929,0.835,0.0,21.9,0.0,0.0,0.0,,0.0,0.0,23.0,-3.0,-4.100000000000001,78.8,71.6,32.0,32.0,32.0,32.0,73.4,75.2,73.4,75.2,73.4,75.2,73.4,75.2,32.0,32.0,71.42,73.4,26.6,24.619999999999997,0.00588888888888889,1.9396666666666667,0.0,388.4,2026-04-24 15:47:53-07:00
60.06,1.0,9.0,2026-04-24 22:48:53,37.08164,-121.59959,307.0,0.0,114.7,-12.6,0.0,,0.0,0.0,0.0,10.9,-1.3,42.7,0.0,300.0,0.0,-0.02,1.0,99.0,11.0,26.0,0.0,30.02,1658.0,0.0,0.0,144.0,0.0,0.0,0.0,0.0,0.0,0.0,0.0,0.0,0.0,0.0,0.0,0.0,0.0,0.0,0.0,0.0,0.0,0.0,0.0,0.0,0.0,0.0,0.0,0.0,0.0,22.0,0.0,0.0,30.0,0.0,0.0,0.0,29.7,0.0,0.0,23.0,0.0,0.0,-0.4,12.7,10.5,0.0,0.0,0.0,0.0,23.0,24.0,23.0,24.0,23.0,24.0,23.0,24.0,0.0,0.0,23.0,3.4,0.0,29.7,3.0,0.0,0.0,0.0,0.93,0.834,0.0,21.9,0.0,0.0,0.0,,0.0,0.0,23.0,-3.0,-4.100000000000001,78.8,71.6,32.0,32.0,32.0,32.0,73.4,75.2,73.4,75.2,73.4,75.2,73.4,75.2,32.0,32.0,71.42,73.4,26.6,24.619999999999997,0.00588888888888889,1.9396666666666667,0.0,388.4,2026-04-24 15:47:53-07:00
61.06,1.0,9.0,2026-04-24 22:48:54,37.08164,-121.59959,307.0,0.0,114.7,-12.6,0.0,,0.0,0.0,0.0,10.9,-1.3,42.7,0.0,300.0,0.0,-0.02,1.0,99.0,-6.0,26.0,0.0,30.02,1658.0,0.0,0.0,144.0,0.0,0.0,0.0,0.0,0.0,0.0,0.0,0.0,0.0,0.0,0.0,0.0,0.0,0.0,0.0,0.0,0.0,0.0,0.0,0.0,0.0,0.0,0.0,0.0,0.0,22.0,0.0,0.0,30.0,0.0,0.0,0.0,29.6,0.0,0.0,23.0,0.0,0.0,-0.4,12.7,10.5,0.0,0.0,0.0,0.0,23.0,24.0,23.0,24.0,23.0,24.0,23.0,24.0,0.0,0.0,23.0,2.8,0.0,29.6,3.0,0.0,0.0,0.0,0.93,0.834,0.0,21.9,0.0,0.0,0.0,,0.0,0.0,23.0,-3.0,-4.100000000000001,78.8,71.6,32.0,32.0,32.0,32.0,73.4,75.2,73.4,75.2,73.4,75.2,73.4,75.2,32.0,32.0,71.42,73.4,26.6,24.619999999999997,0.00588888888888889,1.9396666666666667,0.0,388.4,2026-04-24 15:47:53-07:00
62.06,1.0,9.0,2026-04-24 22:48:55,37.08164,-121.59959,307.0,0.0,114.7,-12.6,0.0,,0.0,0.0,0.0,10.9,-1.3,42.7,0.0,300.0,0.0,-0.02,1.0,99.0,-22.0,26.0,0.0,30.02,1658.0,0.0,0.0,144.0,0.0,0.0,0.0,0.0,0.0,0.0,0.0,0.0,0.0,0.0,0.0,0.0,0.0,0.0,0.0,0.0,0.0,0.0,0.0,0.0,0.0,0.0,0.0,0.0,0.0,22.0,0.0,0.0,30.0,0.0,0.0,0.0,29.5,0.0,0.0,23.0,0.0,0.0,-0.4,12.7,10.5,0.0,0.0,0.0,0.0,23.0,24.0,23.0,24.0,23.0,24.0,23.0,24.0,0.0,0.0,23.0,2.4,0.0,29.5,3.0,0.0,0.0,0.0,0.929,0.833,0.0,21.9,0.0,0.0,0.0,,0.0,0.0,23.0,-3.0,-4.100000000000001,78.8,71.6,32.0,32.0,32.0,32.0,73.4,75.2,73.4,75.2,73.4,75.2,73.4,75.2,32.0,32.0,71.42,73.4,26.6,24.619999999999997,0.00588888888888889,1.9396666666666667,0.0,388.4,2026-04-24 15:47:53-07:00
63.06,1.0,9.0,2026-04-24 22:48:56,37.08164,-121.59959,307.0,0.0,114.7,-12.6,0.0,,0.0,0.0,0.0,10.9,-1.3,42.7,0.0,300.0,0.0,-0.02,1.0,99.0,-64.0,26.0,0.0,30.02,1666.0,0.0,0.0,144.0,0.0,0.0,0.0,0.0,0.0,0.0,0.0,0.0,0.0,0.0,0.0,0.0,0.0,0.0,0.0,0.0,0.0,0.0,0.0,0.0,0.0,0.0,0.0,0.0,0.0,22.0,0.0,0.0,30.0,0.0,0.0,0.0,29.4,0.0,0.0,23.0,0.0,0.0,-0.4,12.7,10.5,0.0,0.0,0.0,0.0,23.0,24.0,23.0,24.0,23.0,24.0,24.0,24.0,0.0,0.0,23.0,2.1,0.0,29.4,3.0,0.0,0.0,0.0,0.929,0.833,0.0,21.9,0.0,0.0,0.0,,0.0,0.0,23.25,-2.75,-4.100000000000001,78.8,71.6,32.0,32.0,32.0,32.0,73.4,75.2,73.4,75.2,73.4,75.2,75.2,75.2,32.0,32.0,71.42,73.85,27.05,24.619999999999997,0.00588888888888889,1.9396666666666667,0.0,388.4,2026-04-24 15:47:53-07:00
64.06,1.0,9.0,2026-04-24 22:48:57,37.08164,-121.5996,307.0,0.0,114.7,-12.6,0.0,,0.0,0.0,0.0,10.9,-1.3,42.7,0.0,299.0,0.0,-0.02,1.0,99.0,-82.0,26.0,0.0,30.02,1666.0,0.0,0.0,144.0,0.0,0.0,0.0,0.0,0.0,0.0,0.0,0.0,0.0,0.0,0.0,0.0,0.0,0.0,0.0,0.0,0.0,0.0,0.0,0.0,0.0,0.0,0.0,0.0,0.0,22.0,0.0,0.0,30.0,0.0,0.0,0.0,29.4,0.0,0.0,23.0,0.0,0.0,-0.4,12.7,10.5,0.0,0.0,0.0,0.0,23.0,24.0,23.0,24.0,23.0,24.0,24.0,24.0,0.0,0.0,23.0,1.8,0.0,29.4,3.0,0.0,0.0,0.0,0.93,0.83,0.0,21.9,0.0,0.0,0.0,,0.0,0.0,23.25,-2.75,-4.100000000000001,78.8,71.6,32.0,32.0,32.0,32.0,73.4,75.2,73.4,75.2,73.4,75.2,75.2,75.2,32.0,32.0,71.42,73.85,27.05,24.619999999999997,0.00588888888888889,1.9396666666666667,0.0,388.4,2026-04-24 15:47:53-07:00
65.06,1.0,9.0,2026-04-24 22:48:58,37.08164,-121.5996,307.0,0.0,114.7,-12.6,0.0,,0.0,0.0,0.0,10.9,-1.3,42.8,0.0,299.0,0.0,-0.02,1.0,99.0,-82.0,26.0,0.0,30.02,1666.0,0.0,0.0,144.0,0.0,0.0,0.0,0.0,0.0,0.0,0.0,0.0,0.0,0.0,0.0,0.0,0.0,0.0,0.0,0.0,0.0,0.0,0.0,0.0,0.0,0.0,0.0,0.0,0.0,22.0,0.0,0.0,30.0,0.0,0.0,0.0,29.3,0.0,0.0,23.0,0.0,0.0,-0.4,12.7,10.5,0.0,0.0,0.0,0.0,23.0,24.0,23.0,24.0,23.0,24.0,24.0,24.0,0.0,0.0,23.0,1.7,0.0,29.3,3.0,0.0,0.0,0.0,0.93,0.83,0.0,21.9,0.0,0.0,0.0,,0.0,0.0,23.25,-2.75,-4.100000000000001,78.8,71.6,32.0,32.0,32.0,32.0,73.4,75.2,73.4,75.2,73.4,75.2,75.2,75.2,32.0,32.0,71.42,73.85,27.05,24.619999999999997,0.00588888888888889,1.9396666666666667,0.0,388.4,2026-04-24 15:47:53-07:00
66.06,1.0,9.0,2026-04-24 22:48:59,37.08164,-121.5996,307.0,0.0,114.7,-12.6,0.0,,0.0,0.0,0.0,10.9,-1.3,42.7,0.0,296.0,0.0,-0.02,1.0,99.0,-115.0,26.0,0.0,30.02,1663.0,0.0,0.0,144.0,0.0,0.0,0.0,0.0,0.0,0.0,0.0,0.0,0.0,0.0,0.0,0.0,0.0,0.0,0.0,0.0,0.0,0.0,0.0,0.0,0.0,0.0,0.0,0.0,0.0,22.0,0.0,0.0,30.0,0.0,0.0,0.0,29.2,0.0,0.0,23.0,0.0,0.0,-0.4,12.7,10.5,0.0,0.0,0.0,0.0,23.0,24.0,23.0,24.0,23.0,24.0,24.0,24.0,0.0,0.0,23.0,1.5,0.0,29.2,3.0,0.0,0.0,0.0,0.929,0.831,0.0,21.9,0.0,0.0,0.0,,0.0,0.0,23.25,-2.75,-4.100000000000001,78.8,71.6,32.0,32.0,32.0,32.0,73.4,75.2,73.4,75.2,73.4,75.2,75.2,75.2,32.0,32.0,71.42,73.85,27.05,24.619999999999997,0.00588888888888889,1.9396666666666667,0.0,388.4,2026-04-24 15:47:53-07:00
67.06,1.0,9.0,2026-04-24 22:49:00,37.08164,-121.5996,307.0,0.0,114.7,-12.6,0.0,,0.0,0.0,0.0,10.9,-1.3,42.7,0.0,294.0,0.0,-0.02,1.0,99.0,-108.0,26.0,0.0,30.02,1663.0,0.0,0.0,144.0,0.0,0.0,0.0,0.0,0.0,0.0,0.0,0.0,0.0,0.0,0.0,0.0,0.0,0.0,0.0,0.0,0.0,0.0,0.0,0.0,0.0,0.0,0.0,0.0,0.0,22.0,0.0,0.0,30.0,0.0,0.0,0.0,29.1,0.0,0.0,23.0,0.0,0.0,-0.4,12.7,10.5,0.0,0.0,0.0,0.0,23.0,24.0,23.0,24.0,23.0,24.0,24.0,24.0,0.0,0.0,23.0,1.4,0.0,29.1,3.0,0.0,0.0,0.0,0.93,0.831,0.0,21.9,0.0,0.0,0.0,,0.0,0.0,23.25,-2.75,-4.100000000000001,78.8,71.6,32.0,32.0,32.0,32.0,73.4,75.2,73.4,75.2,73.4,75.2,75.2,75.2,32.0,32.0,71.42,73.85,27.05,24.619999999999997,0.00588888888888889,1.9396666666666667,0.0,388.4,2026-04-24 15:47:53-07:00
68.06,1.0,9.0,2026-04-24 22:49:01,37.08165,-121.59961,309.0,0.0,114.7,-12.6,0.0,,0.0,0.0,0.0,10.9,-1.3,42.7,0.0,294.0,0.0,-0.02,1.0,99.0,-78.0,26.0,0.0,30.02,1663.0,0.0,0.0,144.0,0.0,0.0,0.0,0.0,0.0,0.0,0.0,0.0,0.0,0.0,0.0,0.0,0.0,0.0,0.0,0.0,0.0,0.0,0.0,0.0,0.0,0.0,0.0,0.0,0.0,22.0,0.0,0.0,30.0,0.0,0.0,0.0,29.0,0.0,0.0,23.0,0.0,0.0,-0.4,12.7,10.5,0.0,0.0,0.0,0.0,23.0,24.0,23.0,24.0,23.0,24.0,24.0,24.0,0.0,0.0,23.0,1.3,0.0,29.0,3.0,0.0,0.0,0.0,0.93,0.831,0.0,21.9,0.0,0.0,0.0,,0.0,0.0,23.25,-2.75,-4.100000000000001,78.8,71.6,32.0,32.0,32.0,32.0,73.4,75.2,73.4,75.2,73.4,75.2,75.2,75.2,32.0,32.0,71.42,73.85,27.05,24.619999999999997,0.00588888888888889,1.9396666666666667,0.0,388.4,2026-04-24 15:47:53-07:00
69.06,1.0,9.0,2026-04-24 22:49:02,37.08165,-121.59961,309.0,0.0,114.7,-12.6,0.0,,0.0,0.0,0.0,10.9,-1.2,42.6,0.0,293.0,-0.0,-0.02,1.0,99.0,-50.0,26.0,0.0,30.02,1658.0,0.0,0.0,144.0,0.0,0.0,0.0,0.0,0.0,0.0,0.0,0.0,0.0,0.0,0.0,0.0,0.0,0.0,0.0,0.0,0.0,0.0,0.0,0.0,0.0,0.0,0.0,0.0,0.0,22.0,0.0,0.0,30.0,0.0,0.0,0.0,28.9,0.0,0.0,23.0,0.0,0.0,-0.4,12.7,10.5,0.0,0.0,0.0,0.0,23.0,24.0,23.0,24.0,23.0,24.0,23.0,24.0,0.0,0.0,23.0,1.2,0.0,28.9,3.0,0.0,0.0,0.0,0.93,0.831,0.0,21.9,0.0,0.0,0.0,,0.0,0.0,23.0,-3.0,-4.100000000000001,78.8,71.6,32.0,32.0,32.0,32.0,73.4,75.2,73.4,75.2,73.4,75.2,73.4,75.2,32.0,32.0,71.42,73.4,26.6,24.619999999999997,0.00588888888888889,1.9396666666666667,0.0,388.4,2026-04-24 15:47:53-07:00
70.06,1.0,9.0,2026-04-24 22:49:03,37.08165,-121.59961,309.0,0.0,114.7,-12.6,0.0,,0.0,0.0,0.0,10.9,-1.3,42.7,0.0,293.0,-0.0,-0.02,1.0,99.0,-40.0,26.0,0.0,30.02,1659.0,0.0,0.0,144.0,0.0,0.0,0.0,0.0,0.0,0.0,0.0,0.0,0.0,0.0,0.0,0.0,0.0,0.0,0.0,0.0,0.0,0.0,0.0,0.0,0.0,0.0,0.0,0.0,0.0,22.0,0.0,0.0,30.0,0.0,0.0,0.0,28.8,0.0,0.0,23.0,0.0,0.0,-0.4,12.7,10.5,0.0,0.0,0.0,0.0,23.0,24.0,23.0,24.0,23.0,24.0,24.0,24.0,0.0,0.0,23.0,1.2,0.0,28.8,3.0,0.0,0.0,0.0,0.929,0.831,0.0,21.9,0.0,0.0,0.0,,0.0,0.0,23.25,-2.75,-4.100000000000001,78.8,71.6,32.0,32.0,32.0,32.0,73.4,75.2,73.4,75.2,73.4,75.2,75.2,75.2,32.0,32.0,71.42,73.85,27.05,24.619999999999997,0.00588888888888889,1.9396666666666667,0.0,388.4,2026-04-24 15:47:53-07:00
71.06,1.0,9.0,2026-04-24 22:49:04,37.08165,-121.59961,309.0,0.0,114.7,-12.6,0.0,,0.0,0.0,0.0,10.9,-1.2,42.7,0.0,293.0,0.0,-0.02,1.0,99.0,-8.0,26.0,0.0,30.02,1659.0,0.0,0.0,144.0,0.0,0.0,0.0,0.0,0.0,0.0,0.0,0.0,0.0,0.0,0.0,0.0,0.0,0.0,0.0,0.0,0.0,0.0,0.0,0.0,0.0,0.0,0.0,0.0,0.0,22.0,0.0,0.0,30.0,0.0,0.0,0.0,28.7,0.0,0.0,23.0,0.0,0.0,-0.4,12.7,10.5,0.0,0.0,0.0,0.0,23.0,24.0,23.0,24.0,23.0,24.0,24.0,24.0,0.0,0.0,23.0,1.1,0.0,28.7,3.0,0.0,0.0,0.0,0.929,0.831,0.0,21.9,0.0,0.0,0.0,,0.0,0.0,23.25,-2.75,-4.100000000000001,78.8,71.6,32.0,32.0,32.0,32.0,73.4,75.2,73.4,75.2,73.4,75.2,75.2,75.2,32.0,32.0,71.42,73.85,27.05,24.619999999999997,0.00588888888888889,1.9396666666666667,0.0,388.4,2026-04-24 15:47:53-07:00
72.06,1.0,9.0,2026-04-24 22:49:05,37.08165,-121.59961,309.0,0.0,114.7,-12.6,0.0,,0.0,0.0,0.0,10.9,-1.2,42.8,0.0,293.0,0.1,-0.02,1.0,99.0,25.0,26.0,0.0,30.02,1659.0,0.0,0.0,144.0,0.0,0.0,0.0,0.0,0.0,0.0,0.0,0.0,0.0,0.0,0.0,0.0,0.0,0.0,0.0,0.0,0.0,0.0,0.0,0.0,0.0,0.0,0.0,0.0,0.0,22.0,0.0,0.0,30.0,0.0,0.0,0.0,28.7,0.0,0.0,23.0,0.0,0.0,-0.4,12.7,10.5,0.0,0.0,0.0,0.0,23.0,24.0,23.0,24.0,23.0,24.0,23.0,24.0,0.0,0.0,23.0,1.1,0.0,28.7,3.0,0.0,0.0,0.0,0.93,0.831,0.0,21.9,0.0,0.0,0.0,,0.0,0.0,23.0,-3.0,-4.100000000000001,78.8,71.6,32.0,32.0,32.0,32.0,73.4,75.2,73.4,75.2,73.4,75.2,73.4,75.2,32.0,32.0,71.42,73.4,26.6,24.619999999999997,0.00588888888888889,1.9396666666666667,0.0,388.4,2026-04-24 15:47:53-07:00
73.06,1.0,9.0,2026-04-24 22:49:06,37.08165,-121.59961,309.0,0.1,114.7,-12.6,0.0,,0.0,0.0,0.0,11.0,-1.2,42.8,0.0,293.0,0.1,-0.02,1.0,99.0,20.0,26.0,0.0,30.02,1668.0,0.0,0.0,144.0,0.0,0.0,0.0,0.0,0.0,0.0,0.0,0.0,0.0,0.0,0.0,0.0,0.0,0.0,0.0,0.0,0.0,0.0,0.0,0.0,0.0,0.0,0.0,0.0,0.0,22.0,0.0,0.0,30.0,0.0,0.0,0.0,28.6,0.0,0.0,23.0,0.0,0.0,-0.4,12.7,10.5,0.0,0.0,0.0,0.0,23.0,24.0,23.0,24.0,23.0,24.0,24.0,24.0,0.0,0.0,23.0,1.1,0.0,28.6,3.0,0.0,0.0,0.0,0.93,0.83,0.0,21.9,0.0,0.0,0.0,,0.0,0.0,23.25,-2.75,-4.100000000000001,78.8,71.6,32.0,32.0,32.0,32.0,73.4,75.2,73.4,75.2,73.4,75.2,75.2,75.2,32.0,32.0,71.42,73.85,27.05,24.619999999999997,0.00588888888888889,2.024,0.0,388.4,2026-04-24 15:47:53-07:00
74.06,1.0,9.0,2026-04-24 22:49:07,37.08165,-121.59961,309.0,0.0,114.7,-12.6,0.0,,0.0,0.0,0.0,10.9,-1.2,42.8,0.0,293.0,0.0,-0.02,1.0,99.0,-5.0,26.0,0.0,30.02,1668.0,0.0,0.0,144.0,0.0,0.0,0.0,0.0,0.0,0.0,0.0,0.0,0.0,0.0,0.0,0.0,0.0,0.0,0.0,0.0,0.0,0.0,0.0,0.0,0.0,0.0,0.0,0.0,0.0,22.0,0.0,0.0,30.0,0.0,0.0,0.0,28.5,0.0,0.0,23.0,0.0,0.0,-0.4,12.7,10.5,0.0,0.0,0.0,0.0,23.0,24.0,23.0,24.0,23.0,24.0,23.0,24.0,0.0,0.0,24.0,1.0,0.0,28.5,3.0,0.0,0.0,0.0,0.93,0.834,0.0,21.9,0.0,0.0,0.0,,0.0,0.0,23.0,-3.0,-4.100000000000001,78.8,71.6,32.0,32.0,32.0,32.0,73.4,75.2,73.4,75.2,73.4,75.2,73.4,75.2,32.0,32.0,71.42,73.4,26.6,24.619999999999997,0.00588888888888889,2.1083333333333334,0.0,388.4,2026-04-24 15:47:53-07:00
75.06,1.0,9.0,2026-04-24 22:49:08,37.08165,-121.59961,309.0,0.0,114.7,-12.6,0.0,,0.0,0.0,0.0,10.9,-1.2,42.8,0.0,293.0,0.0,-0.02,1.0,99.0,-31.0,26.0,0.0,30.02,1668.0,0.0,0.0,144.0,0.0,0.0,0.0,0.0,0.0,0.0,0.0,0.0,0.0,0.0,0.0,0.0,0.0,0.0,0.0,0.0,0.0,0.0,0.0,0.0,0.0,0.0,0.0,0.0,0.0,22.0,0.0,0.0,30.0,0.0,0.0,0.0,28.4,0.0,0.0,23.0,0.0,0.0,-0.4,12.7,10.5,0.0,0.0,0.0,0.0,23.0,24.0,23.0,24.0,23.0,24.0,23.0,24.0,0.0,0.0,24.0,1.0,0.0,28.4,3.0,0.0,0.0,0.0,0.93,0.833,0.0,21.9,0.0,0.0,0.0,,0.0,0.0,23.0,-3.0,-4.100000000000001,78.8,71.6,32.0,32.0,32.0,32.0,73.4,75.2,73.4,75.2,73.4,75.2,73.4,75.2,32.0,32.0,71.42,73.4,26.6,24.619999999999997,0.00588888888888889,2.1083333333333334,0.0,388.4,2026-04-24 15:47:53-07:00
76.06,1.0,9.0,2026-04-24 22:49:09,37.08165,-121.59961,309.0,0.0,114.7,-12.6,0.0,,0.0,0.0,0.0,10.9,-1.2,42.8,0.0,292.0,0.0,-0.02,1.0,99.0,-65.0,26.0,0.0,30.02,1668.0,0.0,0.0,144.0,0.0,0.0,0.0,0.0,0.0,0.0,0.0,0.0,0.0,0.0,0.0,0.0,0.0,0.0,0.0,0.0,0.0,0.0,0.0,0.0,0.0,0.0,0.0,0.0,0.0,22.0,0.0,0.0,30.0,0.0,0.0,0.0,28.3,0.0,0.0,23.0,0.0,0.0,-0.4,12.7,10.5,0.0,0.0,0.0,0.0,23.0,24.0,23.0,24.0,23.0,24.0,23.0,24.0,0.0,0.0,24.0,1.0,0.0,28.3,3.0,0.0,0.0,0.0,0.93,0.83,0.0,21.9,0.0,0.0,0.0,,0.0,0.0,23.0,-3.0,-4.100000000000001,78.8,71.6,32.0,32.0,32.0,32.0,73.4,75.2,73.4,75.2,73.4,75.2,73.4,75.2,32.0,32.0,71.42,73.4,26.6,24.619999999999997,0.00588888888888889,2.1083333333333334,0.0,388.4,2026-04-24 15:47:53-07:00
77.06,1.0,9.0,2026-04-24 22:49:10,37.08165,-121.59961,309.0,0.0,114.7,-12.6,0.0,,0.0,0.0,0.0,11.0,-1.2,42.8,0.0,291.0,0.0,-0.02,1.0,99.0,-56.0,26.0,0.0,30.02,1668.0,0.0,0.0,144.0,0.0,0.0,0.0,0.0,0.0,0.0,0.0,0.0,0.0,0.0,0.0,0.0,0.0,0.0,0.0,0.0,0.0,0.0,0.0,0.0,0.0,0.0,0.0,0.0,0.0,22.0,0.0,0.0,30.0,0.0,0.0,0.0,28.3,0.0,0.0,23.0,0.0,0.0,-0.4,12.7,10.5,0.0,0.0,0.0,0.0,23.0,24.0,23.0,24.0,23.0,24.0,23.0,24.0,0.0,0.0,24.0,1.0,0.0,28.3,3.0,0.001,0.0,0.0,0.93,0.831,0.0,21.9,0.0,0.0,0.0,,0.0,0.0,23.0,-3.0,-4.100000000000001,78.8,71.6,32.0,32.0,32.0,32.0,73.4,75.2,73.4,75.2,73.4,75.2,73.4,75.2,32.0,32.0,71.42,73.4,26.6,24.619999999999997,0.00588888888888889,2.1083333333333334,0.0,388.4,2026-04-24 15:47:53-07:00
78.06,1.0,9.0,2026-04-24 22:49:11,37.08165,-121.59961,309.0,0.0,114.7,-12.6,0.0,,0.0,0.0,0.0,10.9,-1.2,42.8,0.0,291.0,0.0,-0.02,1.0,99.0,-22.0,26.0,0.0,30.02,1668.0,0.0,0.0,144.0,0.0,0.0,0.0,0.0,0.0,0.0,0.0,0.0,0.0,0.0,0.0,0.0,0.0,0.0,0.0,0.0,0.0,0.0,0.0,0.0,0.0,0.0,0.0,0.0,0.0,22.0,0.0,0.0,30.0,0.0,0.0,0.0,28.2,0.0,0.0,23.0,0.0,0.0,-0.4,12.7,10.5,0.0,0.0,0.0,0.0,23.0,24.0,23.0,24.0,23.0,24.0,23.0,24.0,0.0,0.0,24.0,1.0,0.0,28.2,3.0,0.0,0.0,0.0,0.93,0.831,0.0,21.9,0.0,0.0,0.0,,0.0,0.0,23.0,-3.0,-4.100000000000001,78.8,71.6,32.0,32.0,32.0,32.0,73.4,75.2,73.4,75.2,73.4,75.2,73.4,75.2,32.0,32.0,71.42,73.4,26.6,24.619999999999997,0.00588888888888889,2.1083333333333334,0.0,388.4,2026-04-24 15:47:53-07:00
79.06,1.0,9.0,2026-04-24 22:49:12,37.08165,-121.59961,309.0,0.0,114.7,-12.6,0.0,,0.0,0.0,0.0,10.9,-1.2,42.8,0.0,291.0,0.0,-0.02,1.0,99.0,-4.0,26.0,0.0,30.02,1667.0,0.0,0.0,144.0,0.0,0.0,0.0,0.0,0.0,0.0,0.0,0.0,0.0,0.0,0.0,0.0,0.0,0.0,0.0,0.0,0.0,0.0,0.0,0.0,0.0,0.0,0.0,0.0,0.0,22.0,0.0,0.0,30.0,0.0,0.0,0.0,28.1,0.0,0.0,23.0,0.0,0.0,-0.4,12.7,10.5,0.0,0.0,0.0,0.0,23.0,24.0,23.0,24.0,23.0,24.0,24.0,24.0,0.0,0.0,24.0,1.0,0.0,28.1,3.0,0.0,0.0,0.0,0.929,0.831,0.0,21.7,0.0,0.0,0.0,,0.0,0.0,23.25,-2.75,-4.300000000000001,78.8,71.6,32.0,32.0,32.0,32.0,73.4,75.2,73.4,75.2,73.4,75.2,75.2,75.2,32.0,32.0,71.06,73.85,27.05,24.259999999999998,0.00588888888888889,2.1083333333333334,0.0,388.4,2026-04-24 15:47:53-07:00
80.06,1.0,9.0,2026-04-24 22:49:13,37.08165,-121.59961,309.0,0.0,114.7,-12.6,0.0,,0.0,0.0,0.0,10.9,-1.2,42.7,0.0,291.0,-0.0,-0.02,1.0,99.0,18.0,26.0,0.0,30.02,1667.0,0.0,0.0,144.0,0.0,0.0,0.0,0.0,0.0,0.0,0.0,0.0,0.0,0.0,0.0,0.0,0.0,0.0,0.0,0.0,0.0,0.0,0.0,0.0,0.0,0.0,0.0,0.0,0.0,20.0,164.0,164.0,29.7,0.0,0.0,0.0,28.2,0.0,0.0,23.0,0.0,0.0,-0.4,12.7,10.5,0.0,0.0,0.0,0.0,22.0,31.0,22.0,23.0,22.0,23.0,23.0,23.0,0.0,0.0,24.0,1.0,0.0,28.2,3.0,0.0,0.0,0.0,0.929,0.853,0.2,19.5,0.0,0.0,0.0,,0.0,164.0,22.25,-3.75,-6.5,78.8,68.0,32.0,32.0,32.0,32.0,71.6,87.8,71.6,73.4,71.6,73.4,73.4,73.4,32.0,32.0,67.1,72.05,25.25,20.3,0.00588888888888889,2.1083333333333334,0.0,388.4,2026-04-24 15:47:53-07:00
81.06,1.0,9.0,2026-04-24 22:49:14,37.08165,-121.59961,309.0,0.0,114.7,-12.6,0.0,,0.0,0.0,0.0,10.9,-1.2,42.7,0.0,291.0,-0.0,-0.02,1.0,99.0,16.0,26.0,0.0,30.02,1667.0,0.0,0.0,144.0,0.0,0.0,0.0,0.0,0.0,0.0,0.0,0.0,0.0,0.0,0.0,0.0,0.0,0.0,0.0,0.0,0.0,0.0,0.0,0.0,0.0,0.0,0.0,0.0,1.0,22.0,704.0,704.0,24.8,0.9,0.0,0.9,24.2,0.0,0.0,23.0,0.0,0.0,-0.3,12.7,10.5,0.0,0.0,0.0,0.0,23.0,62.0,23.0,46.0,23.0,53.0,24.0,54.0,0.0,0.0,24.0,1.0,0.0,24.2,3.0,0.001,0.0,0.0,0.931,0.864,1.5,21.6,0.0,0.0,0.0,,0.0,704.0,23.25,-2.75,-4.399999999999999,78.8,71.6,32.0,32.0,32.0,32.0,73.4,143.6,73.4,114.8,73.4,127.4,75.2,129.2,32.0,32.0,70.88,73.85,27.05,24.080000000000002,0.00601388888888889,2.1083333333333334,0.0,388.4,2026-04-24 15:47:53-07:00
