Session Time,GPS Fix Quality,Number of Satellites,GPS Date & Time,Latitude (deg),Longitude (deg),GPS Altitude (feet),Ground Speed (knots),Ground Track (deg),Mag Var (deg),Cross Track Error (NM),Destination Waypoint ID,Range to Destination (NM),Bearing to Destination (deg),System Time,Pitch (deg),Roll (deg),Magnetic Heading (deg),Indicated Airspeed (knots),Pressure Altitude (ft),Turn Rate (deg/s),Lateral Accel (g),Vertical Accel(g),Angle of Attack (%),Vertical Speed (ft/min),OAT (deg C),True Airspeed (knots),Barometer Setting (inHg),Density Altitude (ft),Wind Direction (deg),Wind Speed (knots),Heading Bug (deg),Altitude Bug (ft),Airspeed Bug (knots),Vertical Speed Bug (ft/min),Course (deg),CDI Source Type,CDI Source Port,CDI Scale (NM),CDI Deflection (%),Glideslope (%),AP Engaged,AP Roll Mode,AP Roll Force,AP Roll Position (steps),AP Roll Slip (bool),AP Pitch Force,AP Pitch Position (steps),AP Pitch Slip (bool),AP Yaw Force,AP Yaw Position,AP Yaw Slip (bool),Transponder Status,Transponder Reply (bool),Transponder Identing (bool),Transponder Code (octal),Oil Pressure (PSI),Oil Temp (deg C),RPM L,RPM R,Manifold Pressure (inHg),Fuel Flow 1 (gal/hr),Fuel Flow 2 (gal/hr),Total Fuel Flow (gal/hr),Fuel Pressure (PSI),Fuel Level L (gal),Fuel Level R (gal),Fuel Remaining (gal),Volts 1,Volts 2,Amps,Hobbs Time,Tach Time,Thermocouple 1 (deg C),Thermocouple 2 (deg C),Thermocouple 3 (deg C),Thermocouple 4 (deg C),CHT 4 (deg C),EGT 4 (deg C),CHT 3 (deg C),EGT 3 (deg C),CHT 2 (deg C),EGT 2 (deg C),CHT 1 (deg C),EGT 1 (deg C),Thermocouple 13 (deg C),Thermocouple 14 (deg C),ELEV POSITION (%),CO PPM PRESSURE (PSI),GP Input 3,FUEL PRESSURE (PSI),AILERN POSITION (%),CANOPY CONTACT (V),GP Input 7,GP Input 8,LEFT LEVEL (Sensor V),RIGHT LEVEL (Sensor V),OIL PRESSURE (PSI),OIL TEMPERATURE (deg C),GP Input 13,Contacts,Percent Power,EGT Leaning State,Unnamed: 103,OAT (deg F),Oil Temp (deg F),Thermocouple 1 (deg F),Thermocouple 2 (deg F),Thermocouple 3 (deg F),Thermocouple 4 (deg F),CHT 4 (deg F),EGT 4 (deg F),CHT 3 (deg F),EGT 3 (deg F),CHT 2 (deg F),EGT 2 (deg F),CHT 1 (deg F),EGT 1 (deg F),Thermocouple 13 (deg F),Thermocouple 14 (deg F),OIL TEMPERATURE (deg F),RPM,AVG_CHT,CHT_Delta_T,OIL_Delta_T,Fuel Flow Integral,Distance Traveled,MPG,Max CHT,Engine Run,Flight ID
3408.81,2,9,2026-05-01 23:45:09,37.66926,-121.43906,1134,108.9,129.7,-12.7,-0.89,KTCY,1.2,354.2,0.0,2.4,-2.4,112.8,90.3,1179,-0.6,0.01,1.3,11,-667,25,94.0,29.85,2709,306.0,14.0,39,1700.0,0.0,0.0,30.0,0,0,5.0,-18.0,-12.0,3.0,2.0,0.0,-6,0.0,0.0,-107,0.0,0.0,0.0,0.0,3,1,0,1200,80,87,2403,2403,10.7,4.5,0.0,4.5,33.1,0.0,0.0,11.5,0.0,0.0,9.0,14.2,11.7,0.0,0.0,0.0,0.0,150,710,152,700,158,685,154,683,0.0,0.0,-23,0.0,0.0,33.1,3,0.0,0.0,0.0,2.108,1.998,80.4,87.4,0.0,0.0,0.0,,0.0,77.0,188.6,0.0,0.0,0.0,0.0,302.0,1310.0,305.6,1292.0,316.4,1265.0,309.2,1261.4,0.0,0.0,189.32,2403.0,308.29999999999995,231.29999999999995,112.32,0.0,0.0,24.200000000000003,332.6,True,2026-05-01 23:45:09
3408.88,2,9,2026-05-01 23:45:09,37.66926,-121.43906,1134,108.9,129.7,-12.7,-0.89,KTCY,1.2,354.2,0.0,2.4,-2.6,112.9,90.3,1178,-0.6,0.01,1.4,12,-671,26,94.0,29.85,2709,306.0,14.0,39,1700.0,0.0,0.0,30.0,0,0,5.0,-18.0,-12.0,3.0,2.0,0.0,-6,0.0,0.0,-108,0.0,0.0,0.0,0.0,3,1,0,1200,80,87,2403,2403,10.7,4.5,0.0,4.5,33.1,0.0,0.0,11.5,0.0,0.0,9.0,14.2,11.7,0.0,0.0,0.0,0.0,150,710,152,700,158,685,154,683,0.0,0.0,-23,0.0,0.0,33.1,3,0.0,0.0,0.0,2.104,2.018,80.4,87.4,0.0,0.0,0.0,,0.0,78.8,188.6,0.0,0.0,0.0,0.0,302.0,1310.0,305.6,1292.0,316.4,1265.0,309.2,1261.4,0.0,0.0,189.32,2403.0,308.29999999999995,229.49999999999994,110.52,8.750000000020464e-05,12.857460000030072,24.200000000000003,332.6,True,2026-05-01 23:45:09
3408.94,2,9,2026-05-01 23:45:09,37.66926,-121.43906,1134,108.9,129.7,-12.7,-0.89,KTCY,1.2,354.2,0.0,2.5,-2.8,112.9,90.3,1177,-0.6,0.01,1.4,13,-664,26,94.0,29.85,2709,306.0,14.0,39,1700.0,0.0,0.0,30.0,0,0,5.0,-18.0,-12.0,3.0,2.0,0.0,-6,0.0,0.0,-108,0.0,0.0,0.0,0.0,3,1,0,1200,80,87,2403,2403,10.7,4.5,0.0,4.5,33.0,0.0,0.0,11.5,0.0,0.0,8.9,14.2,11.7,0.0,0.0,0.0,0.0,150,710,152,700,158,685,154,683,0.0,0.0,-23,0.0,0.0,33.0,3,0.0,0.0,0.0,2.092,2.024,80.5,87.4,0.0,0.0,0.0,,0.0,78.8,188.6,0.0,0.0,0.0,0.0,302.0,1310.0,305.6,1292.0,316.4,1265.0,309.2,1261.4,0.0,0.0,189.32,2403.0,308.29999999999995,229.49999999999994,110.52,0.00016250000000013644,23.87814000002005,24.200000000000003,332.6,True,2026-05-01 23:45:09
3409.0,2,9,2026-05-01 23:45:09,37.66918,-121.43893,1134,108.9,129.6,-12.7,-0.89,KTCY,1.2,354.2,0.0,2.5,-3.1,112.9,90.6,1177,-0.5,0.01,1.3,11,-655,26,94.2,29.85,2709,306.0,14.0,39,1700.0,0.0,0.0,30.0,0,0,5.0,-18.0,-12.0,3.0,2.0,0.0,-6,0.0,0.0,-108,0.0,0.0,0.0,0.0,3,1,0,1200,81,87,2403,2403,10.8,4.5,0.0,4.5,33.0,0.0,0.0,11.5,0.0,0.0,8.9,14.2,11.7,0.0,0.0,0.0,0.0,150,710,152,699,158,685,154,683,0.0,0.0,-23,0.0,0.0,33.0,3,0.0,0.0,0.0,2.079,2.019,80.6,87.4,0.0,0.0,0.0,,0.0,78.8,188.6,0.0,0.0,0.0,0.0,302.0,1310.0,305.6,1290.2,316.4,1265.0,309.2,1261.4,0.0,0.0,189.32,2403.0,308.29999999999995,229.49999999999994,110.52,0.00023750000000006822,34.898820000010026,24.200000000000003,332.6,True,2026-05-01 23:45:09
3409.06,2,9,2026-05-01 23:45:09,37.66918,-121.43893,1134,108.9,129.6,-12.7,-0.9,KTCY,1.2,353.9,0.0,2.5,-3.3,112.9,90.6,1176,-0.5,0.0,1.2,11,-657,26,94.2,29.85,2709,307.0,14.0,39,1700.0,0.0,0.0,30.0,0,0,5.0,-18.0,-12.0,3.0,2.0,0.0,-6,0.0,0.0,-109,0.0,0.0,0.0,0.0,3,1,0,1200,81,87,2408,2408,10.8,4.6,0.0,4.6,33.0,0.0,0.0,11.5,0.0,0.0,8.8,14.2,11.7,0.0,0.0,0.0,0.0,150,710,152,699,158,684,154,683,0.0,0.0,-23,0.0,0.0,33.0,3,0.0,0.0,0.0,2.065,1.997,80.7,87.4,0.0,0.0,0.0,,0.0,78.8,188.6,0.0,0.0,0.0,0.0,302.0,1310.0,305.6,1290.2,316.4,1263.2,309.2,1261.4,0.0,0.0,189.32,2408.0,308.29999999999995,229.49999999999994,110.52,0.00031333333333333257,45.919500000000006,23.673913043478265,332.6,True,2026-05-01 23:45:09
3409.12,2,9,2026-05-01 23:45:09,37.66918,-121.43893,1134,108.9,129.6,-12.7,-0.9,KTCY,1.2,353.9,0.0,2.5,-3.5,112.9,90.2,1175,-0.5,0.0,1.2,11,-654,26,93.9,29.85,2709,307.0,14.0,39,1700.0,0.0,0.0,30.0,0,0,5.0,-18.0,-12.0,3.0,2.0,0.0,-6,0.0,0.0,-109,0.0,0.0,0.0,0.0,3,1,0,1200,81,87,2408,2408,10.9,4.6,0.0,4.6,33.0,0.0,0.0,11.5,0.0,0.0,8.8,14.2,11.7,0.0,0.0,0.0,0.0,150,709,152,699,158,684,154,683,0.0,0.0,-23,0.0,0.0,33.0,3,0.0,0.0,0.0,2.048,1.963,80.7,87.4,0.0,0.0,0.0,,0.0,78.8,188.6,0.0,0.0,0.0,0.0,302.0,1308.2,305.6,1290.2,316.4,1263.2,309.2,1261.4,0.0,0.0,189.32,2408.0,308.29999999999995,229.49999999999994,110.52,0.00038999999999992947,56.94017999998999,23.673913043478265,332.6,True,2026-05-01 23:45:09
3409.19,2,9,2026-05-01 23:45:09,37.66918,-121.43893,1132,108.9,129.6,-12.7,-0.9,KTCY,1.2,353.9,0.0,2.5,-3.7,113.0,90.1,1175,-0.5,-0.01,1.1,10,-629,26,93.7,29.85,2709,307.0,14.0,39,1700.0,0.0,0.0,30.0,0,0,5.0,-18.0,-12.0,3.0,2.0,0.0,-6,0.0,0.0,-109,0.0,0.0,0.0,0.0,3,1,0,1200,81,87,2408,2408,10.9,4.6,0.0,4.6,33.0,0.0,0.0,11.5,0.0,0.0,8.8,14.2,11.7,0.0,0.0,0.0,0.0,150,709,152,699,158,684,154,683,0.0,0.0,-23,0.0,0.0,33.0,3,0.0,0.0,0.0,2.029,1.931,80.7,87.4,0.0,0.0,0.0,,0.0,78.8,188.6,0.0,0.0,0.0,0.0,302.0,1308.2,305.6,1290.2,316.4,1263.2,309.2,1261.4,0.0,0.0,189.32,2408.0,308.29999999999995,229.49999999999994,110.52,0.0004794444444445831,69.79764000002005,23.673913043478265,332.6,True,2026-05-01 23:45:09
3409.25,2,9,2026-05-01 23:45:09,37.6691,-121.43881,1132,108.9,129.5,-12.7,-0.9,KTCY,1.2,353.9,0.0,2.4,-3.9,112.9,90.1,1175,-0.4,-0.01,1.0,8,-612,26,93.8,29.85,2709,307.0,14.0,39,1700.0,0.0,0.0,30.0,0,0,5.0,-18.0,-12.0,3.0,2.0,0.0,-5,0.0,0.0,-109,0.0,0.0,0.0,0.0,3,1,0,1200,81,87,2408,2408,11.0,4.6,0.0,4.6,33.0,0.0,0.0,11.5,0.0,0.0,8.7,14.2,11.7,0.0,0.0,0.0,0.0,150,709,152,698,158,684,154,683,0.0,0.0,-23,0.0,0.0,33.0,3,0.0,0.0,0.0,2.014,1.909,80.7,87.4,0.0,0.0,0.0,,0.0,78.8,188.6,0.0,0.0,0.0,0.0,302.0,1308.2,305.6,1288.4,316.4,1263.2,309.2,1261.4,0.0,0.0,189.32,2408.0,308.29999999999995,229.49999999999994,110.52,0.00055611111111118,80.81832000001003,23.673913043478265,332.6,True,2026-05-01 23:45:09
3409.31,2,9,2026-05-01 23:45:09,37.6691,-121.43881,1132,108.9,129.5,-12.7,-0.9,KTCY,1.2,353.7,0.0,2.3,-4.0,112.9,90.2,1175,-0.4,-0.02,1.0,6,-617,26,93.8,29.85,2709,307.0,14.0,39,1700.0,0.0,0.0,30.0,0,0,5.0,-18.0,-12.0,3.0,2.0,0.0,-4,0.0,0.0,-109,0.0,0.0,0.0,0.0,3,1,0,1200,81,87,2407,2407,11.0,4.6,0.0,4.6,33.0,0.0,0.0,11.5,0.0,0.0,8.7,14.2,11.7,0.0,0.0,0.0,0.0,150,708,152,698,158,684,154,683,0.0,0.0,-23,0.0,0.0,33.0,3,0.0,0.0,0.0,2.004,1.896,80.7,87.4,0.0,0.0,0.0,,0.0,78.8,188.6,0.0,0.0,0.0,0.0,302.0,1306.4,305.6,1288.4,316.4,1263.2,309.2,1261.4,0.0,0.0,189.32,2407.0,308.29999999999995,229.49999999999994,110.52,0.0006327777777777769,91.83900000000001,23.673913043478265,332.6,True,2026-05-01 23:45:09
3409.38,2,9,2026-05-01 23:45:09,37.6691,-121.43881,1131,108.9,129.5,-12.7,-0.9,KTCY,1.2,353.7,0.0,2.2,-4.1,112.8,90.2,1175,-0.4,-0.03,0.9,4,-615,26,93.8,29.85,2709,307.0,14.0,39,1700.0,0.0,0.0,30.0,0,0,5.0,-18.0,-13.0,3.0,2.0,0.0,-3,0.0,0.0,-109,0.0,0.0,0.0,0.0,3,1,0,1200,81,87,2407,2407,11.0,4.6,0.0,4.6,33.0,0.0,0.0,11.5,0.0,0.0,8.7,14.2,11.7,0.0,0.0,0.0,0.0,150,708,152,698,158,684,154,683,0.0,0.0,-23,0.0,0.0,33.0,3,0.0,0.0,0.0,2.001,1.891,80.7,87.4,0.0,0.0,0.0,,0.0,78.8,188.6,0.0,0.0,0.0,0.0,302.0,1306.4,305.6,1288.4,316.4,1263.2,309.2,1261.4,0.0,0.0,189.32,2407.0,308.29999999999995,229.49999999999994,110.52,0.0007222222222224306,104.69646000003009,23.673913043478265,332.6,True,2026-05-01 23:45:09
3409.44,2,9,2026-05-01 23:45:09,37.6691,-121.43881,1131,108.9,129.5,-12.7,-0.9,KTCY,1.2,353.7,0.0,2.1,-4.1,112.6,90.4,1174,-0.5,-0.03,0.9,3,-611,26,94.1,29.85,2709,307.0,14.0,39,1700.0,0.0,0.0,30.0,0,0,5.0,-18.0,-13.0,3.0,2.0,0.0,-3,0.0,0.0,-109,0.0,0.0,0.0,0.0,3,1,0,1200,81,87,2407,2407,11.1,4.6,0.0,4.6,33.0,0.0,0.0,11.5,0.0,0.0,8.6,14.2,11.7,0.0,0.0,0.0,0.0,150,708,152,698,158,684,154,682,0.0,0.0,-23,0.0,0.0,33.0,3,0.0,0.0,0.0,1.998,1.897,80.8,87.4,0.0,0.0,0.0,,0.0,78.8,188.6,0.0,0.0,0.0,0.0,302.0,1306.4,305.6,1288.4,316.4,1263.2,309.2,1259.6,0.0,0.0,189.32,2407.0,308.29999999999995,229.49999999999994,110.52,0.0007988888888890275,115.71714000002007,23.673913043478265,332.6,True,2026-05-01 23:45:09
3409.5,2,9,2026-05-01 23:45:10,37.66902,-121.43869,1131,108.8,129.5,-12.7,-0.9,KTCY,1.2,353.7,0.0,2.0,-4.1,112.5,90.4,1173,-0.5,-0.04,0.9,2,-608,26,94.1,29.85,2709,307.0,14.0,39,1700.0,0.0,0.0,30.0,0,0,5.0,-18.0,-13.0,3.0,2.0,0.0,-3,0.0,0.0,-109,0.0,0.0,0.0,0.0,3,1,0,1200,81,87,2407,2407,11.1,4.6,0.0,4.6,33.0,0.0,0.0,11.5,0.0,0.0,8.6,14.2,11.7,0.0,0.0,0.0,0.0,150,707,152,698,158,683,154,682,0.0,0.0,-23,0.0,0.0,33.0,3,0.0,0.0,0.0,2.001,1.915,80.9,87.4,0.0,0.0,0.0,,0.0,78.8,188.6,0.0,0.0,0.0,0.0,302.0,1304.6,305.6,1288.4,316.4,1261.4,309.2,1259.6,0.0,0.0,189.32,2407.0,308.29999999999995,229.49999999999994,110.52,0.0008755555555556244,126.73276000001005,23.65217391304348,332.6,True,2026-05-01 23:45:09
3409.56,2,9,2026-05-01 23:45:10,37.66902,-121.43869,1130,108.8,129.5,-12.7,-0.91,KTCY,1.2,353.4,0.0,2.0,-4.1,112.2,90.3,1173,-0.6,-0.04,0.9,1,-605,26,94.0,29.85,2709,307.0,14.0,39,1700.0,0.0,0.0,30.0,0,0,5.0,-18.0,-13.0,3.0,2.0,0.0,-3,0.0,0.0,-109,0.0,0.0,0.0,0.0,3,1,0,1200,81,87,2403,2403,11.2,4.7,0.0,4.7,33.0,0.0,0.0,11.5,0.0,0.0,8.6,14.2,11.7,0.0,0.0,0.0,0.0,150,707,152,697,158,683,154,682,0.0,0.0,-23,0.0,0.0,33.0,3,0.0,0.0,0.0,2.014,1.946,81.0,87.4,0.0,0.0,0.0,,0.0,78.8,188.6,0.0,0.0,0.0,0.0,302.0,1304.6,305.6,1286.6,316.4,1261.4,309.2,1259.6,0.0,0.0,189.32,2403.0,308.29999999999995,229.49999999999994,110.52,0.000953055555555554,137.74332000000004,23.148936170212764,332.6,True,2026-05-01 23:45:09
3409.62,2,9,2026-05-01 23:45:10,37.66902,-121.43869,1130,108.8,129.5,-12.7,-0.91,KTCY,1.2,353.4,0.0,1.9,-4.1,112.0,90.0,1172,-0.7,-0.04,0.9,1,-601,26,93.7,29.85,2709,307.0,14.0,39,1700.0,0.0,0.0,30.0,0,0,5.0,-18.0,-13.0,3.0,2.0,0.0,-3,0.0,0.0,-109,0.0,0.0,0.0,0.0,3,1,0,1200,81,87,2403,2403,11.2,4.7,0.0,4.7,33.0,0.0,0.0,11.5,0.0,0.0,8.6,14.2,11.7,0.0,0.0,0.0,0.0,150,706,152,697,158,683,154,682,0.0,0.0,-23,0.0,0.0,33.0,3,0.0,0.0,0.0,2.032,1.976,81.1,87.4,0.0,0.0,0.0,,0.0,78.8,188.6,0.0,0.0,0.0,0.0,302.0,1302.8,305.6,1286.6,316.4,1261.4,309.2,1259.6,0.0,0.0,189.32,2403.0,308.29999999999995,229.49999999999994,110.52,0.0010313888888888161,148.75387999999,23.148936170212764,332.6,True,2026-05-01 23:45:09
3409.69,2,9,2026-05-01 23:45:10,37.66902,-121.43869,1130,108.8,129.5,-12.7,-0.91,KTCY,1.2,353.4,0.0,1.9,-4.1,111.7,89.7,1172,-0.8,-0.03,1.0,1,-591,26,93.3,29.85,2709,307.0,14.0,39,1700.0,0.0,0.0,30.0,0,0,5.0,-18.0,-13.0,3.0,2.0,0.0,-3,0.0,0.0,-109,0.0,0.0,0.0,0.0,3,1,0,1200,81,88,2403,2403,11.2,4.7,0.0,4.7,33.1,0.0,0.0,11.5,0.0,0.0,8.6,14.2,11.7,0.0,0.0,0.0,0.0,150,706,152,697,158,683,154,682,0.0,0.0,-23,0.0,0.0,33.1,3,0.0,0.0,0.0,2.058,1.998,81.1,87.5,0.0,0.0,0.0,,0.0,78.8,190.4,0.0,0.0,0.0,0.0,302.0,1302.8,305.6,1286.6,316.4,1261.4,309.2,1259.6,0.0,0.0,189.5,2403.0,308.29999999999995,229.49999999999994,110.7,0.0011227777777779186,161.5995333333534,23.148936170212764,332.6,True,2026-05-01 23:45:09
3409.75,2,9,2026-05-01 23:45:10,37.66894,-121.43857,1130,108.6,129.6,-12.7,-0.91,KTCY,1.2,353.4,0.0,1.8,-4.2,111.4,89.5,1171,-1.0,-0.03,1.0,2,-587,26,93.2,29.85,2709,307.0,14.0,39,1700.0,0.0,0.0,30.0,0,0,5.0,-18.0,-13.0,3.0,2.0,0.0,-3,0.0,0.0,-109,0.0,0.0,0.0,0.0,3,1,0,1200,81,88,2403,2403,11.2,4.7,0.0,4.7,33.1,0.0,0.0,11.5,0.0,0.0,8.7,14.2,11.7,0.0,0.0,0.0,0.0,150,706,152,697,158,683,154,682,0.0,0.0,-23,0.0,0.0,33.1,3,0.0,0.0,0.0,2.081,2.009,81.1,87.6,0.0,0.0,0.0,,0.0,78.8,190.4,0.0,0.0,0.0,0.0,302.0,1302.8,305.6,1286.6,316.4,1261.4,309.2,1259.6,0.0,0.0,189.68,2403.0,308.29999999999995,229.49999999999994,110.88000000000001,0.0012011111111111807,172.5999733333434,23.106382978723403,332.6,True,2026-05-01 23:45:09
3409.81,2,9,2026-05-01 23:45:10,37.66894,-121.43857,1129,108.6,129.6,-12.7,-0.92,KTCY,1.2,353.2,0.0,1.8,-4.3,111.1,89.4,1170,-1.1,-0.03,1.0,2,-588,26,93.0,29.85,2709,307.0,14.0,39,1700.0,0.0,0.0,30.0,0,0,5.0,-18.0,-13.0,3.0,2.0,0.0,-3,0.0,0.0,-109,0.0,0.0,0.0,0.0,3,1,0,1200,81,88,2389,2389,11.3,4.7,0.0,4.7,33.1,0.0,0.0,11.5,0.0,0.0,8.8,14.2,11.7,0.0,0.0,0.0,0.0,150,705,152,697,158,683,154,681,0.0,0.0,-23,0.0,0.0,33.1,3,0.0,0.0,0.0,2.104,2.014,81.1,87.6,0.0,0.0,0.0,,0.0,78.8,190.4,0.0,0.0,0.0,0.0,302.0,1301.0,305.6,1286.6,316.4,1261.4,309.2,1257.8,0.0,0.0,189.68,2389.0,308.29999999999995,229.49999999999994,110.88000000000001,0.0012794444444444429,183.5902933333334,23.106382978723403,332.6,True,2026-05-01 23:45:09
3409.88,2,9,2026-05-01 23:45:10,37.66894,-121.43857,1129,108.6,129.6,-12.7,-0.92,KTCY,1.2,353.2,0.0,1.8,-4.4,110.8,89.2,1170,-1.3,-0.02,1.0,2,-591,26,92.9,29.85,2708,307.0,14.0,39,1700.0,0.0,0.0,30.0,0,0,5.0,-18.0,-13.0,3.0,2.0,0.0,-3,0.0,0.0,-109,0.0,0.0,0.0,0.0,3,1,0,1200,81,88,2389,2389,11.3,4.7,0.0,4.7,33.1,0.0,0.0,11.5,0.0,0.0,8.9,14.2,11.7,0.0,0.0,0.0,0.0,150,705,152,696,158,683,154,681,0.0,0.0,-23,0.0,0.0,33.1,3,0.0,0.0,0.0,2.128,2.015,81.1,87.6,0.0,0.0,0.0,,0.0,78.8,190.4,0.0,0.0,0.0,0.0,302.0,1301.0,305.6,1284.8,316.4,1261.4,309.2,1257.8,0.0,0.0,189.68,2389.0,308.29999999999995,229.49999999999994,110.88000000000001,0.0013708333333335456,196.4123333333634,23.106382978723403,332.6,True,2026-05-01 23:45:09
3409.94,2,9,2026-05-01 23:45:10,37.66894,-121.43857,1129,108.6,129.6,-12.7,-0.92,KTCY,1.2,353.2,0.0,1.7,-4.4,110.5,89.2,1170,-1.5,-0.02,1.0,2,-585,26,92.8,29.85,2708,307.0,14.0,39,1700.0,0.0,0.0,30.0,0,0,5.0,-18.0,-13.0,3.0,2.0,0.0,-2,0.0,0.0,-109,0.0,0.0,0.0,0.0,3,1,0,1200,81,88,2389,2389,11.3,4.7,0.0,4.7,33.1,0.0,0.0,11.5,0.0,0.0,9.0,14.2,11.7,0.0,0.0,0.0,0.0,150,705,152,696,158,683,154,681,0.0,0.0,-23,0.0,0.0,33.1,3,0.0,0.0,0.0,2.146,2.014,81.1,87.6,0.0,0.0,0.0,,0.0,78.8,190.4,0.0,0.0,0.0,0.0,302.0,1301.0,305.6,1284.8,316.4,1261.4,309.2,1257.8,0.0,0.0,189.68,2389.0,308.29999999999995,229.49999999999994,110.88000000000001,0.0014491666666668077,207.40265333335338,23.106382978723403,332.6,True,2026-05-01 23:45:09
3410.0,2,9,2026-05-01 23:45:10,37.66886,-121.43845,1129,108.4,129.6,-12.7,-0.92,KTCY,1.2,353.2,0.0,1.7,-4.4,110.3,89.1,1169,-1.6,-0.01,0.9,1,-594,26,92.8,29.85,2707,307.0,14.0,39,1700.0,0.0,0.0,30.0,0,0,5.0,-18.0,-13.0,3.0,2.0,0.0,-2,0.0,0.0,-109,0.0,0.0,0.0,0.0,3,1,0,1200,81,88,2389,2389,11.3,4.7,0.0,4.7,33.1,0.0,0.0,11.5,0.0,0.0,9.0,14.2,11.7,0.0,0.0,0.0,0.0,150,704,152,696,158,682,154,681,0.0,0.0,-23,0.0,0.0,33.1,3,0.0,0.0,0.0,2.15,2.013,81.0,87.6,0.0,0.0,0.0,,0.0,78.8,190.4,0.0,0.0,0.0,0.0,302.0,1299.2,305.6,1284.8,316.4,1259.6,309.2,1257.8,0.0,0.0,189.68,2389.0,308.29999999999995,229.49999999999994,110.88000000000001,0.0015275000000000696,218.3828533333434,23.06382978723404,332.6,True,2026-05-01 23:45:09
3410.06,2,9,2026-05-01 23:45:10,37.66886,-121.43845,1129,108.4,129.6,-12.7,-0.93,KTCY,1.2,352.9,0.0,1.6,-4.4,110.1,89.1,1168,-1.8,-0.0,0.9,1,-593,26,92.7,29.85,2706,307.0,14.0,39,1700.0,0.0,0.0,30.0,0,0,5.0,-19.0,-13.0,3.0,2.0,0.0,-2,0.0,0.0,-109,0.0,0.0,0.0,0.0,3,1,0,1200,81,87,2377,2377,11.3,4.8,0.0,4.8,33.1,0.0,0.0,11.5,0.0,0.0,9.0,14.2,11.7,0.0,0.0,0.0,0.0,150,704,152,696,158,682,154,681,0.0,0.0,-23,0.0,0.0,33.1,3,0.0,0.0,0.0,2.141,2.012,81.0,87.5,0.0,0.0,0.0,,0.0,78.8,188.6,0.0,0.0,0.0,0.0,302.0,1299.2,305.6,1284.8,316.4,1259.6,309.2,1257.8,0.0,0.0,189.5,2377.0,308.29999999999995,229.49999999999994,110.7,0.0016066666666666644,229.35293333333343,22.583333333333336,332.6,True,2026-05-01 23:45:09
3410.12,2,9,2026-05-01 23:45:10,37.66886,-121.43845,1129,108.4,129.6,-12.7,-0.93,KTCY,1.2,352.9,0.0,1.6,-4.4,109.9,89.1,1167,-1.9,0.0,0.9,0,-591,26,92.7,29.85,2705,307.0,14.0,39,1700.0,0.0,0.0,30.0,0,0,5.0,-19.0,-14.0,3.0,2.0,0.0,-2,0.0,0.0,-109,0.0,0.0,0.0,0.0,3,1,0,1200,81,87,2377,2377,11.4,4.8,0.0,4.8,33.1,0.0,0.0,11.5,0.0,0.0,9.0,14.2,11.7,0.0,0.0,0.0,0.0,150,704,152,696,158,682,154,681,0.0,0.0,-23,0.0,0.0,33.1,3,0.0,0.0,0.0,2.129,2.009,81.0,87.4,0.0,0.0,0.0,,0.0,78.8,188.6,0.0,0.0,0.0,0.0,302.0,1299.2,305.6,1284.8,316.4,1259.6,309.2,1257.8,0.0,0.0,189.32,2377.0,308.29999999999995,229.49999999999994,110.52,0.0016866666666665916,240.32301333332344,22.583333333333336,332.6,True,2026-05-01 23:45:09
3410.19,2,9,2026-05-01 23:45:10,37.66886,-121.43845,1127,108.4,129.6,-12.7,-0.93,KTCY,1.2,352.9,0.0,1.5,-4.3,109.8,89.1,1167,-2.0,0.01,0.9,0,-590,26,92.7,29.85,2705,307.0,14.0,39,1700.0,0.0,0.0,30.0,0,0,5.0,-19.0,-14.0,3.0,2.0,0.0,-2,0.0,0.0,-109,0.0,0.0,0.0,0.0,3,1,0,1200,81,87,2377,2377,11.4,4.8,0.0,4.8,33.1,0.0,0.0,11.5,0.0,0.0,8.9,14.2,11.7,0.0,0.0,0.0,0.0,150,704,152,696,158,682,154,682,0.0,0.0,-23,0.0,0.0,33.1,3,0.0,0.0,0.0,2.118,2.008,80.9,87.4,0.0,0.0,0.0,,0.0,78.8,188.6,0.0,0.0,0.0,0.0,302.0,1299.2,305.6,1284.8,316.4,1259.6,309.2,1259.6,0.0,0.0,189.32,2377.0,308.29999999999995,229.49999999999994,110.52,0.0017800000000001432,253.12144000002004,22.583333333333336,332.6,True,2026-05-01 23:45:09
3410.25,2,9,2026-05-01 23:45:10,37.66878,-121.43832,1127,108.3,129.3,-12.7,-0.93,KTCY,1.2,352.9,0.0,1.4,-4.1,109.8,89.3,1166,-2.0,0.02,0.9,0,-581,26,92.9,29.85,2704,307.0,14.0,39,1700.0,0.0,0.0,30.0,0,0,5.0,-19.0,-14.0,3.0,2.0,0.0,-2,0.0,0.0,-109,0.0,0.0,0.0,0.0,3,1,0,1200,81,87,2377,2377,11.4,4.8,0.0,4.8,33.1,0.0,0.0,11.5,0.0,0.0,8.9,14.2,11.7,0.0,0.0,0.0,0.0,150,703,152,696,158,682,154,682,0.0,0.0,-23,0.0,0.0,33.1,3,0.0,0.0,0.0,2.097,2.007,80.9,87.4,0.0,0.0,0.0,,0.0,78.8,188.6,0.0,0.0,0.0,0.0,302.0,1297.4,305.6,1284.8,316.4,1259.6,309.2,1259.6,0.0,0.0,189.32,2377.0,308.29999999999995,229.49999999999994,110.52,0.0018600000000000704,264.08646000001005,22.5625,332.6,True,2026-05-01 23:45:09
3410.31,2,9,2026-05-01 23:45:10,37.66878,-121.43832,1127,108.3,129.3,-12.7,-0.93,KTCY,1.2,352.7,0.0,1.4,-3.9,109.7,89.5,1166,-2.1,0.03,0.9,0,-579,26,93.2,29.85,2704,307.0,14.0,39,1700.0,0.0,0.0,30.0,0,0,5.0,-19.0,-14.0,3.0,2.0,0.0,-2,0.0,0.0,-109,0.0,0.0,0.0,0.0,3,1,0,1200,81,87,2384,2384,11.4,4.8,0.0,4.8,33.2,0.0,0.0,11.5,0.0,0.0,8.8,14.2,11.7,0.0,0.0,0.0,0.0,150,703,152,696,158,682,154,682,0.0,0.0,-23,0.0,0.0,33.2,3,0.0,0.0,0.0,2.068,2.007,80.9,87.4,0.0,0.0,0.0,,0.0,78.8,188.6,0.0,0.0,0.0,0.0,302.0,1297.4,305.6,1284.8,316.4,1259.6,309.2,1259.6,0.0,0.0,189.32,2384.0,308.29999999999995,229.49999999999994,110.52,0.0019399999999999977,275.04642000000007,22.5625,332.6,True,2026-05-01 23:45:09
3410.38,2,9,2026-05-01 23:45:10,37.66878,-121.43832,1126,108.3,129.3,-12.7,-0.93,KTCY,1.2,352.7,0.0,1.3,-3.7,109.8,89.6,1166,-2.1,0.03,0.9,0,-577,26,93.2,29.85,2703,307.0,14.0,39,1700.0,0.0,0.0,30.0,0,0,5.0,-19.0,-14.0,3.0,2.0,0.0,-2,0.0,0.0,-109,0.0,0.0,0.0,0.0,3,1,0,1200,81,87,2384,2384,11.4,4.8,0.0,4.8,33.2,0.0,0.0,11.5,0.0,0.0,8.8,14.2,11.7,0.0,0.0,0.0,0.0,150,703,152,696,158,681,154,682,0.0,0.0,-23,0.0,0.0,33.2,3,0.0,0.0,0.0,2.039,2.008,81.0,87.4,0.0,0.0,0.0,,0.0,78.8,188.6,0.0,0.0,0.0,0.0,302.0,1297.4,305.6,1284.8,316.4,1257.8,309.2,1259.6,0.0,0.0,189.32,2384.0,308.29999999999995,229.49999999999994,110.52,0.002033333333333549,287.83304000003,22.5625,332.6,True,2026-05-01 23:45:09
3410.44,2,9,2026-05-01 23:45:10,37.66878,-121.43832,1126,108.3,129.3,-12.7,-0.93,KTCY,1.2,352.7,0.0,1.3,-3.5,109.9,89.8,1166,-2.0,0.04,0.9,0,-570,26,93.4,29.85,2703,307.0,14.0,39,1700.0,0.0,0.0,30.0,0,0,5.0,-19.0,-14.0,3.0,2.0,0.0,-2,0.0,0.0,-109,0.0,0.0,0.0,0.0,3,1,0,1200,81,87,2384,2384,11.4,4.8,0.0,4.8,33.2,0.0,0.0,11.5,0.0,0.0,8.8,14.2,11.7,0.0,0.0,0.0,0.0,150,703,152,695,158,681,154,682,0.0,0.0,-23,0.0,0.0,33.2,3,0.0,0.0,0.0,2.017,2.009,81.0,87.4,0.0,0.0,0.0,,0.0,78.8,188.6,0.0,0.0,0.0,0.0,302.0,1297.4,305.6,1283.0,316.4,1257.8,309.2,1259.6,0.0,0.0,189.32,2384.0,308.29999999999995,229.49999999999994,110.52,0.0021133333333334765,298.79300000002,22.5625,332.6,True,2026-05-01 23:45:09
3410.5,2,9,2026-05-01 23:45:11,37.6687,-121.4382,1126,108.2,129.0,-12.7,-0.93,KTCY,1.2,352.7,0.0,1.2,-3.3,110.0,89.8,1165,-1.9,0.04,0.9,0,-569,26,93.4,29.85,2702,307.0,14.0,39,1700.0,0.0,0.0,30.0,0,0,5.0,-19.0,-14.0,3.0,2.0,0.0,-2,0.0,0.0,-109,0.0,0.0,0.0,0.0,3,1,0,1200,81,87,2384,2384,11.5,4.8,0.0,4.8,33.2,0.0,0.0,11.5,0.0,0.0,8.7,14.2,11.7,0.0,0.0,0.0,0.0,150,702,152,695,158,681,154,682,0.0,0.0,-23,0.0,0.0,33.2,3,0.0,0.0,0.0,2.004,2.013,80.9,87.4,0.0,0.0,0.0,,0.0,78.8,188.6,0.0,0.0,0.0,0.0,302.0,1295.6,305.6,1283.0,316.4,1257.8,309.2,1259.6,0.0,0.0,189.32,2384.0,308.29999999999995,229.49999999999994,110.52,0.002193333333333404,309.7479000000101,22.541666666666668,332.6,True,2026-05-01 23:45:09
3410.56,2,9,2026-05-01 23:45:11,37.6687,-121.4382,1124,108.2,129.0,-12.7,-0.94,KTCY,1.2,352.4,0.0,1.2,-3.1,110.1,89.8,1164,-1.8,0.04,0.9,0,-569,26,93.4,29.85,2701,307.0,14.0,39,1700.0,0.0,0.0,30.0,0,0,5.0,-19.0,-14.0,3.0,2.0,0.0,-2,0.0,0.0,-109,0.0,0.0,0.0,0.0,3,1,0,1200,81,87,2399,2399,11.5,4.9,0.0,4.9,33.1,0.0,0.0,11.5,0.0,0.0,8.7,14.2,11.7,0.0,0.0,0.0,0.0,150,702,152,695,158,681,154,682,0.0,0.0,-23,0.0,0.0,33.1,3,0.0,0.0,0.0,2.002,2.028,80.9,87.4,0.0,0.0,0.0,,0.0,78.8,188.6,0.0,0.0,0.0,0.0,302.0,1295.6,305.6,1283.0,316.4,1257.8,309.2,1259.6,0.0,0.0,189.32,2399.0,308.29999999999995,229.49999999999994,110.52,0.0022741666666666635,320.6977400000001,22.081632653061224,332.6,True,2026-05-01 23:45:09
3410.62,2,9,2026-05-01 23:45:11,37.6687,-121.4382,1124,108.2,129.0,-12.7,-0.94,KTCY,1.2,352.4,0.0,1.1,-2.8,110.3,89.8,1164,-1.7,0.04,0.8,0,-560,26,93.4,29.85,2701,307.0,14.0,39,1700.0,0.0,0.0,30.0,0,0,5.0,-19.0,-14.0,3.0,2.0,0.0,-2,0.0,0.0,-109,0.0,0.0,0.0,0.0,3,1,0,1200,81,87,2399,2399,11.5,4.9,0.0,4.9,33.1,0.0,0.0,11.5,0.0,0.0,8.7,14.2,11.7,0.0,0.0,0.0,0.0,150,702,152,695,158,681,154,682,0.0,0.0,-23,0.0,0.0,33.1,3,0.0,0.0,0.0,2.014,2.053,80.9,87.4,0.0,0.0,0.0,,0.0,78.8,188.6,0.0,0.0,0.0,0.0,302.0,1295.6,305.6,1283.0,316.4,1257.8,309.2,1259.6,0.0,0.0,189.32,2399.0,308.29999999999995,229.49999999999994,110.52,0.002355833333333256,331.64757999999017,22.081632653061224,332.6,True,2026-05-01 23:45:09
3410.69,2,9,2026-05-01 23:45:11,37.6687,-121.4382,1124,108.2,129.0,-12.7,-0.94,KTCY,1.2,352.4,0.0,1.1,-2.6,110.4,89.8,1163,-1.5,0.04,0.8,0,-546,26,93.4,29.85,2700,307.0,14.0,39,1700.0,0.0,0.0,30.0,0,0,5.0,-19.0,-14.0,3.0,2.0,0.0,-3,0.0,0.0,-108,0.0,0.0,0.0,0.0,3,1,0,1200,81,87,2399,2399,11.6,4.9,0.0,4.9,33.1,0.0,0.0,11.5,0.0,0.0,8.6,14.2,11.7,0.0,0.0,0.0,0.0,150,702,152,695,158,681,154,682,0.0,0.0,-23,0.0,0.0,33.1,3,0.0,0.0,0.0,2.03,2.08,81.0,87.4,0.0,0.0,0.0,,0.0,78.8,188.6,0.0,0.0,0.0,0.0,302.0,1295.6,305.6,1283.0,316.4,1257.8,309.2,1259.6,0.0,0.0,189.32,2399.0,308.29999999999995,229.49999999999994,110.52,0.0024511111111112567,344.42239333335334,22.081632653061224,332.6,True,2026-05-01 23:45:09
3410.75,2,9,2026-05-01 23:45:11,37.66862,-121.43808,1124,108.1,128.7,-12.7,-0.94,KTCY,1.2,352.4,0.0,1.1,-2.5,110.6,89.9,1163,-1.3,0.04,0.9,0,-527,26,93.5,29.85,2700,307.0,14.0,39,1700.0,0.0,0.0,30.0,0,0,5.0,-19.0,-14.0,3.0,2.0,0.0,-3,0.0,0.0,-108,0.0,0.0,0.0,0.0,3,1,0,1200,81,87,2399,2399,11.6,4.9,0.0,4.9,33.0,0.0,0.0,11.5,0.0,0.0,8.6,14.2,11.7,0.0,0.0,0.0,0.0,150,702,152,694,158,681,154,682,0.0,0.0,-23,0.0,0.0,33.0,3,0.0,0.0,0.0,2.043,2.1,81.0,87.4,0.0,0.0,0.0,,0.0,78.8,188.6,0.0,0.0,0.0,0.0,302.0,1295.6,305.6,1281.2,316.4,1257.8,309.2,1259.6,0.0,0.0,189.32,2399.0,308.29999999999995,229.49999999999994,110.52,0.002532777777777849,355.3671733333434,22.061224489795915,332.6,True,2026-05-01 23:45:09
3410.81,2,9,2026-05-01 23:45:11,37.66862,-121.43808,1122,108.1,128.7,-12.7,-0.95,KTCY,1.2,352.2,0.0,1.1,-2.4,110.8,89.9,1163,-1.2,0.03,0.9,0,-536,26,93.5,29.85,2700,307.0,14.0,39,1700.0,0.0,0.0,30.0,0,0,5.0,-19.0,-14.0,3.0,2.0,0.0,-3,0.0,0.0,-108,0.0,0.0,0.0,0.0,3,1,0,1200,81,87,2425,2425,11.7,4.9,0.0,4.9,33.0,0.0,0.0,11.5,0.0,0.0,8.6,14.2,11.7,0.0,0.0,0.0,0.0,150,702,152,694,158,681,154,682,0.0,0.0,-23,0.0,0.0,33.0,3,0.0,0.0,0.0,2.053,2.113,81.1,87.5,0.0,0.0,0.0,,0.0,78.8,188.6,0.0,0.0,0.0,0.0,302.0,1295.6,305.6,1281.2,316.4,1257.8,309.2,1259.6,0.0,0.0,189.5,2425.0,308.29999999999995,229.49999999999994,110.7,0.0026144444444444414,366.30689333333345,22.061224489795915,332.6,True,2026-05-01 23:45:09
3410.88,2,9,2026-05-01 23:45:11,37.66862,-121.43808,1122,108.1,128.7,-12.7,-0.95,KTCY,1.2,352.2,0.0,1.1,-2.4,110.9,89.9,1162,-1.0,0.03,0.9,0,-538,26,93.5,29.85,2699,307.0,14.0,39,1700.0,0.0,0.0,30.0,0,0,5.0,-19.0,-14.0,3.0,2.0,0.0,-3,0.0,0.0,-108,0.0,0.0,0.0,0.0,3,1,0,1200,81,88,2425,2425,11.8,4.9,0.0,4.9,32.9,0.0,0.0,11.5,0.0,0.0,8.6,14.2,11.7,0.0,0.0,0.0,0.0,150,701,152,694,158,681,154,682,0.0,0.0,-23,0.0,0.0,32.9,3,0.0,0.0,0.0,2.058,2.117,81.2,87.5,0.0,0.0,7.0,R,0.0,78.8,190.4,0.0,0.0,0.0,0.0,302.0,1293.8,305.6,1281.2,316.4,1257.8,309.2,1259.6,0.0,0.0,189.5,2425.0,308.29999999999995,229.49999999999994,110.7,0.002709722222222442,379.06990000003,22.061224489795915,332.6,True,2026-05-01 23:45:09
3410.94,2,9,2026-05-01 23:45:11,37.66862,-121.43808,1122,108.1,128.7,-12.7,-0.95,KTCY,1.2,352.2,0.0,1.1,-2.4,111.0,89.9,1161,-0.8,0.02,0.9,0,-541,26,93.5,29.85,2698,307.0,14.0,39,1700.0,0.0,0.0,30.0,0,0,5.0,-19.0,-14.0,3.0,2.0,0.0,-4,0.0,0.0,-108,0.0,0.0,0.0,0.0,3,1,0,1200,81,88,2425,2425,12.0,4.9,0.0,4.9,32.8,0.0,0.0,11.5,0.0,0.0,8.7,14.2,11.7,0.0,0.0,0.0,0.0,150,701,152,694,158,681,154,682,0.0,0.0,-23,0.0,0.0,32.8,3,0.0,0.0,0.0,2.061,2.106,81.2,87.6,0.0,0.0,7.0,R,0.0,78.8,190.4,0.0,0.0,0.0,0.0,302.0,1293.8,305.6,1281.2,316.4,1257.8,309.2,1259.6,0.0,0.0,189.68,2425.0,308.29999999999995,229.49999999999994,110.88000000000001,0.0027913888888890345,390.00962000002,22.061224489795915,332.6,True,2026-05-01 23:45:09
3411.0,2,9,2026-05-01 23:45:11,37.66854,-121.43796,1122,108.1,128.6,-12.7,-0.95,KTCY,1.2,352.2,0.0,1.1,-2.4,111.1,89.8,1161,-0.7,0.02,0.9,0,-542,26,93.4,29.85,2697,307.0,14.0,39,1700.0,0.0,0.0,30.0,0,0,5.0,-19.0,-15.0,3.0,2.0,0.0,-4,0.0,0.0,-108,0.0,0.0,0.0,0.0,3,1,0,1200,81,88,2425,2425,12.1,4.9,0.0,4.9,32.8,0.0,0.0,11.5,0.0,0.0,8.7,14.2,11.7,0.0,0.0,0.0,0.0,150,701,152,693,158,681,154,682,0.0,0.0,-23,0.0,0.0,32.8,3,0.0,0.0,0.0,2.061,2.075,81.2,87.6,0.0,0.0,7.0,R,0.0,78.8,190.4,0.0,0.0,0.0,0.0,302.0,1293.8,305.6,1279.4,316.4,1257.8,309.2,1259.6,0.0,0.0,189.68,2425.0,308.29999999999995,229.49999999999994,110.88000000000001,0.002873055555555627,400.94934000001007,22.061224489795915,332.6,True,2026-05-01 23:45:09
3411.06,2,9,2026-05-01 23:45:11,37.66854,-121.43796,1122,108.1,128.6,-12.7,-0.96,KTCY,1.2,352.0,0.0,1.1,-2.4,111.1,89.6,1161,-0.5,0.01,0.9,0,-536,26,93.2,29.85,2697,307.0,14.0,39,1700.0,0.0,0.0,30.0,0,0,5.0,-19.0,-15.0,3.0,2.0,0.0,-4,0.0,0.0,-108,0.0,0.0,0.0,0.0,3,1,0,1200,81,88,2441,2441,12.2,5.1,0.0,5.1,32.7,0.0,0.0,11.5,0.0,0.0,8.8,14.2,11.7,0.0,0.0,0.0,0.0,150,701,152,693,158,681,154,682,0.0,0.0,-23,0.0,0.0,32.7,3,0.0,0.0,0.0,2.061,2.026,81.3,87.7,0.0,0.0,8.0,R,0.0,78.8,190.4,0.0,0.0,0.0,0.0,302.0,1293.8,305.6,1279.4,316.4,1257.8,309.2,1259.6,0.0,0.0,189.86,2441.0,308.29999999999995,229.49999999999994,111.06000000000002,0.0029563888888888843,411.8890600000001,21.19607843137255,332.6,True,2026-05-01 23:45:09
3411.12,2,9,2026-05-01 23:45:11,37.66854,-121.43796,1122,108.1,128.6,-12.7,-0.96,KTCY,1.2,352.0,0.0,1.2,-2.4,111.2,89.3,1160,-0.4,0.01,1.0,1,-531,26,92.9,29.85,2696,307.0,14.0,39,1700.0,0.0,0.0,30.0,0,0,5.0,-19.0,-15.0,3.0,2.0,0.0,-4,0.0,0.0,-108,0.0,0.0,0.0,0.0,3,1,0,1200,81,88,2441,2441,12.4,5.1,0.0,5.1,32.7,0.0,0.0,11.5,0.0,0.0,8.9,14.2,11.7,0.0,0.0,0.0,0.0,150,701,152,693,158,681,154,682,0.0,0.0,-23,0.0,0.0,32.7,3,0.0,0.0,0.0,2.059,1.974,81.3,87.7,0.0,0.0,8.0,R,0.0,78.8,190.4,0.0,0.0,0.0,0.0,302.0,1293.8,305.6,1279.4,316.4,1257.8,309.2,1259.6,0.0,0.0,189.86,2441.0,308.29999999999995,229.49999999999994,111.06000000000002,0.003041388888888807,422.82877999999016,21.19607843137255,332.6,True,2026-05-01 23:45:09
3411.19,2,9,2026-05-01 23:45:11,37.66854,-121.43796,1120,108.1,128.6,-12.7,-0.96,KTCY,1.2,352.0,0.0,1.3,-2.4,111.2,89.2,1160,-0.3,0.0,1.0,2,-526,26,92.8,29.85,2696,307.0,14.0,39,1700.0,0.0,0.0,30.0,0,0,5.0,-19.0,-15.0,3.0,2.0,0.0,-4,0.0,0.0,-108,0.0,0.0,0.0,0.0,3,1,0,1200,81,88,2441,2441,12.5,5.1,0.0,5.1,32.6,0.0,0.0,11.5,0.0,0.0,9.0,14.2,11.7,0.0,0.0,0.0,0.0,150,700,152,693,158,681,154,682,0.0,0.0,-23,0.0,0.0,32.6,3,0.0,0.0,0.0,2.058,1.931,81.3,87.6,0.0,0.0,8.0,R,0.0,78.8,190.4,0.0,0.0,0.0,0.0,302.0,1292.0,305.6,1279.4,316.4,1257.8,309.2,1259.6,0.0,0.0,189.68,2441.0,308.29999999999995,229.49999999999994,110.88000000000001,0.0031405555555557053,435.5917866666867,21.19607843137255,332.6,True,2026-05-01 23:45:09
3411.25,2,9,2026-05-01 23:45:11,37.66846,-121.43784,1120,108.3,128.8,-12.7,-0.96,KTCY,1.2,352.0,0.0,1.4,-2.4,111.2,89.1,1159,-0.3,0.0,1.1,4,-529,26,92.7,29.85,2695,307.0,14.0,39,1700.0,0.0,0.0,30.0,0,0,5.0,-19.0,-15.0,3.0,2.0,0.0,-4,0.0,0.0,-108,0.0,0.0,0.0,0.0,3,1,0,1200,81,88,2441,2441,12.7,5.1,0.0,5.1,32.6,0.0,0.0,11.5,0.0,0.0,9.0,14.2,11.7,0.0,0.0,0.0,0.0,150,700,152,692,158,681,154,682,0.0,0.0,-23,0.0,0.0,32.6,3,0.0,0.0,0.0,2.056,1.906,81.3,87.6,0.0,0.0,9.0,R,0.0,78.8,190.4,0.0,0.0,0.0,0.0,302.0,1292.0,305.6,1277.6,316.4,1257.8,309.2,1259.6,0.0,0.0,189.68,2441.0,308.29999999999995,229.49999999999994,110.88000000000001,0.003225555555555628,446.54162666667673,21.235294117647058,332.6,True,2026-05-01 23:45:09
3411.31,2,9,2026-05-01 23:45:11,37.66846,-121.43784,1120,108.3,128.8,-12.7,-0.96,KTCY,1.2,351.7,0.0,1.5,-2.4,111.1,89.0,1158,-0.2,-0.0,1.2,5,-531,26,92.5,29.85,2694,307.0,14.0,39,1700.0,0.0,0.0,30.0,0,0,5.0,-19.0,-15.0,3.0,2.0,0.0,-4,0.0,0.0,-108,0.0,0.0,0.0,0.0,3,1,0,1200,81,88,2415,2415,12.8,5.1,0.0,5.1,32.6,0.0,0.0,11.5,0.0,0.0,9.0,14.2,11.7,0.0,0.0,0.0,0.0,150,699,152,692,158,681,154,682,0.0,0.0,-23,0.0,0.0,32.6,3,0.0,0.0,0.0,2.042,1.891,81.3,87.5,0.0,0.0,9.0,R,0.0,78.8,190.4,0.0,0.0,0.0,0.0,302.0,1290.2,305.6,1277.6,316.4,1257.8,309.2,1259.6,0.0,0.0,189.5,2415.0,308.29999999999995,229.49999999999994,110.7,0.003310555555555551,457.50158666666675,21.235294117647058,332.6,True,2026-05-01 23:45:09
3411.38,2,9,2026-05-01 23:45:11,37.66846,-121.43784,1118,108.3,128.8,-12.7,-0.96,KTCY,1.2,351.7,0.0,1.6,-2.4,111.1,89.1,1158,-0.2,-0.01,1.0,6,-534,26,92.7,29.85,2694,307.0,14.0,39,1700.0,0.0,0.0,30.0,0,0,5.0,-19.0,-15.0,3.0,2.0,0.0,-4,0.0,0.0,-108,0.0,0.0,0.0,0.0,3,1,0,1200,81,87,2415,2415,12.9,5.1,0.0,5.1,32.6,0.0,0.0,11.5,0.0,0.0,9.0,14.2,11.7,0.0,0.0,0.0,0.0,150,699,152,692,158,681,154,681,0.0,0.0,-23,0.0,0.0,32.6,3,0.0,0.0,0.0,2.014,1.886,81.2,87.5,0.0,0.0,10.0,R,0.0,78.8,188.6,0.0,0.0,0.0,0.0,302.0,1290.2,305.6,1277.6,316.4,1257.8,309.2,1257.8,0.0,0.0,189.5,2415.0,308.29999999999995,229.49999999999994,110.7,0.0034097222222224497,470.2882066666967,21.235294117647058,332.6,True,2026-05-01 23:45:09
3411.44,2,9,2026-05-01 23:45:11,37.66846,-121.43784,1118,108.3,128.8,-12.7,-0.96,KTCY,1.2,351.7,0.0,1.7,-2.2,111.1,89.1,1157,-0.2,-0.01,1.0,4,-530,26,92.7,29.85,2693,307.0,14.0,39,1700.0,0.0,0.0,30.0,0,0,5.0,-19.0,-15.0,3.0,2.0,0.0,-4,0.0,0.0,-108,0.0,0.0,0.0,0.0,3,1,0,1200,81,87,2415,2415,13.0,5.1,0.0,5.1,32.6,0.0,0.0,11.5,0.0,0.0,8.9,14.2,11.7,0.0,0.0,0.0,0.0,150,699,152,692,158,681,154,681,0.0,0.0,-23,0.0,0.0,32.6,3,0.0,0.0,0.0,1.973,1.877,81.2,87.4,0.0,0.0,10.0,R,0.0,78.8,188.6,0.0,0.0,0.0,0.0,302.0,1290.2,305.6,1277.6,316.4,1257.8,309.2,1257.8,0.0,0.0,189.32,2415.0,308.29999999999995,229.49999999999994,110.52,0.003494722222222372,481.2481666666867,21.235294117647058,332.6,True,2026-05-01 23:45:09
3411.5,2,9,2026-05-01 23:45:12,37.66839,-121.43771,1118,108.6,128.8,-12.7,-0.96,KTCY,1.2,351.7,0.0,1.8,-1.9,111.0,89.0,1157,-0.2,-0.0,1.0,3,-527,26,92.6,29.85,2693,307.0,14.0,39,1700.0,0.0,0.0,30.0,0,0,5.0,-19.0,-15.0,3.0,2.0,0.0,-4,0.0,0.0,-108,0.0,0.0,0.0,0.0,3,0,0,1200,81,87,2415,2415,13.1,5.1,0.0,5.1,32.5,0.0,0.0,11.5,0.0,0.0,8.9,14.2,11.7,0.0,0.0,0.0,0.0,150,698,152,691,158,680,154,681,0.0,0.0,-23,0.0,0.0,32.5,3,0.0,0.0,0.0,1.935,1.864,81.2,87.4,0.0,0.0,10.0,R,0.0,78.8,188.6,0.0,0.0,0.0,0.0,302.0,1288.4,305.6,1275.8,316.4,1256.0,309.2,1257.8,0.0,0.0,189.32,2415.0,308.29999999999995,229.49999999999994,110.52,0.003579722222222295,492.2233066666767,21.294117647058822,332.6,True,2026-05-01 23:45:09
3411.56,2,9,2026-05-01 23:45:12,37.66839,-121.43771,1116,108.6,128.8,-12.7,-0.97,KTCY,1.2,351.5,0.0,1.9,-1.7,111.0,88.8,1156,-0.2,0.0,1.0,2,-530,26,92.4,29.85,2693,307.0,14.0,39,1700.0,0.0,0.0,30.0,0,0,5.0,-19.0,-15.0,3.0,2.0,0.0,-4,0.0,0.0,-108,0.0,0.0,0.0,0.0,3,0,0,1200,81,87,2389,2389,13.2,5.3,0.0,5.3,32.5,0.0,0.0,11.5,0.0,0.0,8.8,14.2,11.7,0.0,0.0,0.0,0.0,150,698,152,691,158,680,154,681,0.0,0.0,-23,0.0,0.0,32.5,3,0.0,0.0,0.0,1.907,1.851,81.3,87.4,0.0,0.0,11.0,R,0.0,78.8,188.6,0.0,0.0,0.0,0.0,302.0,1288.4,305.6,1275.8,316.4,1256.0,309.2,1257.8,0.0,0.0,189.32,2389.0,308.29999999999995,229.49999999999994,110.52,0.0036663888888888827,503.2136266666667,20.49056603773585,332.6,True,2026-05-01 23:45:09
3411.62,2,9,2026-05-01 23:45:12,37.66839,-121.43771,1116,108.6,128.8,-12.7,-0.97,KTCY,1.2,351.5,0.0,2.0,-1.7,111.0,88.8,1156,-0.2,0.01,1.0,1,-532,26,92.4,29.85,2691,307.0,14.0,39,1700.0,0.0,0.0,30.0,0,0,5.0,-19.0,-15.0,3.0,2.0,0.0,-4,0.0,0.0,-108,0.0,0.0,0.0,0.0,3,1,0,1200,81,87,2389,2389,13.3,5.3,0.0,5.3,32.5,0.0,0.0,11.5,0.0,0.0,8.8,14.2,11.7,0.0,0.0,0.0,0.0,150,698,152,691,158,680,154,681,0.0,0.0,-23,0.0,0.0,32.5,3,0.0,0.0,0.0,1.891,1.849,81.3,87.4,0.0,0.0,11.0,R,0.0,78.8,188.6,0.0,0.0,0.0,0.0,302.0,1288.4,305.6,1275.8,316.4,1256.0,309.2,1257.8,0.0,0.0,189.32,2389.0,308.29999999999995,229.49999999999994,110.52,0.003754722222222136,514.2039466666567,20.49056603773585,332.6,True,2026-05-01 23:45:09
3411.69,2,9,2026-05-01 23:45:12,37.66839,-121.43771,1116,108.6,128.8,-12.7,-0.97,KTCY,1.2,351.5,0.0,2.1,-1.7,111.0,88.8,1156,-0.2,0.01,1.0,2,-528,26,92.4,29.85,2691,307.0,14.0,39,1700.0,0.0,0.0,30.0,0,0,5.0,-19.0,-15.0,3.0,2.0,0.0,-4,0.0,0.0,-108,0.0,0.0,0.0,0.0,3,1,0,1200,81,87,2389,2389,13.4,5.3,0.0,5.3,32.5,0.0,0.0,11.5,0.0,0.0,8.8,14.2,11.7,0.0,0.0,0.0,0.0,150,697,152,691,158,680,154,681,0.0,0.0,-23,0.0,0.0,32.5,3,0.0,0.0,0.0,1.884,1.86,81.2,87.4,0.0,0.0,11.0,R,0.0,78.8,188.6,0.0,0.0,0.0,0.0,302.0,1286.6,305.6,1275.8,316.4,1256.0,309.2,1257.8,0.0,0.0,189.32,2389.0,308.29999999999995,229.49999999999994,110.52,0.003857777777777932,527.0259866666867,20.49056603773585,332.6,True,2026-05-01 23:45:09
3411.75,2,9,2026-05-01 23:45:12,37.66831,-121.43758,1116,108.8,128.8,-12.7,-0.97,KTCY,1.2,351.5,0.0,2.2,-1.7,110.9,88.7,1155,-0.2,0.01,0.9,1,-522,26,92.3,29.85,2691,307.0,14.0,39,1700.0,0.0,0.0,30.0,0,0,5.0,-19.0,-15.0,3.0,2.0,0.0,-4,0.0,0.0,-108,0.0,0.0,0.0,0.0,3,1,0,1200,81,87,2389,2389,13.5,5.3,0.0,5.3,32.5,0.0,0.0,11.5,0.0,0.0,8.7,14.2,11.7,0.0,0.0,0.0,0.0,150,697,152,690,158,680,154,681,0.0,0.0,-23,0.0,0.0,32.5,3,0.0,0.0,0.0,1.89,1.885,81.3,87.4,0.0,0.0,12.0,R,0.0,78.8,188.6,0.0,0.0,0.0,0.0,302.0,1286.6,305.6,1274.0,316.4,1256.0,309.2,1257.8,0.0,0.0,189.32,2389.0,308.29999999999995,229.49999999999994,110.52,0.003946111111111185,538.0264266666767,20.528301886792452,332.6,True,2026-05-01 23:45:09
3411.81,2,9,2026-05-01 23:45:12,37.66831,-121.43758,1114,108.8,128.8,-12.7,-0.98,KTCY,1.2,351.3,0.0,2.3,-1.7,110.9,89.6,1154,-0.2,0.01,0.9,0,-532,26,93.2,29.85,2691,307.0,14.0,39,1700.0,0.0,0.0,30.0,0,0,5.0,-20.0,-16.0,3.0,2.0,0.0,-6,0.0,0.0,-108,0.0,0.0,0.0,0.0,3,1,0,1200,81,87,2381,2381,13.6,5.3,0.0,5.3,32.5,0.0,0.0,11.5,0.0,0.0,8.7,14.2,11.7,0.0,0.0,0.0,0.0,150,697,152,690,158,680,154,681,0.0,0.0,-23,0.0,0.0,32.5,3,0.0,0.0,0.0,1.906,1.924,81.3,87.5,0.0,0.0,12.0,R,0.0,78.8,188.6,0.0,0.0,0.0,0.0,302.0,1286.6,305.6,1274.0,316.4,1256.0,309.2,1257.8,0.0,0.0,189.5,2381.0,308.29999999999995,229.49999999999994,110.7,0.004034444444444439,549.0369866666667,20.528301886792452,332.6,True,2026-05-01 23:45:09
3411.88,2,9,2026-05-01 23:45:12,37.66831,-121.43758,1114,108.8,128.8,-12.7,-0.98,KTCY,1.2,351.3,0.0,2.3,-1.9,110.8,90.2,1153,-0.2,0.01,1.0,0,-534,26,93.9,29.85,2688,307.0,14.0,39,1700.0,0.0,0.0,30.0,0,0,5.0,-20.0,-16.0,3.0,2.0,0.0,-6,0.0,0.0,-108,0.0,0.0,0.0,0.0,3,1,0,1200,81,87,2381,2381,13.6,5.3,0.0,5.3,32.4,0.0,0.0,11.5,0.0,0.0,8.7,14.2,11.7,0.0,0.0,0.0,0.0,150,697,152,690,158,680,154,681,0.0,0.0,-23,0.0,0.0,32.4,3,0.0,0.0,0.0,1.923,1.974,81.3,87.5,0.0,0.0,12.0,R,0.0,78.8,188.6,0.0,0.0,0.0,0.0,302.0,1286.6,305.6,1274.0,316.4,1256.0,309.2,1257.8,0.0,0.0,189.5,2381.0,308.29999999999995,229.49999999999994,110.7,0.004137500000000235,561.88264000003,20.528301886792452,332.6,True,2026-05-01 23:45:09
3411.94,2,9,2026-05-01 23:45:12,37.66831,-121.43758,1114,108.8,128.8,-12.7,-0.98,KTCY,1.2,351.3,0.0,2.4,-2.0,110.8,90.7,1153,-0.3,0.01,1.0,1,-527,26,94.4,29.85,2688,307.0,14.0,39,1700.0,0.0,0.0,30.0,0,0,5.0,-20.0,-16.0,3.0,2.0,0.0,-6,0.0,0.0,-108,0.0,0.0,0.0,0.0,3,1,0,1200,81,87,2381,2381,13.7,5.3,0.0,5.3,32.4,0.0,0.0,11.5,0.0,0.0,8.6,14.2,11.7,0.0,0.0,0.0,0.0,150,696,152,690,158,680,154,681,0.0,0.0,-23,0.0,0.0,32.4,3,0.0,0.0,0.0,1.936,2.018,81.3,87.5,0.0,0.0,13.0,R,0.0,78.8,188.6,0.0,0.0,0.0,0.0,302.0,1284.8,305.6,1274.0,316.4,1256.0,309.2,1257.8,0.0,0.0,189.5,2381.0,308.29999999999995,229.49999999999994,110.7,0.004225833333333488,572.89320000002,20.528301886792452,332.6,True,2026-05-01 23:45:09
3412.0,2,9,2026-05-01 23:45:12,37.66823,-121.43746,1114,108.7,128.6,-12.7,-0.98,KTCY,1.2,351.3,0.0,2.5,-2.2,110.8,90.9,1152,-0.3,0.02,1.1,1,-534,26,94.6,29.85,2688,307.0,14.0,39,1700.0,0.0,0.0,30.0,0,0,5.0,-20.0,-16.0,3.0,2.0,0.0,-6,0.0,0.0,-108,0.0,0.0,0.0,0.0,3,1,0,1200,81,87,2381,2381,13.7,5.3,0.0,5.3,32.5,0.0,0.0,11.5,0.0,0.0,8.6,14.2,11.7,0.0,0.0,0.0,0.0,150,696,152,689,158,680,154,681,0.0,0.0,-23,0.0,0.0,32.5,3,0.0,0.0,0.0,1.943,2.048,81.3,87.5,0.0,0.0,13.0,R,0.0,78.8,188.6,0.0,0.0,0.0,0.0,302.0,1284.8,305.6,1272.2,316.4,1256.0,309.2,1257.8,0.0,0.0,189.5,2381.0,308.29999999999995,229.49999999999994,110.7,0.00431416666666674,583.8987000000101,20.50943396226415,332.6,True,2026-05-01 23:45:09
3412.06,2,9,2026-05-01 23:45:12,37.66823,-121.43746,1114,108.7,128.6,-12.7,-0.99,KTCY,1.3,351.0,0.0,2.6,-2.7,110.7,91.0,1152,-0.3,0.03,1.1,2,-534,26,94.7,29.85,2688,307.0,14.0,39,1700.0,0.0,0.0,30.0,0,0,5.0,-20.0,-16.0,3.0,2.0,0.0,-6,0.0,0.0,-108,0.0,0.0,0.0,0.0,3,1,0,1200,81,87,2395,2395,13.8,5.5,0.0,5.5,32.5,0.0,0.0,11.5,0.0,0.0,8.6,14.2,11.7,0.0,0.0,0.0,0.0,150,696,152,689,158,680,154,681,0.0,0.0,-23,0.0,0.0,32.5,3,0.0,0.0,0.0,1.948,2.063,81.3,87.5,0.0,0.0,14.0,R,0.0,78.8,188.6,0.0,0.0,0.0,0.0,302.0,1284.8,305.6,1272.2,316.4,1256.0,309.2,1257.8,0.0,0.0,189.5,2395.0,308.29999999999995,229.49999999999994,110.7,0.004404166666666659,594.89914,19.763636363636365,332.6,True,2026-05-01 23:45:09
3412.12,2,9,2026-05-01 23:45:12,37.66823,-121.43746,1114,108.7,128.6,-12.7,-0.99,KTCY,1.3,351.0,0.0,2.6,-3.3,110.7,91.4,1152,-0.3,0.03,1.2,4,-528,26,95.1,29.85,2688,307.0,14.0,39,1700.0,0.0,0.0,30.0,0,0,5.0,-20.0,-16.0,3.0,2.0,0.0,-6,0.0,0.0,-108,0.0,0.0,0.0,0.0,3,1,0,1200,81,88,2395,2395,13.8,5.5,0.0,5.5,32.4,0.0,0.0,11.5,0.0,0.0,8.6,14.2,11.7,0.0,0.0,0.0,0.0,150,695,152,689,158,680,154,681,0.0,0.0,-23,0.0,0.0,32.4,3,0.0,0.0,0.0,1.949,2.057,81.3,87.5,0.0,0.0,14.0,R,0.0,78.8,190.4,0.0,0.0,0.0,0.0,302.0,1283.0,305.6,1272.2,316.4,1256.0,309.2,1257.8,0.0,0.0,189.5,2395.0,308.29999999999995,229.49999999999994,110.7,0.004495833333333242,605.89957999999,19.763636363636365,332.6,True,2026-05-01 23:45:09
3412.19,2,9,2026-05-01 23:45:12,37.66823,-121.43746,1111,108.7,128.6,-12.7,-0.99,KTCY,1.3,351.0,0.0,2.7,-4.0,110.7,91.4,1151,-0.3,0.02,1.3,6,-528,26,95.1,29.85,2688,307.0,14.0,39,1700.0,0.0,0.0,30.0,0,0,5.0,-20.0,-16.0,3.0,2.0,0.0,-6,0.0,0.0,-108,0.0,0.0,0.0,0.0,3,1,0,1200,81,88,2395,2395,13.8,5.5,0.0,5.5,32.4,0.0,0.0,11.5,0.0,0.0,8.7,14.2,11.7,0.0,0.0,0.0,0.0,150,695,152,689,158,680,154,681,0.0,0.0,-23,0.0,0.0,32.4,3,0.0,0.0,0.0,1.952,2.031,81.4,87.6,0.0,0.0,14.0,R,0.0,78.8,190.4,0.0,0.0,0.0,0.0,302.0,1283.0,305.6,1272.2,316.4,1256.0,309.2,1257.8,0.0,0.0,189.68,2395.0,308.29999999999995,229.49999999999994,110.88000000000001,0.004602777777777936,618.7334266666867,19.763636363636365,332.6,True,2026-05-01 23:45:09
3412.25,2,9,2026-05-01 23:45:12,37.66815,-121.43734,1111,108.7,128.4,-12.7,-0.99,KTCY,1.3,351.0,0.0,2.7,-4.5,110.7,91.4,1151,-0.3,0.01,1.3,9,-523,26,95.1,29.85,2688,307.0,14.0,39,1700.0,0.0,0.0,30.0,0,0,5.0,-20.0,-16.0,3.0,2.0,0.0,-6,0.0,0.0,-109,0.0,0.0,0.0,0.0,3,1,0,1200,81,88,2395,2395,13.9,5.5,0.0,5.5,32.4,0.0,0.0,11.5,0.0,0.0,8.7,14.2,11.7,0.0,0.0,0.0,0.0,150,695,152,689,158,680,154,681,0.0,0.0,-23,0.0,0.0,32.4,3,0.0,0.0,0.0,1.964,1.989,81.5,87.6,0.0,0.0,14.0,R,0.0,78.8,190.4,0.0,0.0,0.0,0.0,302.0,1283.0,305.6,1272.2,316.4,1256.0,309.2,1257.8,0.0,0.0,189.68,2395.0,308.29999999999995,229.49999999999994,110.88000000000001,0.00469444444444452,629.7338666666767,19.763636363636365,332.6,True,2026-05-01 23:45:09
3412.31,2,9,2026-05-01 23:45:12,37.66815,-121.43734,1111,108.7,128.4,-12.7,-0.99,KTCY,1.3,350.8,0.0,2.7,-4.8,110.7,91.2,1150,-0.3,0.01,1.3,9,-524,26,94.9,29.85,2688,307.0,14.0,39,1700.0,0.0,0.0,30.0,0,0,5.0,-20.0,-16.0,3.0,2.0,0.0,-5,0.0,0.0,-109,0.0,0.0,0.0,0.0,3,1,0,1200,81,88,2400,2400,13.9,5.5,0.0,5.5,32.4,0.0,0.0,11.5,0.0,0.0,8.8,14.2,11.7,0.0,0.0,0.0,0.0,150,695,152,689,158,680,154,681,0.0,0.0,-23,0.0,0.0,32.4,3,0.0,0.0,0.0,1.978,1.947,81.5,87.7,0.0,0.0,15.0,R,0.0,78.8,190.4,0.0,0.0,0.0,0.0,302.0,1283.0,305.6,1272.2,316.4,1256.0,309.2,1257.8,0.0,0.0,189.86,2400.0,308.29999999999995,229.49999999999994,111.06000000000002,0.004786111111111104,640.7343066666667,19.763636363636365,332.6,True,2026-05-01 23:45:09
3412.38,2,9,2026-05-01 23:45:12,37.66815,-121.43734,1109,108.7,128.4,-12.7,-0.99,KTCY,1.3,350.8,0.0,2.7,-5.0,110.7,91.1,1149,-0.3,0.0,1.2,9,-525,26,94.7,29.85,2688,307.0,14.0,39,1700.0,0.0,0.0,30.0,0,0,5.0,-20.0,-16.0,3.0,2.0,0.0,-4,0.0,0.0,-109,0.0,0.0,0.0,0.0,3,1,0,1200,81,88,2400,2400,13.9,5.5,0.0,5.5,32.4,0.0,0.0,11.5,0.0,0.0,8.9,14.2,11.7,0.0,0.0,0.0,0.0,150,694,152,689,158,680,154,682,0.0,0.0,-23,0.0,0.0,32.4,3,0.0,0.0,0.0,1.98,1.918,81.5,87.7,0.0,0.0,15.0,R,0.0,78.8,190.4,0.0,0.0,0.0,0.0,302.0,1281.2,305.6,1272.2,316.4,1256.0,309.2,1259.6,0.0,0.0,189.86,2400.0,308.29999999999995,229.49999999999994,111.06000000000002,0.004893055555555798,653.5681533333634,19.763636363636365,332.6,True,2026-05-01 23:45:09
3412.44,2,9,2026-05-01 23:45:12,37.66815,-121.43734,1109,108.7,128.4,-12.7,-0.99,KTCY,1.3,350.8,0.0,2.7,-5.0,110.7,90.9,1149,-0.3,-0.0,1.2,9,-518,26,94.5,29.85,2688,307.0,14.0,39,1700.0,0.0,0.0,30.0,0,0,5.0,-20.0,-16.0,3.0,2.0,0.0,-3,0.0,0.0,-109,0.0,0.0,0.0,0.0,3,1,0,1200,81,88,2400,2400,13.9,5.5,0.0,5.5,32.4,0.0,0.0,11.5,0.0,0.0,9.0,14.2,11.7,0.0,0.0,0.0,0.0,150,694,152,689,158,680,154,682,0.0,0.0,-23,0.0,0.0,32.4,3,0.0,0.0,0.0,1.973,1.899,81.5,87.6,0.0,0.0,15.0,R,0.0,78.8,190.4,0.0,0.0,0.0,0.0,302.0,1281.2,305.6,1272.2,316.4,1256.0,309.2,1259.6,0.0,0.0,189.68,2400.0,308.29999999999995,229.49999999999994,110.88000000000001,0.004984722222222382,664.5685933333534,19.763636363636365,332.6,True,2026-05-01 23:45:09
3412.5,2,9,2026-05-01 23:45:13,37.66808,-121.43722,1109,108.8,128.2,-12.7,-0.99,KTCY,1.3,350.8,0.0,2.7,-5.0,110.6,90.8,1148,-0.3,-0.01,1.2,8,-511,26,94.4,29.85,2688,307.0,14.0,39,1700.0,0.0,0.0,30.0,0,0,5.0,-20.0,-16.0,3.0,2.0,0.0,-3,0.0,0.0,-109,0.0,0.0,0.0,0.0,3,1,0,1200,81,88,2400,2400,13.9,5.5,0.0,5.5,32.4,0.0,0.0,11.5,0.0,0.0,9.0,14.2,11.7,0.0,0.0,0.0,0.0,150,694,152,689,158,680,154,682,0.0,0.0,-23,0.0,0.0,32.4,3,0.0,0.0,0.0,1.953,1.891,81.5,87.6,0.0,0.0,16.0,R,0.0,78.8,190.4,0.0,0.0,0.0,0.0,302.0,1281.2,305.6,1272.2,316.4,1256.0,309.2,1259.6,0.0,0.0,189.68,2400.0,308.29999999999995,229.49999999999994,110.88000000000001,0.005076388888888964,675.5740933333434,19.78181818181818,332.6,True,2026-05-01 23:45:09
3412.56,2,9,2026-05-01 23:45:13,37.66808,-121.43722,1107,108.8,128.2,-12.7,-1.0,KTCY,1.3,350.6,0.0,2.7,-5.0,110.6,91.1,1148,-0.3,-0.01,1.1,7,-509,26,94.8,29.85,2688,307.0,14.0,39,1700.0,0.0,0.0,30.0,0,0,5.0,-20.0,-17.0,3.0,2.0,0.0,-3,0.0,0.0,-109,0.0,0.0,0.0,0.0,3,1,0,1200,81,88,2391,2391,14.0,5.7,0.0,5.7,32.4,0.0,0.0,11.5,0.0,0.0,9.0,14.2,11.7,0.0,0.0,0.0,0.0,150,694,152,689,158,680,154,682,0.0,0.0,-23,0.0,0.0,32.4,3,0.0,0.0,0.0,1.929,1.888,81.5,87.5,0.0,0.0,16.0,R,0.0,78.8,190.4,0.0,0.0,0.0,0.0,302.0,1281.2,305.6,1272.2,316.4,1256.0,309.2,1259.6,0.0,0.0,189.5,2391.0,308.29999999999995,229.49999999999994,110.7,0.005169722222222213,686.5846533333333,19.087719298245613,332.6,True,2026-05-01 23:45:09
3412.62,2,9,2026-05-01 23:45:13,37.66808,-121.43722,1107,108.8,128.2,-12.7,-1.0,KTCY,1.3,350.6,0.0,2.7,-5.0,110.6,91.3,1147,-0.3,-0.02,1.1,5,-509,26,95.0,29.85,2688,307.0,14.0,39,1700.0,0.0,0.0,30.0,0,0,5.0,-20.0,-17.0,3.0,2.0,0.0,-3,0.0,0.0,-109,0.0,0.0,0.0,0.0,3,1,0,1200,81,87,2391,2391,14.0,5.7,0.0,5.7,32.4,0.0,0.0,11.5,0.0,0.0,9.0,14.2,11.7,0.0,0.0,0.0,0.0,150,694,152,689,158,680,154,682,0.0,0.0,-23,0.0,0.0,32.4,3,0.0,0.0,0.0,1.908,1.89,81.5,87.5,0.0,0.0,16.0,R,0.0,78.8,188.6,0.0,0.0,0.0,0.0,302.0,1281.2,305.6,1272.2,316.4,1256.0,309.2,1259.6,0.0,0.0,189.5,2391.0,308.29999999999995,229.49999999999994,110.7,0.0052647222222221264,697.5952133333234,19.087719298245613,332.6,True,2026-05-01 23:45:09
3412.69,2,9,2026-05-01 23:45:13,37.66808,-121.43722,1107,108.8,128.2,-12.7,-1.0,KTCY,1.3,350.6,0.0,2.7,-5.0,110.4,91.4,1147,-0.4,-0.02,1.1,4,-501,26,95.1,29.85,2688,307.0,14.0,39,1700.0,0.0,0.0,30.0,0,0,5.0,-20.0,-17.0,3.0,2.0,0.0,-3,0.0,0.0,-109,0.0,0.0,0.0,0.0,3,1,0,1200,81,87,2391,2391,14.0,5.7,0.0,5.7,32.4,0.0,0.0,11.5,0.0,0.0,8.9,14.2,11.7,0.0,0.0,0.0,0.0,150,693,152,689,158,680,154,682,0.0,0.0,-23,0.0,0.0,32.4,3,0.0,0.0,0.0,1.895,1.891,81.5,87.4,0.0,0.0,16.0,R,0.0,78.8,188.6,0.0,0.0,0.0,0.0,302.0,1279.4,305.6,1272.2,316.4,1256.0,309.2,1259.6,0.0,0.0,189.32,2391.0,308.29999999999995,229.49999999999994,110.52,0.005375555555555719,710.4408666666867,19.087719298245613,332.6,True,2026-05-01 23:45:09
3412.75,2,9,2026-05-01 23:45:13,37.668,-121.43709,1107,109.0,128.1,-12.7,-1.0,KTCY,1.3,350.6,0.0,2.7,-4.9,110.3,91.6,1147,-0.4,-0.01,1.1,3,-487,26,95.3,29.85,2688,307.0,14.0,39,1700.0,0.0,0.0,30.0,0,0,5.0,-20.0,-17.0,3.0,2.0,0.0,-3,0.0,0.0,-109,0.0,0.0,0.0,0.0,3,1,0,1200,81,87,2391,2391,14.0,5.7,0.0,5.7,32.4,0.0,0.0,11.5,0.0,0.0,8.9,14.2,11.7,0.0,0.0,0.0,0.0,150,693,152,689,158,680,154,682,0.0,0.0,-23,0.0,0.0,32.4,3,0.0,0.0,0.0,1.887,1.893,81.4,87.4,0.0,0.0,17.0,R,0.0,78.8,188.6,0.0,0.0,0.0,0.0,302.0,1279.4,305.6,1272.2,316.4,1256.0,309.2,1259.6,0.0,0.0,189.32,2391.0,308.29999999999995,229.49999999999994,110.52,0.005470555555555633,721.4615466666767,19.12280701754386,332.6,True,2026-05-01 23:45:09
3412.81,2,9,2026-05-01 23:45:13,37.668,-121.43709,1106,109.0,128.1,-12.7,-1.01,KTCY,1.3,350.3,0.0,2.6,-4.8,110.2,91.6,1147,-0.4,-0.01,1.0,3,-488,26,95.3,29.85,2688,307.0,14.0,39,1700.0,0.0,0.0,30.0,0,0,5.0,-20.0,-17.0,3.0,2.0,0.0,-3,0.0,0.0,-109,0.0,0.0,0.0,0.0,3,1,0,1200,81,87,2387,2387,14.0,5.7,0.0,5.7,32.4,0.0,0.0,11.5,0.0,0.0,8.8,14.2,11.7,0.0,0.0,0.0,0.0,150,693,152,689,158,680,154,682,0.0,0.0,-23,0.0,0.0,32.4,3,0.0,0.0,0.0,1.885,1.896,81.4,87.4,0.0,0.0,17.0,R,0.0,78.8,188.6,0.0,0.0,0.0,0.0,302.0,1279.4,305.6,1272.2,316.4,1256.0,309.2,1259.6,0.0,0.0,189.32,2387.0,308.29999999999995,229.49999999999994,110.52,0.005565555555555547,732.4923466666667,19.12280701754386,332.6,True,2026-05-01 23:45:09
3412.88,2,9,2026-05-01 23:45:13,37.668,-121.43709,1106,109.0,128.1,-12.7,-1.01,KTCY,1.3,350.3,0.0,2.6,-4.6,110.1,91.6,1147,-0.5,-0.01,1.0,2,-482,26,95.3,29.85,2688,307.0,14.0,39,1700.0,0.0,0.0,30.0,0,0,5.0,-20.0,-17.0,3.0,2.0,0.0,-3,0.0,0.0,-109,0.0,0.0,0.0,0.0,3,1,0,1200,81,87,2387,2387,14.0,5.7,0.0,5.7,32.5,0.0,0.0,11.5,0.0,0.0,8.8,14.2,11.7,0.0,0.0,0.0,0.0,150,693,152,688,158,680,154,682,0.0,0.0,-23,0.0,0.0,32.5,3,0.0,0.0,0.0,1.885,1.903,81.3,87.4,0.0,0.0,17.0,R,0.0,78.8,188.6,0.0,0.0,0.0,0.0,302.0,1279.4,305.6,1270.4,316.4,1256.0,309.2,1259.6,0.0,0.0,189.32,2387.0,308.29999999999995,229.49999999999994,110.52,0.005676388888889139,745.3616133333634,19.12280701754386,332.6,True,2026-05-01 23:45:09
3412.94,2,9,2026-05-01 23:45:13,37.668,-121.43709,1106,109.0,128.1,-12.7,-1.01,KTCY,1.3,350.3,0.0,2.6,-4.5,110.0,91.3,1146,-0.5,-0.01,1.0,1,-484,26,95.0,29.85,2688,307.0,14.0,39,1700.0,0.0,0.0,30.0,0,0,5.0,-20.0,-17.0,3.0,2.0,0.0,-3,0.0,0.0,-109,0.0,0.0,0.0,0.0,3,1,0,1200,81,87,2387,2387,14.0,5.7,0.0,5.7,32.5,0.0,0.0,11.5,0.0,0.0,8.8,14.2,11.7,0.0,0.0,0.0,0.0,150,693,152,688,158,680,154,682,0.0,0.0,-23,0.0,0.0,32.5,3,0.0,0.0,0.0,1.893,1.921,81.3,87.4,0.0,0.0,17.0,R,0.0,78.8,188.6,0.0,0.0,0.0,0.0,302.0,1279.4,305.6,1270.4,316.4,1256.0,309.2,1259.6,0.0,0.0,189.32,2387.0,308.29999999999995,229.49999999999994,110.52,0.005771388888889052,756.3924133333534,19.12280701754386,332.6,True,2026-05-01 23:45:09
3413.0,2,9,2026-05-01 23:45:13,37.66792,-121.43697,1106,109.0,128.0,-12.7,-1.01,KTCY,1.3,350.3,0.0,2.6,-4.3,109.9,91.2,1145,-0.6,-0.0,1.0,1,-490,26,94.8,29.85,2688,307.0,14.0,39,1700.0,0.0,0.0,30.0,0,0,5.0,-20.0,-17.0,3.0,2.0,0.0,-2,0.0,0.0,-109,0.0,0.0,0.0,0.0,3,1,0,1200,81,87,2387,2387,14.0,5.7,0.0,5.7,32.6,0.0,0.0,11.5,0.0,0.0,8.7,14.2,11.7,0.0,0.0,0.0,0.0,150,692,152,688,158,680,154,683,0.0,0.0,-23,0.0,0.0,32.6,3,0.0,0.0,0.0,1.917,1.948,81.3,87.4,0.0,0.0,17.0,R,0.0,78.8,188.6,0.0,0.0,0.0,0.0,302.0,1277.6,305.6,1270.4,316.4,1256.0,309.2,1261.4,0.0,0.0,189.32,2387.0,308.29999999999995,229.49999999999994,110.52,0.005866388888888966,767.4232133333434,19.12280701754386,332.6,True,2026-05-01 23:45:09
3413.06,2,9,2026-05-01 23:45:13,37.66792,-121.43697,1106,109.0,128.0,-12.7,-1.02,KTCY,1.3,350.1,0.0,2.6,-4.1,109.9,90.8,1145,-0.6,0.0,0.9,1,-474,26,94.5,29.85,2688,307.0,14.0,39,1700.0,0.0,0.0,30.0,0,0,5.0,-20.0,-17.0,3.0,2.0,0.0,-2,0.0,0.0,-109,0.0,0.0,0.0,0.0,3,1,0,1200,81,87,2362,2362,14.0,5.8,0.0,5.8,32.6,0.0,0.0,11.5,0.0,0.0,8.7,14.2,11.7,0.0,0.0,0.0,0.0,150,692,152,688,158,680,154,683,0.0,0.0,-23,0.0,0.0,32.6,3,0.0,0.0,0.0,1.948,1.976,81.3,87.4,0.0,0.0,17.0,R,0.0,78.8,188.6,0.0,0.0,0.0,0.0,302.0,1277.6,305.6,1270.4,316.4,1256.0,309.2,1261.4,0.0,0.0,189.32,2362.0,308.29999999999995,229.49999999999994,110.52,0.0059622222222222125,778.4540133333334,18.79310344827586,332.6,True,2026-05-01 23:45:09
3413.12,2,9,2026-05-01 23:45:13,37.66792,-121.43697,1106,109.0,128.0,-12.7,-1.02,KTCY,1.3,350.1,0.0,2.6,-3.7,109.9,90.6,1145,-0.7,0.0,0.9,0,-467,26,94.2,29.85,2688,307.0,14.0,39,1700.0,0.0,0.0,30.0,0,0,5.0,-20.0,-17.0,3.0,2.0,0.0,-2,0.0,0.0,-109,0.0,0.0,0.0,0.0,3,1,0,1200,81,87,2362,2362,14.0,5.8,0.0,5.8,32.7,0.0,0.0,11.5,0.0,0.0,8.7,14.2,11.7,0.0,0.0,0.0,0.0,150,692,152,688,158,680,154,683,0.0,0.0,-23,0.0,0.0,32.7,3,0.0,0.0,0.0,1.982,1.996,81.2,87.5,0.0,0.0,17.0,R,0.0,78.8,188.6,0.0,0.0,0.0,0.0,302.0,1277.6,305.6,1270.4,316.4,1256.0,309.2,1261.4,0.0,0.0,189.5,2362.0,308.29999999999995,229.49999999999994,110.7,0.006058888888888791,789.4848133333232,18.79310344827586,332.6,True,2026-05-01 23:45:09
3413.19,2,9,2026-05-01 23:45:13,37.66792,-121.43697,1105,109.0,128.0,-12.7,-1.02,KTCY,1.3,350.1,0.0,2.6,-3.3,109.9,90.2,1145,-0.7,0.01,0.9,0,-465,26,93.9,29.85,2688,307.0,14.0,39,1700.0,0.0,0.0,30.0,0,0,5.0,-20.0,-17.0,3.0,2.0,0.0,-2,0.0,0.0,-109,0.0,0.0,0.0,0.0,3,1,0,1200,81,87,2362,2362,14.0,5.8,0.0,5.8,32.7,0.0,0.0,11.5,0.0,0.0,8.6,14.2,11.7,0.0,0.0,0.0,0.0,150,692,152,688,158,680,154,683,0.0,0.0,-23,0.0,0.0,32.7,3,0.0,0.0,0.0,2.004,2.009,81.0,87.5,0.0,0.0,17.0,R,0.0,78.8,188.6,0.0,0.0,0.0,0.0,302.0,1277.6,305.6,1270.4,316.4,1256.0,309.2,1261.4,0.0,0.0,189.5,2362.0,308.29999999999995,229.49999999999994,110.7,0.006171666666666833,802.3540800000201,18.79310344827586,332.6,True,2026-05-01 23:45:09
3413.25,2,9,2026-05-01 23:45:13,37.66784,-121.43684,1105,108.9,127.8,-12.7,-1.02,KTCY,1.3,350.1,0.0,2.6,-2.9,109.9,89.9,1144,-0.7,0.01,0.9,0,-464,26,93.5,29.85,2687,307.0,14.0,39,1700.0,0.0,0.0,30.0,0,0,5.0,-20.0,-17.0,3.0,2.0,0.0,-3,0.0,0.0,-109,0.0,0.0,0.0,0.0,3,1,0,1200,81,87,2362,2362,14.0,5.8,0.0,5.8,32.7,0.0,0.0,11.5,0.0,0.0,8.6,14.2,11.7,0.0,0.0,0.0,0.0,150,691,152,688,158,680,154,683,0.0,0.0,-23,0.0,0.0,32.7,3,0.0,0.0,0.0,2.013,2.014,80.9,87.5,0.0,0.0,18.0,R,0.0,78.8,188.6,0.0,0.0,0.0,0.0,302.0,1275.8,305.6,1270.4,316.4,1256.0,309.2,1261.4,0.0,0.0,189.5,2362.0,308.29999999999995,229.49999999999994,110.7,0.006268333333333411,813.37982000001,18.77586206896552,332.6,True,2026-05-01 23:45:09
3413.31,2,9,2026-05-01 23:45:13,37.66784,-121.43684,1105,108.9,127.8,-12.7,-1.02,KTCY,1.3,349.9,0.0,2.5,-2.5,109.9,89.4,1144,-0.7,0.01,0.8,0,-454,26,93.0,29.85,2687,307.0,14.0,39,1700.0,0.0,0.0,30.0,0,0,5.0,-20.0,-17.0,3.0,2.0,0.0,-3,0.0,0.0,-109,0.0,0.0,0.0,0.0,3,1,0,1200,81,87,2355,2355,13.9,5.8,0.0,5.8,32.8,0.0,0.0,11.5,0.0,0.0,8.6,14.2,11.7,0.0,0.0,0.0,0.0,150,691,152,688,158,680,154,683,0.0,0.0,-23,0.0,0.0,32.8,3,0.0,0.0,0.0,2.013,2.015,80.7,87.5,0.0,0.0,18.0,R,0.0,78.8,188.6,0.0,0.0,0.0,0.0,302.0,1275.8,305.6,1270.4,316.4,1256.0,309.2,1261.4,0.0,0.0,189.5,2355.0,308.29999999999995,229.49999999999994,110.7,0.0063649999999999905,824.4005,18.77586206896552,332.6,True,2026-05-01 23:45:09
3413.38,2,9,2026-05-01 23:45:13,37.66784,-121.43684,1104,108.9,127.8,-12.7,-1.02,KTCY,1.3,349.9,0.0,2.5,-2.0,110.0,88.7,1143,-0.7,0.01,0.8,0,-453,26,92.2,29.85,2686,307.0,14.0,39,1700.0,0.0,0.0,30.0,0,0,5.0,-20.0,-17.0,3.0,2.0,0.0,-4,0.0,0.0,-109,0.0,0.0,0.0,0.0,3,1,0,1200,81,88,2355,2355,13.9,5.8,0.0,5.8,32.8,0.0,0.0,11.5,0.0,0.0,8.6,14.2,11.7,0.0,0.0,0.0,0.0,150,691,152,688,158,679,154,683,0.0,0.0,-23,0.0,0.0,32.8,3,0.0,0.0,0.0,2.01,2.015,80.7,87.6,0.0,0.0,18.0,R,0.0,78.8,190.4,0.0,0.0,0.0,0.0,302.0,1275.8,305.6,1270.4,316.4,1254.2,309.2,1261.4,0.0,0.0,189.68,2355.0,308.29999999999995,229.49999999999994,110.88000000000001,0.006477777777778032,837.25796000003,18.77586206896552,332.6,True,2026-05-01 23:45:09
3413.44,2,9,2026-05-01 23:45:13,37.66784,-121.43684,1104,108.9,127.8,-12.7,-1.02,KTCY,1.3,349.9,0.0,2.5,-1.6,110.0,88.6,1143,-0.6,0.01,0.9,0,-451,26,92.1,29.85,2686,307.0,14.0,39,1700.0,0.0,0.0,30.0,0,0,5.0,-20.0,-18.0,3.0,2.0,0.0,-5,0.0,0.0,-109,0.0,0.0,0.0,0.0,3,1,0,1200,81,88,2355,2355,13.8,5.8,0.0,5.8,32.8,0.0,0.0,11.5,0.0,0.0,8.7,14.2,11.7,0.0,0.0,0.0,0.0,150,691,152,688,158,679,154,683,0.0,0.0,-23,0.0,0.0,32.8,3,0.0,0.0,0.0,2.007,2.013,80.7,87.6,0.0,0.0,18.0,R,0.0,78.8,190.4,0.0,0.0,0.0,0.0,302.0,1275.8,305.6,1270.4,316.4,1254.2,309.2,1261.4,0.0,0.0,189.68,2355.0,308.29999999999995,229.49999999999994,110.88000000000001,0.00657444444444461,848.27864000002,18.77586206896552,332.6,True,2026-05-01 23:45:09
3413.5,2,9,2026-05-01 23:45:14,37.66776,-121.43671,1104,108.7,127.6,-12.7,-1.02,KTCY,1.3,349.9,0.0,2.5,-1.2,110.1,88.8,1143,-0.6,0.02,1.0,0,-449,26,92.4,29.85,2685,307.0,14.0,39,1700.0,0.0,0.0,30.0,0,0,5.0,-20.0,-18.0,3.0,2.0,0.0,-5,0.0,0.0,-109,0.0,0.0,0.0,0.0,3,0,0,1200,81,88,2355,2355,13.8,5.8,0.0,5.8,32.8,0.0,0.0,11.5,0.0,0.0,8.7,14.2,11.7,0.0,0.0,0.0,0.0,150,691,152,687,158,679,154,683,0.0,0.0,-23,0.0,0.0,32.8,3,0.0,0.0,0.0,2.004,2.012,80.7,87.7,0.0,0.0,18.0,R,0.0,78.8,190.4,0.0,0.0,0.0,0.0,302.0,1275.8,305.6,1268.6,316.4,1254.2,309.2,1261.4,0.0,0.0,189.86,2355.0,308.29999999999995,229.49999999999994,111.06000000000002,0.006671111111111189,859.28920000001,18.74137931034483,332.6,True,2026-05-01 23:45:09
3413.56,2,9,2026-05-01 23:45:14,37.66776,-121.43671,1103,108.7,127.6,-12.7,-1.03,KTCY,1.3,349.7,0.0,2.5,-1.1,110.1,89.1,1143,-0.5,0.02,1.0,0,-434,26,92.7,29.85,2685,307.0,14.0,39,1700.0,0.0,0.0,30.0,0,0,5.0,-21.0,-18.0,3.0,2.0,0.0,-6,0.0,0.0,-109,0.0,0.0,0.0,0.0,3,0,0,1200,81,88,2368,2368,13.7,5.9,0.0,5.9,32.9,0.0,0.0,11.5,0.0,0.0,8.8,14.2,11.7,0.0,0.0,0.0,0.0,150,691,152,687,158,679,154,683,0.0,0.0,-23,0.0,0.0,32.9,3,0.0,0.0,0.0,2.002,2.012,80.7,87.7,0.0,0.0,18.0,R,0.0,78.8,190.4,0.0,0.0,0.0,0.0,302.0,1275.8,305.6,1268.6,316.4,1254.2,309.2,1261.4,0.0,0.0,189.86,2368.0,308.29999999999995,229.49999999999994,111.06000000000002,0.0067686111111111,870.2896400000001,18.423728813559322,332.6,True,2026-05-01 23:45:09
3413.62,2,9,2026-05-01 23:45:14,37.66776,-121.43671,1103,108.7,127.6,-12.7,-1.03,KTCY,1.3,349.7,0.0,2.6,-1.0,110.1,89.4,1143,-0.5,0.02,1.0,0,-426,26,93.0,29.85,2685,307.0,14.0,39,1700.0,0.0,0.0,30.0,0,0,5.0,-21.0,-18.0,3.0,2.0,0.0,-6,0.0,0.0,-109,0.0,0.0,0.0,0.0,3,0,0,1200,81,88,2368,2368,13.7,5.9,0.0,5.9,32.9,0.0,0.0,11.5,0.0,0.0,8.9,14.2,11.7,0.0,0.0,0.0,0.0,150,691,152,687,158,679,154,683,0.0,0.0,-23,0.0,0.0,32.9,3,0.0,0.0,0.0,1.993,2.012,80.8,87.7,0.0,0.0,18.0,R,0.0,78.8,190.4,0.0,0.0,0.0,0.0,302.0,1275.8,305.6,1268.6,316.4,1254.2,309.2,1261.4,0.0,0.0,189.86,2368.0,308.29999999999995,229.49999999999994,111.06000000000002,0.006866944444444344,881.29007999999,18.423728813559322,332.6,True,2026-05-01 23:45:09
3413.69,2,9,2026-05-01 23:45:14,37.66776,-121.43671,1103,108.7,127.6,-12.7,-1.03,KTCY,1.3,349.7,0.0,2.6,-1.0,110.1,89.5,1143,-0.4,0.01,1.0,1,-419,26,93.1,29.85,2685,307.0,14.0,39,1700.0,0.0,0.0,30.0,0,0,5.0,-21.0,-18.0,3.0,2.0,0.0,-6,0.0,0.0,-109,0.0,0.0,0.0,0.0,3,0,0,1200,81,88,2368,2368,13.6,5.9,0.0,5.9,32.9,0.0,0.0,11.5,0.0,0.0,9.0,14.2,11.7,0.0,0.0,0.0,0.0,150,691,152,687,158,679,154,683,0.0,0.0,-23,0.0,0.0,32.9,3,0.0,0.0,0.0,1.978,2.013,80.8,87.6,0.0,0.0,18.0,R,0.0,78.8,190.4,0.0,0.0,0.0,0.0,302.0,1275.8,305.6,1268.6,316.4,1254.2,309.2,1261.4,0.0,0.0,189.68,2368.0,308.29999999999995,229.49999999999994,110.88000000000001,0.006981666666666835,894.1239266666868,18.423728813559322,332.6,True,2026-05-01 23:45:09
3413.75,2,9,2026-05-01 23:45:14,37.66769,-121.43658,1103,108.5,127.5,-12.7,-1.03,KTCY,1.3,349.7,0.0,2.6,-1.0,110.2,89.6,1142,-0.4,0.01,0.9,0,-418,26,93.2,29.85,2684,307.0,14.0,39,1700.0,0.0,0.0,30.0,0,0,5.0,-21.0,-18.0,3.0,2.0,0.0,-6,0.0,0.0,-109,0.0,0.0,0.0,0.0,3,0,0,1200,81,88,2368,2368,13.6,5.9,0.0,5.9,32.9,0.0,0.0,11.5,0.0,0.0,9.0,14.2,11.7,0.0,0.0,0.0,0.0,150,690,152,687,158,679,154,683,0.0,0.0,-23,0.0,0.0,32.9,3,0.0,0.0,0.0,1.964,2.013,80.7,87.6,0.0,0.0,18.0,R,0.0,78.8,190.4,0.0,0.0,0.0,0.0,302.0,1274.0,305.6,1268.6,316.4,1254.2,309.2,1261.4,0.0,0.0,189.68,2368.0,308.29999999999995,229.49999999999994,110.88000000000001,0.007080000000000078,905.1142466666768,18.389830508474574,332.6,True,2026-05-01 23:45:09
3413.81,2,9,2026-05-01 23:45:14,37.66769,-121.43658,1102,108.5,127.5,-12.7,-1.04,KTCY,1.3,349.4,0.0,2.6,-1.0,110.2,90.2,1142,-0.4,0.01,0.9,0,-417,26,93.9,29.85,2684,307.0,14.0,39,1700.0,0.0,0.0,30.0,0,0,5.0,-21.0,-18.0,3.0,2.0,0.0,-6,0.0,0.0,-109,0.0,0.0,0.0,0.0,3,0,0,1200,81,88,2392,2392,13.6,5.9,0.0,5.9,32.9,0.0,0.0,11.5,0.0,0.0,9.0,14.2,11.7,0.0,0.0,0.0,0.0,150,690,152,687,158,679,154,683,0.0,0.0,-23,0.0,0.0,32.9,3,0.0,0.0,0.0,1.953,2.012,80.7,87.5,0.0,0.0,18.0,R,0.0,78.8,190.4,0.0,0.0,0.0,0.0,302.0,1274.0,305.6,1268.6,316.4,1254.2,309.2,1261.4,0.0,0.0,189.5,2392.0,308.29999999999995,229.49999999999994,110.7,0.007178333333333323,916.0944466666667,18.389830508474574,332.6,True,2026-05-01 23:45:09
