Session Time,GPS Fix Quality,Number of Satellites,GPS Date & Time,Latitude (deg),Longitude (deg),GPS Altitude (feet),Ground Speed (knots),Ground Track (deg),Mag Var (deg),Cross Track Error (NM),Destination Waypoint ID,Range to Destination (NM),Bearing to Destination (deg),System Time,Pitch (deg),Roll (deg),Magnetic Heading (deg),Indicated Airspeed (knots),Pressure Altitude (ft),Turn Rate (deg/s),Lateral Accel (g),Vertical Accel(g),Angle of Attack (%),Vertical Speed (ft/min),OAT (deg C),True Airspeed (knots),Barometer Setting (inHg),Density Altitude (ft),Wind Direction (deg),Wind Speed (knots),Heading Bug (deg),Altitude Bug (ft),Airspeed Bug (knots),Vertical Speed Bug (ft/min),Course (deg),CDI Source Type,CDI Source Port,CDI Scale (NM),CDI Deflection (%),Glideslope (%),AP Engaged,AP Roll Mode,AP Roll Force,AP Roll Position (steps),AP Roll Slip (bool),AP Pitch Force,AP Pitch Position (steps),AP Pitch Slip (bool),AP Yaw Force,AP Yaw Position,AP Yaw Slip (bool),Transponder Status,Transponder Reply (bool),Transponder Identing (bool),Transponder Code (octal),Oil Pressure (PSI),Oil Temp (deg C),RPM L,RPM R,Manifold Pressure (inHg),Fuel Flow 1 (gal/hr),Fuel Flow 2 (gal/hr),Total Fuel Flow (gal/hr),Fuel Pressure (PSI),Fuel Level L (gal),Fuel Level R (gal),Fuel Remaining (gal),Volts 1,Volts 2,Amps,Hobbs Time,Tach Time,Thermocouple 1 (deg C),Thermocouple 2 (deg C),Thermocouple 3 (deg C),Thermocouple 4 (deg C),CHT 4 (deg C),EGT 4 (deg C),CHT 3 (deg C),EGT 3 (deg C),CHT 2 (deg C),EGT 2 (deg C),CHT 1 (deg C),EGT 1 (deg C),Thermocouple 13 (deg C),Thermocouple 14 (deg C),ELEV POSITION (%),CO PPM PRESSURE (PSI),GP Input 3,FUEL PRESSURE (PSI),AILERN POSITION (%),CANOPY CONTACT (V),GP Input 7,GP Input 8,LEFT LEVEL (Sensor V),RIGHT LEVEL (Sensor V),OIL PRESSURE (PSI),OIL TEMPERATURE (deg C),GP Input 13,Contacts,Percent Power,EGT Leaning State,Unnamed: 103,RPM,Flight ID
8.06,1.0,4.0,2026-02-07 23:30:08,37.08152,-121.59963,319.0,0.1,50.4,-12.6,,,,,23:30:07,10.8,-1.3,57.1,0.0,-10.0,0.0,-0.02,1.0,,-88.0,21.0,0.0,30.25,736.0,,,326.0,,,,,0.0,0.0,,,,,,,,,,,,,,,,,,,0.0,20.0,0.0,0.0,30.4,0.0,,0.0,0.0,,,36.4,0.0,0.0,-0.8,1.1,0.4,,,,,21.0,21.0,21.0,21.0,21.0,21.0,21.0,21.0,,,-37.0,254.4,,0.0,-8.0,0.0,,,0.653,0.791,0.0,19.9,,,,,,0.0,2026-02-07 15:30:08-08:00
9.06,1.0,4.0,2026-02-07 23:30:09,37.08149,-121.59967,290.0,0.3,50.4,-12.6,,,,,23:30:08,10.9,-1.3,57.0,0.0,-11.0,0.0,-0.02,1.0,,-72.0,21.0,0.0,30.25,736.0,,,326.0,,,,,0.0,0.0,,,,,,,,,,,,,,,,,,,0.0,20.0,0.0,0.0,30.4,0.0,,0.0,0.0,,,36.4,0.0,0.0,-0.8,1.1,0.4,,,,,21.0,21.0,21.0,21.0,21.0,21.0,21.0,21.0,,,-37.0,254.4,,0.0,-8.0,0.0,,,0.653,0.791,0.0,19.9,,,,,,0.0,2026-02-07 15:30:08-08:00
10.06,1.0,4.0,2026-02-07 23:30:10,37.08147,-121.59969,279.0,0.2,50.4,-12.6,,,,,23:30:09,10.9,-1.2,57.0,0.0,-13.0,-0.0,-0.02,1.0,,-82.0,21.0,0.0,30.25,729.0,,,326.0,,,,,0.0,0.0,,,,,,,,,,,,,,,,,,,0.0,20.0,0.0,0.0,30.4,0.0,,0.0,0.0,,,36.4,0.0,0.0,-0.8,1.1,0.4,,,,,21.0,21.0,21.0,21.0,21.0,21.0,21.0,21.0,,,-37.0,254.4,,0.0,-8.0,0.0,,,0.653,0.791,0.0,19.9,,,,,,0.0,2026-02-07 15:30:08-08:00
11.06,1.0,4.0,2026-02-07 23:30:11,37.08147,-121.59969,271.0,0.1,50.4,-12.6,,,,,23:30:10,10.9,-1.2,57.0,0.0,-14.0,-0.0,-0.02,1.0,,-97.0,21.0,0.0,30.25,729.0,,,326.0,,,,,0.0,0.0,,,,,,,,,,,,,,,,,,,0.0,20.0,0.0,0.0,30.4,0.0,,0.0,0.0,,,36.4,0.0,0.0,-0.8,1.1,0.4,,,,,21.0,21.0,21.0,21.0,21.0,21.0,21.0,21.0,,,-37.0,254.4,,0.0,-8.0,0.0,,,0.653,0.791,0.0,19.9,,,,,,0.0,2026-02-07 15:30:08-08:00
12.06,1.0,6.0,2026-02-07 23:30:12,37.08147,-121.59969,272.0,0.0,50.4,-12.6,,,,,23:30:11,10.9,-1.2,57.0,0.0,-16.0,-0.0,-0.02,1.0,,-102.0,21.0,0.0,30.25,729.0,,,326.0,,,,,0.0,0.0,,,,,,,,,,,,,,,,,,,0.0,20.0,0.0,0.0,30.4,0.0,,0.0,0.0,,,36.4,0.0,0.0,-0.8,1.1,0.4,,,,,21.0,21.0,21.0,21.0,21.0,21.0,21.0,21.0,,,-37.0,254.4,,0.0,-8.0,0.0,,,0.654,0.791,0.0,19.9,,,,,,0.0,2026-02-07 15:30:08-08:00
13.06,1.0,6.0,2026-02-07 23:30:13,37.08155,-121.59961,339.0,0.0,50.4,-12.6,,,,,23:30:12,10.9,-1.3,57.0,0.0,-20.0,-0.0,-0.02,1.0,,-135.0,21.0,0.0,30.25,721.0,,,326.0,,,,,0.0,0.0,,,,,,,,,,,,,,,,,,,0.0,20.0,0.0,0.0,30.4,0.0,,0.0,0.0,,,36.4,0.0,0.0,-0.8,1.1,0.4,,,,,21.0,21.0,21.0,21.0,21.0,21.0,21.0,21.0,,,-37.0,254.4,,0.0,-8.0,0.0,,,0.653,0.791,0.0,19.9,,,,,,0.0,2026-02-07 15:30:08-08:00
14.06,1.0,6.0,2026-02-07 23:30:14,37.08155,-121.59961,337.0,0.1,50.4,-12.6,,,,,23:30:13,10.9,-1.3,57.0,0.0,-22.0,-0.0,-0.02,1.0,,-143.0,21.0,0.0,30.25,721.0,,,326.0,,,,,0.0,0.0,,,,,,,,,,,,,,,,,,,0.0,20.0,0.0,0.0,30.4,0.0,,0.0,0.0,,,36.4,0.0,0.0,-0.8,1.1,0.4,,,,,21.0,21.0,21.0,21.0,21.0,21.0,21.0,21.0,,,-37.0,254.4,,0.0,-8.0,0.0,,,0.653,0.791,0.0,19.9,,,,,,0.0,2026-02-07 15:30:08-08:00
15.06,1.0,7.0,2026-02-07 23:30:15,37.08155,-121.59953,410.0,0.1,50.4,-12.6,,,,,23:30:14,10.9,-1.3,57.0,0.0,-24.0,-0.0,-0.02,1.0,,-97.0,21.0,0.0,30.25,721.0,,,326.0,,,,,0.0,0.0,,,,,,,,,,,,,,,,,,,0.0,20.0,0.0,0.0,30.4,0.0,,0.0,0.0,,,36.4,0.0,0.0,-0.8,1.1,0.4,,,,,21.0,21.0,21.0,21.0,21.0,21.0,21.0,21.0,,,-37.0,254.4,,0.0,-8.0,0.0,,,0.653,0.791,0.0,19.9,,,,,,0.0,2026-02-07 15:30:08-08:00
16.06,1.0,7.0,2026-02-07 23:30:16,37.08155,-121.59956,372.0,0.0,50.4,-12.6,,,,,23:30:15,10.9,-1.2,57.0,0.0,-25.0,-0.0,-0.02,1.0,,-102.0,21.0,0.0,30.25,715.0,,,326.0,,,,,0.0,0.0,,,,,,,,,,,,,,,,,,,0.0,20.0,0.0,0.0,30.4,0.0,,0.0,0.0,,,36.4,0.0,0.0,-0.8,1.1,0.4,,,,,21.0,21.0,21.0,21.0,21.0,21.0,21.0,21.0,,,-37.0,254.4,,0.0,-8.0,0.0,,,0.653,0.791,0.0,19.9,,,,,,0.0,2026-02-07 15:30:08-08:00
17.06,1.0,7.0,2026-02-07 23:30:17,37.08155,-121.59956,373.0,0.1,50.4,-12.6,,,,,23:30:16,10.9,-1.3,56.9,0.0,-27.0,-0.0,-0.02,1.0,,-115.0,21.0,0.0,30.25,715.0,,,326.0,,,,,0.0,0.0,,,,,,,,,,,,,,,,,,,0.0,20.0,0.0,0.0,30.4,0.0,,0.0,0.0,,,36.4,0.0,0.0,-0.8,1.1,0.4,,,,,21.0,21.0,21.0,21.0,21.0,21.0,21.0,21.0,,,-37.0,254.4,,0.0,-8.0,0.0,,,0.654,0.791,0.0,19.9,,,,,,0.0,2026-02-07 15:30:08-08:00
18.06,1.0,8.0,2026-02-07 23:30:18,37.08161,-121.59956,394.0,0.0,50.4,-12.6,,,,,23:30:17,10.9,-1.3,57.0,0.0,-28.0,-0.0,-0.02,1.0,,-98.0,21.0,0.0,30.25,715.0,,,326.0,,,,,0.0,0.0,,,,,,,,,,,,,,,,,,,0.0,20.0,0.0,0.0,30.4,0.0,,0.0,0.0,,,36.4,0.0,0.0,-0.8,1.1,0.4,,,,,21.0,21.0,21.0,21.0,21.0,21.0,21.0,21.0,,,-37.0,254.4,,0.0,-8.0,0.0,,,0.654,0.791,0.0,19.9,,,,,,0.0,2026-02-07 15:30:08-08:00
19.06,1.0,8.0,2026-02-07 23:30:19,37.08158,-121.59956,387.0,0.1,50.4,-12.6,,,,,23:30:18,10.9,-1.3,56.9,0.0,-28.0,-0.0,-0.02,1.0,,-56.0,21.0,0.0,30.25,711.0,,,326.0,,,,,0.0,0.0,,,,,,,,,,,,,,,,,,,0.0,20.0,0.0,0.0,30.4,0.0,,0.0,0.0,,,36.4,0.0,0.0,-0.8,1.1,0.4,,,,,21.0,21.0,21.0,21.0,21.0,21.0,21.0,21.0,,,-37.0,254.4,,0.0,-8.0,0.0,,,0.653,0.791,0.0,19.9,,,,,,0.0,2026-02-07 15:30:08-08:00
20.06,1.0,8.0,2026-02-07 23:30:20,37.08158,-121.59956,389.0,0.0,50.4,-12.6,,,,,23:30:19,10.9,-1.3,56.9,0.0,-30.0,-0.0,-0.02,1.0,,-55.0,21.0,0.0,30.25,712.0,,,326.0,,,,,0.0,0.0,,,,,,,,,,,,,,,,,,,0.0,20.0,0.0,0.0,30.4,0.0,,0.0,0.0,,,36.4,0.0,0.0,-0.8,1.1,0.4,,,,,21.0,21.0,21.0,21.0,21.0,21.0,21.0,21.0,,,-37.0,254.4,,0.0,-8.0,0.0,,,0.653,0.791,0.0,19.9,,,,,,0.0,2026-02-07 15:30:08-08:00
21.06,1.0,8.0,2026-02-07 23:30:21,37.08158,-121.59955,389.0,0.0,50.4,-12.6,,,,,23:30:20,10.9,-1.3,56.9,0.0,-30.0,-0.0,-0.02,1.0,,-41.0,21.0,0.0,30.25,712.0,,,326.0,,,,,0.0,0.0,,,,,,,,,,,,,,,,,,,0.0,20.0,0.0,0.0,30.4,0.0,,0.0,0.0,,,36.4,0.0,0.0,-0.8,1.1,0.4,,,,,21.0,21.0,21.0,21.0,21.0,21.0,21.0,21.0,,,-37.0,254.4,,0.0,-8.0,0.0,,,0.654,0.791,0.0,19.9,,,,,,0.0,2026-02-07 15:30:08-08:00
22.06,1.0,8.0,2026-02-07 23:30:22,37.08158,-121.59955,390.0,0.0,50.4,-12.6,,,,,23:30:21,10.9,-1.3,56.9,0.0,-30.0,-0.0,-0.02,1.0,,-48.0,21.0,0.0,30.25,712.0,,,326.0,,,,,0.0,0.0,,,,,,,,,,,,,,,,,,,0.0,20.0,0.0,0.0,30.4,0.0,,0.0,0.0,,,36.4,0.0,0.0,-0.8,1.1,0.4,,,,,21.0,21.0,21.0,21.0,21.0,21.0,21.0,21.0,,,-37.0,254.4,,0.0,-8.0,0.0,,,0.653,0.791,0.0,19.9,,,,,,0.0,2026-02-07 15:30:08-08:00
23.06,1.0,8.0,2026-02-07 23:30:23,37.08158,-121.59955,390.0,0.0,50.4,-12.6,,,,,23:30:22,10.9,-1.2,57.0,0.0,-33.0,0.0,-0.02,1.0,,-87.0,21.0,0.0,30.25,719.0,,,326.0,,,,,0.0,0.0,,,,,,,,,,,,,,,,,,,0.0,20.0,0.0,0.0,30.4,0.0,,0.0,0.0,,,36.4,0.0,0.0,-0.8,1.1,0.4,,,,,21.0,21.0,21.0,21.0,21.0,21.0,21.0,21.0,,,-37.0,254.4,,0.0,-8.0,0.0,,,0.653,0.791,0.0,19.9,,,,,,0.0,2026-02-07 15:30:08-08:00
24.06,1.0,8.0,2026-02-07 23:30:24,37.08158,-121.59955,390.0,0.0,50.4,-12.6,,,,,23:30:23,10.9,-1.2,57.0,0.0,-34.0,0.0,-0.02,1.0,,-78.0,21.0,0.0,30.25,719.0,,,326.0,,,,,0.0,0.0,,,,,,,,,,,,,,,,,,,0.0,20.0,0.0,0.0,30.4,0.0,,0.0,0.0,,,36.4,0.0,0.0,-0.8,1.1,0.4,,,,,21.0,21.0,21.0,21.0,21.0,21.0,21.0,21.0,,,-37.0,254.4,,0.0,-8.0,0.0,,,0.653,0.791,0.0,19.9,,,,,,0.0,2026-02-07 15:30:08-08:00
25.06,1.0,8.0,2026-02-07 23:30:25,37.08158,-121.59955,390.0,0.1,50.4,-12.6,,,,,23:30:24,11.0,-1.2,57.0,0.0,-35.0,0.0,-0.02,1.0,,-78.0,21.0,0.0,30.25,719.0,,,326.0,,,,,0.0,0.0,,,,,,,,,,,,,,,,,,,0.0,20.0,0.0,0.0,30.4,0.0,,0.0,0.0,,,36.4,0.0,0.0,-0.8,1.1,0.4,,,,,21.0,21.0,21.0,21.0,21.0,21.0,21.0,21.0,,,-37.0,254.4,,0.0,-8.0,0.0,,,0.653,0.791,0.0,19.9,,,,,,0.0,2026-02-07 15:30:08-08:00
26.06,1.0,8.0,2026-02-07 23:30:26,37.08158,-121.59955,390.0,0.0,50.4,-12.6,,,,,23:30:25,11.0,-1.2,57.0,0.0,-35.0,0.0,-0.02,1.0,,-62.0,21.0,0.0,30.25,713.0,,,326.0,,,,,0.0,0.0,,,,,,,,,,,,,,,,,,,0.0,20.0,0.0,0.0,30.4,0.0,,0.0,3.3,,,36.4,0.0,0.0,-0.7,1.1,0.4,,,,,21.0,21.0,21.0,21.0,21.0,21.0,21.0,21.0,,,-38.0,254.4,,3.3,-8.0,0.0,,,0.653,0.791,0.0,19.9,,,,,,0.0,2026-02-07 15:30:08-08:00
27.06,1.0,8.0,2026-02-07 23:30:27,37.08158,-121.59955,390.0,0.1,50.4,-12.6,,,,,23:30:26,11.0,-1.2,56.9,0.0,-36.0,-0.0,-0.02,1.0,,-45.0,21.0,0.0,30.25,713.0,,,326.0,,,,,0.0,0.0,,,,,,,,,,,,,,,,,,,0.0,20.0,0.0,0.0,30.4,1.3,,1.3,20.9,,,36.4,0.0,0.0,-0.7,1.1,0.4,,,,,21.0,21.0,21.0,21.0,21.0,22.0,21.0,21.0,,,-38.0,254.4,,20.9,-8.0,0.0,,,0.653,0.791,0.0,19.9,,,,,,0.0,2026-02-07 15:30:08-08:00
28.06,1.0,8.0,2026-02-07 23:30:28,37.08158,-121.59955,390.0,0.0,50.4,-12.6,,,,,23:30:27,11.0,-1.2,56.9,0.0,-36.0,0.0,-0.02,1.0,,-17.0,21.0,0.0,30.25,713.0,,,326.0,,,,,0.0,0.0,,,,,,,,,,,,,,,,,,,0.0,20.0,0.0,0.0,30.4,2.4,,2.4,27.8,,,36.4,0.0,0.0,-0.6,1.1,0.4,,,,,21.0,21.0,21.0,21.0,21.0,21.0,21.0,21.0,,,-38.0,254.4,,27.8,-8.0,0.0,,,0.654,0.791,0.0,19.9,,,,,,0.0,2026-02-07 15:30:08-08:00
29.06,1.0,8.0,2026-02-07 23:30:29,37.08158,-121.59955,390.0,0.0,50.4,-12.6,,,,,23:30:28,11.0,-1.2,56.9,0.0,-36.0,0.0,-0.02,1.0,,-16.0,21.0,0.0,30.25,712.0,,,326.0,,,,,0.0,0.0,,,,,,,,,,,,,,,,,,,0.0,20.0,0.0,0.0,30.4,3.2,,3.2,30.7,,,36.4,0.0,0.0,-0.6,1.1,0.4,,,,,21.0,21.0,21.0,21.0,21.0,22.0,21.0,21.0,,,-38.0,254.4,,30.7,-8.0,0.0,,,0.653,0.791,0.0,19.9,,,,,,0.0,2026-02-07 15:30:08-08:00
30.06,1.0,8.0,2026-02-07 23:30:30,37.08158,-121.59955,389.0,0.0,50.4,-12.6,,,,,23:30:29,11.0,-1.2,56.9,0.0,-36.0,0.0,-0.02,1.0,,-12.0,21.0,0.0,30.25,712.0,,,326.0,,,,,0.0,0.0,,,,,,,,,,,,,,,,,,,0.0,20.0,0.0,0.0,30.4,3.2,,3.2,33.4,,,36.4,0.0,0.0,-0.6,1.1,0.4,,,,,21.0,21.0,21.0,21.0,21.0,22.0,21.0,21.0,,,-38.0,254.4,,33.4,-8.0,0.0,,,0.654,0.791,0.0,19.9,,,,,,0.0,2026-02-07 15:30:08-08:00
31.06,1.0,8.0,2026-02-07 23:30:31,37.08158,-121.59955,389.0,0.0,50.4,-12.6,,,,,23:30:30,11.0,-1.2,56.9,0.0,-37.0,0.0,-0.02,1.0,,-23.0,21.0,0.0,30.25,712.0,,,326.0,,,,,0.0,0.0,,,,,,,,,,,,,,,,,,,0.0,20.0,0.0,0.0,30.4,3.2,,3.2,34.1,,,36.4,0.0,0.0,-0.6,1.1,0.4,,,,,21.0,21.0,21.0,21.0,21.0,22.0,21.0,21.0,,,-38.0,254.4,,34.1,-8.0,0.0,,,0.653,0.791,0.0,19.9,,,,,,0.0,2026-02-07 15:30:08-08:00
32.06,1.0,9.0,2026-02-07 23:30:32,37.0816,-121.59954,401.0,0.0,50.4,-12.6,,,,,23:30:31,11.0,-1.3,56.9,0.0,-37.0,0.0,-0.02,1.0,,-23.0,21.0,0.0,30.25,711.0,,,326.0,,,,,0.0,0.0,,,,,,,,,,,,,,,,,,,0.0,20.0,0.0,0.0,30.4,3.2,,3.2,33.1,,,36.4,0.0,0.0,-0.7,1.1,0.4,,,,,21.0,22.0,21.0,21.0,21.0,22.0,21.0,21.0,,,-38.0,254.4,,33.1,-8.0,0.0,,,0.653,0.791,0.0,19.9,,,,,,0.0,2026-02-07 15:30:08-08:00
33.06,1.0,9.0,2026-02-07 23:30:33,37.0816,-121.59954,400.0,0.0,50.4,-12.6,,,,,23:30:32,11.0,-1.3,56.9,0.0,-37.0,0.0,-0.02,1.0,,20.0,21.0,0.0,30.25,712.0,,,326.0,,,,,0.0,0.0,,,,,,,,,,,,,,,,,,,0.0,20.0,0.0,0.0,30.4,0.0,,0.0,32.8,,,36.4,0.0,0.0,-0.7,1.1,0.4,,,,,21.0,22.0,21.0,21.0,21.0,22.0,21.0,21.0,,,-37.0,254.4,,32.8,-8.0,0.0,,,0.653,0.791,0.0,19.9,,,,,,0.0,2026-02-07 15:30:08-08:00
34.06,1.0,9.0,2026-02-07 23:30:34,37.0816,-121.59954,398.0,0.0,50.4,-12.6,,,,,23:30:33,11.0,-1.3,56.8,0.0,-37.0,0.0,-0.02,1.0,,46.0,21.0,0.0,30.25,712.0,,,326.0,,,,,0.0,0.0,,,,,,,,,,,,,,,,,,,0.0,20.0,0.0,0.0,30.4,0.0,,0.0,32.6,,,36.4,0.0,0.0,-0.8,1.1,0.4,,,,,21.0,21.0,21.0,21.0,21.0,22.0,21.0,21.0,,,-38.0,254.4,,32.6,-8.0,0.0,,,0.653,0.791,0.0,19.9,,,,,,0.0,2026-02-07 15:30:08-08:00
35.06,1.0,8.0,2026-02-07 23:30:35,37.08158,-121.59956,387.0,0.0,50.4,-12.6,,,,,23:30:34,11.0,-1.4,56.8,0.0,-37.0,-0.0,-0.02,1.0,,42.0,21.0,0.0,30.25,712.0,,,326.0,,,,,0.0,0.0,,,,,,,,,,,,,,,,,,,0.0,20.0,0.0,0.0,30.4,0.0,,0.0,32.4,,,36.4,0.0,0.0,-0.8,1.1,0.4,,,,,21.0,21.0,21.0,21.0,21.0,22.0,21.0,21.0,,,-37.0,254.4,,32.4,-8.0,0.0,,,0.653,0.791,0.0,19.9,,,,,,0.0,2026-02-07 15:30:08-08:00
36.06,1.0,8.0,2026-02-07 23:30:36,37.08158,-121.59956,385.0,0.0,50.4,-12.6,,,,,23:30:35,11.1,-1.3,56.7,0.0,-37.0,0.0,-0.02,1.0,,12.0,21.0,0.0,30.25,720.0,,,326.0,,,,,0.0,0.0,,,,,,,,,,,,,,,,,,,0.0,20.0,0.0,0.0,30.4,0.0,,0.0,32.2,,,36.4,0.0,0.0,-0.8,1.1,0.4,,,,,21.0,22.0,21.0,21.0,21.0,22.0,21.0,21.0,,,-38.0,254.4,,32.2,-8.0,0.0,,,0.653,0.791,0.0,19.9,,,,,,0.0,2026-02-07 15:30:08-08:00
37.06,1.0,8.0,2026-02-07 23:30:37,37.08157,-121.59956,383.0,0.0,50.4,-12.6,,,,,23:30:36,11.0,-1.3,56.8,0.0,-37.0,-0.0,-0.02,1.0,,-34.0,21.0,0.0,30.25,720.0,,,326.0,,,,,0.0,0.0,,,,,,,,,,,,,,,,,,,0.0,20.0,0.0,0.0,30.4,0.0,,0.0,32.1,,,36.4,0.0,0.0,-0.8,1.1,0.4,,,,,21.0,21.0,21.0,21.0,21.0,22.0,21.0,21.0,,,-38.0,254.4,,32.1,-8.0,0.0,,,0.653,0.791,0.0,19.9,,,,,,0.0,2026-02-07 15:30:08-08:00
38.06,1.0,8.0,2026-02-07 23:30:38,37.08157,-121.59956,382.0,0.0,50.4,-12.6,,,,,23:30:37,11.0,-1.3,56.8,0.0,-39.0,0.0,-0.02,1.0,,-61.0,21.0,0.0,30.25,718.0,,,326.0,,,,,0.0,0.0,,,,,,,,,,,,,,,,,,,0.0,20.0,0.0,0.0,30.4,0.0,,0.0,31.9,,,36.4,0.0,0.0,-0.8,1.1,0.4,,,,,21.0,22.0,21.0,21.0,21.0,22.0,21.0,21.0,,,-38.0,254.4,,31.9,-8.0,0.0,,,0.653,0.791,0.0,19.9,,,,,,0.0,2026-02-07 15:30:08-08:00
39.06,1.0,8.0,2026-02-07 23:30:39,37.08157,-121.59956,381.0,0.0,50.4,-12.6,,,,,23:30:38,11.0,-1.3,56.8,0.0,-40.0,-0.0,-0.02,1.0,,-76.0,21.0,0.0,30.25,716.0,,,326.0,,,,,0.0,0.0,,,,,,,,,,,,,,,,,,,0.0,20.0,0.0,0.0,30.4,0.0,,0.0,31.8,,,36.4,0.0,0.0,-0.8,1.1,0.4,,,,,21.0,21.0,21.0,21.0,21.0,22.0,21.0,21.0,,,-37.0,254.4,,31.8,-8.0,0.0,,,0.653,0.791,0.0,19.9,,,,,,0.0,2026-02-07 15:30:08-08:00
40.06,1.0,8.0,2026-02-07 23:30:40,37.08157,-121.59956,381.0,0.0,50.4,-12.6,,,,,23:30:39,11.0,-1.3,56.8,0.0,-41.0,-0.0,-0.02,1.0,,-72.0,21.0,0.0,30.25,716.0,,,326.0,,,,,0.0,0.0,,,,,,,,,,,,,,,,,,,0.0,20.0,0.0,0.0,30.4,0.0,,0.0,31.7,,,36.4,0.0,0.0,-0.8,1.1,0.4,,,,,21.0,22.0,21.0,21.0,21.0,22.0,21.0,21.0,,,-38.0,254.4,,31.7,-8.0,0.0,,,0.653,0.791,0.0,19.9,,,,,,0.0,2026-02-07 15:30:08-08:00
41.06,1.0,8.0,2026-02-07 23:30:41,37.08157,-121.59956,380.0,0.0,50.4,-12.6,,,,,23:30:40,11.0,-1.3,56.7,0.0,-42.0,-0.0,-0.02,1.0,,-36.0,21.0,0.0,30.25,716.0,,,326.0,,,,,0.0,0.0,,,,,,,,,,,,,,,,,,,0.0,20.0,0.0,0.0,30.4,0.0,,0.0,31.6,,,36.4,0.0,0.0,-0.8,1.1,0.4,,,,,21.0,22.0,21.0,21.0,21.0,22.0,21.0,21.0,,,-37.0,254.3,,31.6,-8.0,0.0,,,0.653,0.791,0.0,19.9,,,,,,0.0,2026-02-07 15:30:08-08:00
42.06,1.0,8.0,2026-02-07 23:30:42,37.08157,-121.59956,379.0,0.0,50.4,-12.6,,,,,23:30:41,11.0,-1.4,56.7,0.0,-42.0,-0.0,-0.02,1.0,,-19.0,21.0,0.0,30.25,714.0,,,326.0,,,,,0.0,0.0,,,,,,,,,,,,,,,,,,,0.0,20.0,0.0,0.0,30.4,0.0,,0.0,31.4,,,36.4,0.0,0.0,-0.8,1.1,0.4,,,,,21.0,22.0,21.0,21.0,21.0,22.0,21.0,21.0,,,-37.0,235.2,,31.4,-8.0,0.0,,,0.653,0.791,0.0,19.9,,,,,,0.0,2026-02-07 15:30:08-08:00
43.06,1.0,8.0,2026-02-07 23:30:43,37.08157,-121.59956,379.0,0.0,50.4,-12.6,,,,,23:30:42,11.0,-1.4,56.7,0.0,-42.0,-0.0,-0.02,1.0,,-21.0,21.0,0.0,30.25,714.0,,,326.0,,,,,0.0,0.0,,,,,,,,,,,,,,,,,,,0.0,20.0,0.0,0.0,30.4,0.0,,0.0,31.3,,,36.4,0.0,0.0,-0.8,1.1,0.4,,,,,21.0,22.0,21.0,21.0,21.0,22.0,21.0,21.0,,,-37.0,183.0,,31.3,-8.0,0.0,,,0.653,0.791,0.0,19.9,,,,,,0.0,2026-02-07 15:30:08-08:00
44.06,1.0,8.0,2026-02-07 23:30:44,37.08157,-121.59956,380.0,0.0,50.4,-12.6,,,,,23:30:43,11.0,-1.4,56.7,0.0,-43.0,-0.0,-0.02,1.0,,-33.0,21.0,0.0,30.25,714.0,,,326.0,,,,,0.0,0.0,,,,,,,,,,,,,,,,,,,0.0,20.0,0.0,0.0,30.4,0.0,,0.0,31.2,,,36.4,0.0,0.0,-0.8,1.1,0.4,,,,,21.0,22.0,21.0,21.0,21.0,22.0,21.0,21.0,,,-37.0,142.5,,31.2,-8.0,0.0,,,0.653,0.791,0.0,19.9,,,,,,0.0,2026-02-07 15:30:08-08:00
45.06,1.0,8.0,2026-02-07 23:30:45,37.08157,-121.59956,380.0,0.0,50.4,-12.6,,,,,23:30:44,11.0,-1.3,56.8,0.0,-45.0,0.0,-0.02,1.0,,-77.0,21.0,0.0,30.25,711.0,,,326.0,,,,,0.0,0.0,,,,,,,,,,,,,,,,,,,0.0,20.0,0.0,0.0,30.4,0.0,,0.0,31.0,,,36.4,0.0,0.0,-0.8,1.1,0.4,,,,,21.0,22.0,21.0,21.0,21.0,22.0,21.0,21.0,,,-37.0,111.0,,31.0,-8.0,0.0,,,0.653,0.791,0.0,19.9,,,,,,0.0,2026-02-07 15:30:08-08:00
46.06,1.0,8.0,2026-02-07 23:30:46,37.08157,-121.59956,380.0,0.1,50.4,-12.6,,,,,23:30:45,11.0,-1.3,56.8,0.0,-46.0,-0.0,-0.02,1.0,,-77.0,21.0,0.0,30.25,711.0,,,326.0,,,,,0.0,0.0,,,,,,,,,,,,,,,,,,,0.0,20.0,0.0,0.0,30.4,0.0,,0.0,31.0,,,36.4,0.0,0.0,-0.8,1.1,0.4,,,,,21.0,22.0,21.0,21.0,21.0,22.0,21.0,21.0,,,-37.0,86.5,,31.0,-8.0,0.0,,,0.653,0.791,0.0,19.9,,,,,,0.0,2026-02-07 15:30:08-08:00
47.06,1.0,8.0,2026-02-07 23:30:47,37.08158,-121.59956,380.0,0.0,50.4,-12.6,,,,,23:30:46,11.0,-1.3,56.8,0.0,-49.0,-0.0,-0.02,1.0,,-102.0,21.0,0.0,30.25,711.0,,,326.0,,,,,0.0,0.0,,,,,,,,,,,,,,,,,,,0.0,20.0,0.0,0.0,30.4,0.0,,0.0,30.8,,,36.4,0.0,0.0,-0.8,1.1,0.4,,,,,21.0,22.0,21.0,21.0,21.0,22.0,21.0,21.0,,,-37.0,67.4,,30.8,-8.0,0.0,,,0.653,0.791,0.0,19.9,,,,,,0.0,2026-02-07 15:30:08-08:00
48.06,1.0,8.0,2026-02-07 23:30:48,37.08157,-121.59956,380.0,0.0,50.4,-12.6,,,,,23:30:47,11.0,-1.3,56.7,0.0,-50.0,-0.0,-0.02,1.0,,-89.0,21.0,0.0,30.25,705.0,,,326.0,,,,,0.0,0.0,,,,,,,,,,,,,,,,,,,0.0,17.0,138.0,138.0,30.2,0.0,,0.0,31.0,,,36.4,0.0,0.0,-0.8,1.1,0.4,,,,,18.0,18.0,18.0,18.0,19.0,18.0,18.0,18.0,,,-24.0,52.6,,31.0,-8.0,0.0,,,0.653,0.792,0.0,17.2,,,,,,138.0,2026-02-07 15:30:08-08:00
49.06,1.0,8.0,2026-02-07 23:30:49,37.08157,-121.59956,380.0,0.0,50.4,-12.6,,,,,23:30:48,11.0,-1.4,56.6,0.0,-52.0,-0.0,-0.02,1.1,,-88.0,21.0,0.0,30.25,705.0,,,326.0,,,,,0.0,0.0,,,,,,,,,,,,,,,,,,,0.0,18.0,372.0,372.0,29.5,0.0,,0.0,30.9,,,36.4,0.0,0.0,-0.6,1.1,0.4,,,,,19.0,22.0,19.0,19.0,20.0,22.0,20.0,20.0,,,-25.0,41.1,,30.9,-8.0,0.0,,,0.653,0.792,0.0,18.2,,,,,,372.0,2026-02-07 15:30:08-08:00
50.06,1.0,8.0,2026-02-07 23:30:50,37.08157,-121.59956,380.0,0.0,50.4,-12.6,,,,,23:30:49,11.0,-1.3,56.7,0.0,-54.0,-0.0,-0.03,1.0,,-89.0,21.0,0.0,30.25,705.0,,,326.0,,,,,0.0,0.0,,,,,,,,,,,,,,,,,,,2.0,20.0,520.0,520.0,26.7,1.3,,1.3,25.4,,,36.4,0.0,0.0,-0.7,1.1,0.4,,,,,21.0,44.0,21.0,37.0,21.0,50.0,21.0,63.0,,,-25.0,32.2,,25.4,-8.0,0.0,,,0.654,0.792,2.2,19.9,,,3.0,L,,520.0,2026-02-07 15:30:08-08:00
51.06,1.0,8.0,2026-02-07 23:30:51,37.08157,-121.59956,379.0,0.0,50.4,-12.6,,,,,23:30:50,11.0,-1.3,56.7,0.0,-55.0,0.0,-0.02,1.0,,-84.0,21.0,0.0,30.25,699.0,,,326.0,,,,,0.0,0.0,,,,,,,,,,,,,,,,,,,5.0,20.0,650.0,650.0,24.6,1.9,,1.9,24.9,,,36.4,0.0,0.0,-0.7,1.1,0.4,,,,,21.0,74.0,21.0,55.0,21.0,88.0,21.0,102.0,,,-25.0,25.2,,24.9,-8.0,0.004,,,0.653,0.79,5.0,19.9,,,9.0,L,,650.0,2026-02-07 15:30:08-08:00
52.06,1.0,8.0,2026-02-07 23:30:52,37.08157,-121.59956,379.0,0.1,50.4,-12.6,,,,,23:30:51,11.1,-1.3,56.8,0.0,-57.0,0.0,-0.03,1.0,,-84.0,21.0,0.0,30.25,699.0,,,326.0,,,,,0.0,0.0,,,,,,,,,,,,,,,,,,,9.0,20.0,761.0,761.0,23.1,2.4,,2.4,25.3,,,36.4,0.0,0.0,-0.8,1.1,0.4,,,,,21.0,96.0,21.0,75.0,21.0,127.0,22.0,142.0,,,-25.0,19.8,,25.3,-8.0,0.002,,,0.653,0.79,8.8,19.9,,,13.0,R,,761.0,2026-02-07 15:30:08-08:00
53.06,1.0,8.0,2026-02-07 23:30:53,37.08157,-121.59956,379.0,0.0,50.4,-12.6,,,,,23:30:52,11.0,-1.2,56.8,0.0,-57.0,0.0,-0.03,1.0,,-33.0,21.0,0.0,30.25,699.0,,,326.0,,,,,0.0,0.0,,,,,,,,,,,,,,,,,,,14.0,20.0,794.0,794.0,22.3,2.7,,2.7,25.5,,,36.4,0.0,0.0,-0.8,1.1,0.4,,,,,22.0,116.0,21.0,90.0,22.0,162.0,22.0,177.0,,,-25.0,15.6,,25.5,-8.0,0.002,,,0.654,0.79,14.0,19.9,,,13.0,R,,794.0,2026-02-07 15:30:08-08:00
54.06,1.0,8.0,2026-02-07 23:30:54,37.08157,-121.59956,379.0,0.1,50.4,-12.6,,,,,23:30:53,11.0,-1.3,56.8,0.0,-57.0,-0.0,-0.03,1.0,,4.0,21.0,0.0,30.25,697.0,,,326.0,,,,,0.0,0.0,,,,,,,,,,,,,,,,,,,21.0,20.0,770.0,770.0,21.5,3.1,,3.1,25.7,,,36.4,0.0,0.0,-0.8,1.1,0.4,,,,,22.0,129.0,21.0,102.0,22.0,194.0,22.0,210.0,,,-25.0,12.4,,25.7,-8.0,0.002,,,0.656,0.79,21.0,19.9,,,,,,770.0,2026-02-07 15:30:08-08:00
55.06,1.0,8.0,2026-02-07 23:30:55,37.08157,-121.59956,378.0,0.0,50.4,-12.6,,,,,23:30:54,11.0,-1.2,56.8,0.0,-57.0,-0.0,-0.02,1.0,,12.0,21.0,0.0,30.25,698.0,,,326.0,,,,,0.0,0.0,,,,,,,,,,,,,,,,,,,30.0,20.0,774.0,774.0,21.4,3.3,,3.3,25.7,,,36.4,0.0,0.0,-0.8,1.1,0.4,,,,,22.0,146.0,22.0,117.0,22.0,221.0,23.0,240.0,,,-25.0,9.8,,25.7,-8.0,0.001,,,0.654,0.79,30.0,19.9,,,,,,774.0,2026-02-07 15:30:08-08:00
56.06,1.0,8.0,2026-02-07 23:30:56,37.08157,-121.59956,378.0,0.1,50.4,-12.6,,,,,23:30:55,11.0,-1.2,56.9,0.0,-57.0,-0.0,-0.02,0.9,,37.0,21.0,0.0,30.25,698.0,,,326.0,,,,,0.0,0.0,,,,,,,,,,,,,,,,,,,41.0,20.0,790.0,790.0,21.3,3.5,,3.5,25.7,,,36.4,0.0,0.0,-0.8,1.1,0.4,,,,,22.0,162.0,22.0,130.0,23.0,246.0,23.0,269.0,,,-25.0,7.8,,25.7,-8.0,0.002,,,0.657,0.79,40.8,19.9,,,,,,790.0,2026-02-07 15:30:08-08:00
57.06,1.0,8.0,2026-02-07 23:30:57,37.08157,-121.59956,378.0,0.0,50.4,-12.6,,,,,23:30:56,11.0,-1.2,56.9,0.0,-57.0,-0.0,-0.02,1.0,,38.0,22.0,0.0,30.25,698.0,,,326.0,,,,,0.0,0.0,,,,,,,,,,,,,,,,,,,52.0,20.0,844.0,844.0,21.0,3.6,,3.6,25.8,,,36.4,0.0,0.0,-0.8,1.1,0.4,,,,,22.0,170.0,22.0,141.0,23.0,270.0,24.0,294.0,,,-25.0,6.3,,25.8,-8.0,0.002,,,0.658,0.79,51.5,19.9,,,,,,844.0,2026-02-07 15:30:08-08:00
58.06,1.0,8.0,2026-02-07 23:30:58,37.08157,-121.59956,377.0,0.0,50.4,-12.6,,,,,23:30:57,11.0,-1.3,56.8,0.0,-57.0,-0.0,-0.03,1.0,,21.0,22.0,0.0,30.25,707.0,,,326.0,,,,,0.0,0.0,,,,,,,,,,,,,,,,,,,60.0,20.0,843.0,843.0,20.7,3.7,,3.7,25.8,,,36.4,0.0,0.0,-0.8,1.1,0.4,,,,,23.0,184.0,22.0,152.0,24.0,294.0,24.0,317.0,,,-25.0,5.1,,25.8,-8.0,0.001,,,0.659,0.791,60.1,19.9,,,,,,843.0,2026-02-07 15:30:08-08:00
59.06,1.0,8.0,2026-02-07 23:30:59,37.08157,-121.59956,377.0,0.0,50.4,-12.6,,,,,23:30:58,11.0,-1.2,56.9,0.0,-57.0,-0.0,-0.03,1.0,,17.0,22.0,0.0,30.25,707.0,,,326.0,,,,,0.0,0.0,,,,,,,,,,,,,,,,,,,65.0,20.0,853.0,853.0,20.7,3.7,,3.7,25.7,,,36.4,0.0,0.0,-0.8,1.1,0.4,,,,,23.0,196.0,23.0,168.0,24.0,315.0,24.0,337.0,,,-25.0,4.2,,25.7,-8.0,0.0,,,0.66,0.791,64.8,19.9,,,,,,853.0,2026-02-07 15:30:08-08:00
60.06,1.0,8.0,2026-02-07 23:31:00,37.08157,-121.59956,376.0,0.0,50.4,-12.6,,,,,23:30:59,11.0,-1.2,56.9,0.0,-57.0,-0.0,-0.02,1.0,,-40.0,22.0,0.0,30.25,707.0,,,326.0,,,,,0.0,0.0,,,,,,,,,,,,,,,,,,,68.0,20.0,840.0,840.0,20.4,3.8,,3.8,25.8,,,36.4,0.0,0.0,-0.8,1.1,0.4,,,,,23.0,206.0,23.0,184.0,24.0,333.0,25.0,357.0,,,-25.0,3.5,,25.8,-8.0,0.001,,,0.659,0.79,67.5,19.8,,,,,,840.0,2026-02-07 15:30:08-08:00
61.06,1.0,8.0,2026-02-07 23:31:01,37.08157,-121.59956,376.0,0.0,50.4,-12.6,,,,,23:31:00,11.0,-1.1,56.9,0.0,-57.0,0.0,-0.02,1.0,,-38.0,22.0,0.0,30.25,707.0,,,326.0,,,,,0.0,0.0,,,,,,,,,,,,,,,,,,,69.0,20.0,882.0,882.0,20.1,3.8,,3.8,25.9,,,36.4,0.0,0.0,-0.8,1.1,0.4,,,,,23.0,219.0,23.0,198.0,25.0,351.0,25.0,373.0,,,-25.0,2.9,,25.9,-8.0,0.001,,,0.659,0.79,69.0,19.8,,,,,,882.0,2026-02-07 15:30:08-08:00
62.06,1.0,8.0,2026-02-07 23:31:02,37.08157,-121.59956,376.0,0.0,50.4,-12.6,,,,,23:31:01,11.0,-1.1,56.9,0.0,-57.0,0.0,-0.02,1.0,,-38.0,22.0,0.0,30.25,707.0,,,326.0,,,,,0.0,0.0,,,,,,,,,,,,,,,,,,,70.0,20.0,887.0,887.0,19.8,3.8,,3.8,25.9,,,36.4,0.0,0.0,-0.8,1.1,0.4,,,,,23.0,233.0,23.0,210.0,25.0,366.0,26.0,389.0,,,-25.0,2.5,,25.9,-8.0,0.001,,,0.658,0.79,69.9,19.8,,,,,,887.0,2026-02-07 15:30:08-08:00
63.06,1.0,8.0,2026-02-07 23:31:03,37.08157,-121.59956,376.0,0.0,50.4,-12.6,,,,,23:31:02,11.0,-1.1,56.9,0.0,-57.0,-0.0,-0.02,1.0,,-11.0,22.0,0.0,30.25,707.0,,,326.0,,,,,0.0,0.0,,,,,,,,,,,,,,,,,,,71.0,20.0,905.0,905.0,19.2,3.6,,3.6,26.0,,,36.4,0.0,0.0,-0.8,1.1,0.4,,,,,24.0,242.0,24.0,222.0,25.0,381.0,26.0,402.0,,,-25.0,2.2,,26.0,-8.0,0.001,,,0.656,0.79,70.9,19.8,,,,,,905.0,2026-02-07 15:30:08-08:00
64.06,1.0,8.0,2026-02-07 23:31:04,37.08157,-121.59956,376.0,0.0,50.4,-12.6,,,,,23:31:03,11.0,-1.2,56.8,0.0,-57.0,-0.1,-0.02,1.0,,16.0,22.0,0.0,30.25,707.0,,,326.0,,,,,0.0,0.0,,,,,,,,,,,,,,,,,,,72.0,20.0,922.0,922.0,18.9,3.5,,3.5,26.0,,,36.4,0.0,0.0,-0.8,1.1,0.4,,,,,24.0,251.0,24.0,232.0,26.0,396.0,27.0,414.0,,,-25.0,1.9,,26.0,-8.0,0.001,,,0.654,0.79,71.6,19.8,,,,,,922.0,2026-02-07 15:30:08-08:00
65.06,1.0,8.0,2026-02-07 23:31:05,37.08157,-121.59956,376.0,0.1,50.4,-12.6,,,,,23:31:04,11.0,-1.1,56.8,0.0,-57.0,-0.0,-0.02,0.9,,49.0,22.0,0.0,30.25,707.0,,,326.0,,,,,0.0,0.0,,,,,,,,,,,,,,,,,,,72.0,20.0,972.0,972.0,18.4,3.4,,3.4,26.1,,,36.4,0.0,0.0,-0.8,1.1,0.4,,,,,24.0,258.0,24.0,245.0,26.0,410.0,27.0,426.0,,,-25.0,1.7,,26.1,-8.0,0.001,,,0.654,0.79,72.3,19.8,,,,,,972.0,2026-02-07 15:30:08-08:00
66.06,1.0,8.0,2026-02-07 23:31:06,37.08158,-121.59956,376.0,0.0,50.4,-12.6,,,,,23:31:05,11.0,-1.2,56.8,0.0,-57.0,-0.0,-0.02,1.0,,55.0,22.0,0.0,30.25,707.0,,,326.0,,,,,0.0,0.0,,,,,,,,,,,,,,,,,,,71.0,20.0,854.0,854.0,17.6,3.2,,3.2,26.0,,,36.4,0.0,0.0,-0.8,1.1,0.4,,,,,24.0,266.0,25.0,254.0,27.0,421.0,28.0,436.0,,,-25.0,1.5,,26.0,-8.0,0.001,,,0.654,0.79,71.3,19.8,,,,,,854.0,2026-02-07 15:30:08-08:00
67.06,1.0,8.0,2026-02-07 23:31:07,37.08158,-121.59956,376.0,0.0,50.4,-12.6,,,,,23:31:06,11.0,-1.1,56.8,0.0,-57.0,-0.0,-0.02,1.0,,80.0,22.0,0.0,30.25,707.0,,,326.0,,,,,0.0,0.0,,,,,,,,,,,,,,,,,,,71.0,20.0,878.0,878.0,17.4,3.1,,3.1,26.1,,,36.4,0.0,0.0,-0.8,1.1,0.4,,,,,25.0,281.0,25.0,266.0,27.0,429.0,28.0,447.0,,,-25.0,1.4,,26.1,-8.0,0.001,,,0.657,0.79,70.6,19.8,,,,,,878.0,2026-02-07 15:30:08-08:00
68.06,1.0,9.0,2026-02-07 23:31:08,37.08145,-121.59962,315.0,0.0,50.4,-12.6,,,,,23:31:07,11.0,-1.2,56.8,0.0,-57.0,-0.0,-0.02,1.0,,58.0,22.0,0.0,30.25,707.0,,,326.0,,,,,0.0,0.0,,,,,,,,,,,,,,,,,,,70.0,20.0,886.0,886.0,17.1,3.0,,3.0,26.1,,,36.4,0.0,0.0,-0.8,1.1,0.4,,,,,25.0,285.0,25.0,279.0,27.0,437.0,29.0,455.0,,,-25.0,1.3,,26.1,-8.0,0.001,,,0.657,0.79,70.5,19.8,,,,,,886.0,2026-02-07 15:30:08-08:00
69.06,1.0,9.0,2026-02-07 23:31:09,37.08146,-121.59961,317.0,0.0,50.4,-12.6,,,,,23:31:08,11.0,-1.3,56.8,0.0,-57.0,-0.0,-0.03,1.0,,65.0,22.0,0.0,30.25,707.0,,,326.0,,,,,0.0,0.0,,,,,,,,,,,,,,,,,,,70.0,20.0,884.0,884.0,17.0,2.9,,2.9,26.1,,,36.4,0.0,0.0,-0.8,1.1,0.4,,,,,25.0,295.0,26.0,297.0,28.0,445.0,29.0,462.0,,,-25.0,1.3,,26.1,-8.0,0.001,,,0.656,0.791,70.3,19.8,,,,,,884.0,2026-02-07 15:30:08-08:00
70.06,1.0,9.0,2026-02-07 23:31:10,37.08146,-121.59961,319.0,0.1,50.4,-12.6,,,,,23:31:09,11.0,-1.2,56.8,0.0,-57.0,-0.0,-0.02,1.0,,57.0,22.0,0.0,30.25,708.0,,,326.0,,,,,0.0,0.0,,,,,,,,,,,,,,,,,,,70.0,20.0,885.0,885.0,16.9,2.8,,2.8,26.1,,,36.4,0.0,0.0,-0.8,1.1,0.4,,,,,26.0,300.0,26.0,317.0,28.0,452.0,30.0,469.0,,,-25.0,1.2,,26.1,-8.0,0.001,,,0.656,0.79,70.4,19.8,,,,,,885.0,2026-02-07 15:30:08-08:00
71.06,1.0,9.0,2026-02-07 23:31:11,37.08146,-121.59961,321.0,0.0,50.4,-12.6,,,,,23:31:10,11.0,-1.3,56.8,0.0,-57.0,0.0,-0.02,1.0,,45.0,22.0,0.0,30.25,708.0,,,326.0,,,,,0.0,0.0,,,,,,,,,,,,,,,,,,,70.0,20.0,895.0,895.0,16.8,2.7,,2.7,26.1,,,36.4,0.0,0.0,-0.8,1.1,0.4,,,,,26.0,310.0,27.0,336.0,29.0,458.0,31.0,475.0,,,-25.0,1.1,,26.1,-8.0,0.001,,,0.656,0.791,70.5,19.8,,,,,,895.0,2026-02-07 15:30:08-08:00
72.06,1.0,9.0,2026-02-07 23:31:12,37.08146,-121.59961,320.0,0.1,50.4,-12.6,,,,,23:31:11,11.0,-1.2,56.8,0.0,-57.0,-0.0,-0.02,1.0,,41.0,22.0,0.0,30.25,708.0,,,326.0,,,,,0.0,0.0,,,,,,,,,,,,,,,,,,,71.0,20.0,903.0,903.0,16.6,2.7,,2.7,26.1,,,36.4,0.0,0.0,-0.8,1.1,0.4,,,,,26.0,318.0,27.0,351.0,29.0,465.0,31.0,481.0,,,-25.0,1.1,,26.1,-8.0,0.001,,,0.654,0.79,70.6,19.8,,,,,,903.0,2026-02-07 15:30:08-08:00
73.06,1.0,9.0,2026-02-07 23:31:13,37.08147,-121.5996,317.0,0.0,50.4,-12.6,,,,,23:31:12,11.0,-1.2,56.9,0.0,-56.0,0.0,-0.02,1.0,,59.0,22.0,0.0,30.25,709.0,,,326.0,,,,,0.0,0.0,,,,,,,,,,,,,,,,,,,71.0,20.0,917.0,917.0,16.4,2.6,,2.6,26.2,,,36.4,0.0,0.0,-0.8,1.1,0.4,,,,,27.0,324.0,28.0,370.0,30.0,470.0,31.0,486.0,,,-25.0,1.1,,26.2,-8.0,0.001,,,0.654,0.79,70.9,19.8,,,,,,917.0,2026-02-07 15:30:08-08:00
74.06,1.0,9.0,2026-02-07 23:31:14,37.08147,-121.5996,319.0,0.1,50.4,-12.6,,,,,23:31:13,11.0,-1.2,56.8,0.0,-55.0,0.0,-0.03,1.0,,55.0,22.0,0.0,30.25,709.0,,,326.0,,,,,0.0,0.0,,,,,,,,,,,,,,,,,,,71.0,20.0,918.0,918.0,16.4,2.6,,2.6,26.2,,,36.4,0.0,0.0,-0.8,1.1,0.4,,,,,27.0,333.0,28.0,387.0,30.0,474.0,32.0,490.0,,,-25.0,1.0,,26.2,-8.0,0.001,,,0.657,0.79,71.1,19.8,,,,,,918.0,2026-02-07 15:30:08-08:00
75.06,1.0,9.0,2026-02-07 23:31:15,37.08147,-121.59959,323.0,0.1,50.4,-12.6,,,,,23:31:14,11.0,-1.2,56.8,0.0,-54.0,-0.0,-0.02,1.0,,58.0,22.0,0.0,30.25,710.0,,,326.0,,,,,0.0,0.0,,,,,,,,,,,,,,,,,,,71.0,20.0,911.0,911.0,16.3,2.6,,2.6,26.2,,,36.4,0.0,0.0,-0.8,1.1,0.4,,,,,28.0,338.0,29.0,402.0,31.0,480.0,32.0,493.0,,,-25.0,1.0,,26.2,-8.0,0.001,,,0.656,0.79,71.1,19.9,,,,,,911.0,2026-02-07 15:30:08-08:00
76.06,1.0,9.0,2026-02-07 23:31:16,37.08147,-121.59959,325.0,0.0,50.4,-12.6,,,,,23:31:15,11.0,-1.2,56.8,0.0,-53.0,-0.0,-0.02,1.0,,55.0,22.0,0.0,30.25,712.0,,,326.0,,,,,0.0,0.0,,,,,,,,,,,,,,,,,,,71.0,20.0,925.0,925.0,16.1,2.6,,2.6,26.2,,,36.4,0.0,0.0,-0.8,1.1,0.4,,,,,28.0,341.0,29.0,416.0,31.0,483.0,33.0,496.0,,,-25.0,1.0,,26.2,-8.0,0.001,,,0.654,0.79,71.3,19.9,,,,,,925.0,2026-02-07 15:30:08-08:00
77.06,1.0,9.0,2026-02-07 23:31:17,37.08148,-121.59959,327.0,0.0,50.4,-12.6,,,,,23:31:16,11.0,-1.2,56.9,0.0,-52.0,0.0,-0.02,1.0,,68.0,22.0,0.0,30.25,714.0,,,326.0,,,,,0.0,0.0,,,,,,,,,,,,,,,,,,,71.0,20.0,919.0,919.0,16.0,2.6,,2.6,26.2,,,36.4,0.0,0.0,-0.8,1.1,0.4,,,,,29.0,346.0,30.0,429.0,31.0,488.0,33.0,497.0,,,-25.0,1.0,,26.2,-8.0,0.001,,,0.654,0.79,71.4,19.9,,,,,,919.0,2026-02-07 15:30:08-08:00
78.06,1.0,9.0,2026-02-07 23:31:18,37.08148,-121.59959,328.0,0.1,50.4,-12.6,,,,,23:31:17,11.0,-1.2,56.9,0.0,-52.0,-0.0,-0.02,1.0,,58.0,22.0,0.0,30.25,714.0,,,326.0,,,,,0.0,0.0,,,,,,,,,,,,,,,,,,,71.0,20.0,923.0,923.0,15.9,2.6,,2.6,26.2,,,36.4,0.0,0.0,-0.8,1.1,0.4,,,,,29.0,360.0,30.0,439.0,32.0,490.0,34.0,500.0,,,-25.0,1.0,,26.2,-8.0,0.001,,,0.654,0.79,71.3,19.9,,,,,,923.0,2026-02-07 15:30:08-08:00
79.06,1.0,9.0,2026-02-07 23:31:19,37.08149,-121.59959,330.0,0.0,50.4,-12.6,,,,,23:31:18,11.0,-1.2,56.9,0.0,-51.0,-0.0,-0.02,1.0,,16.0,22.0,0.0,30.25,715.0,,,326.0,,,,,0.0,0.0,,,,,,,,,,,,,,,,,,,72.0,20.0,953.0,953.0,15.7,2.6,,2.6,26.3,,,36.4,0.0,0.0,-0.8,1.1,0.4,,,,,30.0,361.0,31.0,449.0,32.0,492.0,35.0,502.0,,,-25.0,1.0,,26.3,-8.0,0.001,,,0.654,0.79,72.0,19.9,,,,,,953.0,2026-02-07 15:30:08-08:00
80.06,1.0,9.0,2026-02-07 23:31:20,37.08149,-121.59959,332.0,0.0,50.4,-12.6,,,,,23:31:19,11.0,-1.2,56.9,0.0,-51.0,-0.0,-0.02,1.0,,26.0,22.0,0.0,30.25,715.0,,,326.0,,,,,0.0,0.0,,,,,,,,,,,,,,,,,,,72.0,20.0,942.0,942.0,15.5,2.6,,2.6,26.2,,,36.4,0.0,0.0,-0.8,1.1,0.4,,,,,30.0,368.0,31.0,457.0,33.0,495.0,35.0,505.0,,,-25.0,1.0,,26.2,-8.0,0.001,,,0.654,0.79,72.1,19.9,,,,,,942.0,2026-02-07 15:30:08-08:00
81.06,1.0,9.0,2026-02-07 23:31:21,37.08149,-121.59959,333.0,0.0,50.4,-12.6,,,,,23:31:20,11.0,-1.2,56.9,0.0,-51.0,0.0,-0.02,1.0,,-9.0,22.0,0.0,30.25,715.0,,,326.0,,,,,0.0,0.0,,,,,,,,,,,,,,,,,,,73.0,20.0,971.0,971.0,15.3,2.5,,2.5,26.4,,,36.4,0.0,0.0,-0.8,1.1,0.4,,,,,30.0,375.0,31.0,465.0,33.0,498.0,36.0,506.0,,,-25.0,1.0,,26.4,-8.0,0.001,,,0.654,0.79,72.5,19.9,,,,,,971.0,2026-02-07 15:30:08-08:00
82.06,1.0,9.0,2026-02-07 23:31:22,37.08156,-121.59955,368.0,0.1,50.4,-12.6,,,,,23:31:21,11.0,-1.3,56.9,0.0,-51.0,-0.0,-0.02,1.0,,-25.0,22.0,0.0,30.25,725.0,,,326.0,,,,,0.0,0.0,,,,,,,,,,,,,,,,,,,73.0,20.0,1001.0,1001.0,14.8,2.5,,2.5,26.3,,,36.4,0.0,0.0,-0.8,1.1,0.4,,,,,31.0,384.0,32.0,471.0,34.0,501.0,36.0,509.0,,,-25.0,1.0,,26.3,-8.0,0.001,,,0.653,0.79,73.3,19.9,,,,,,1001.0,2026-02-07 15:30:08-08:00
83.06,1.0,9.0,2026-02-07 23:31:23,37.08156,-121.59955,369.0,0.0,50.4,-12.6,,,,,23:31:22,11.0,-1.3,56.9,0.0,-51.0,-0.0,-0.02,1.0,,-4.0,22.0,0.0,30.25,725.0,,,326.0,,,,,0.0,0.0,,,,,,,,,,,,,,,,,,,74.0,20.0,1020.0,1020.0,14.4,2.4,,2.4,26.4,,,36.4,0.0,0.0,-0.8,1.1,0.4,,,,,31.0,402.0,32.0,477.0,34.0,503.0,37.0,510.0,,,-25.0,1.0,,26.4,-8.0,0.001,,,0.654,0.791,73.9,19.9,,,,,,1020.0,2026-02-07 15:30:08-08:00
84.06,1.0,9.0,2026-02-07 23:31:24,37.08157,-121.59955,369.0,0.0,50.4,-12.6,,,,,23:31:23,11.0,-1.3,56.9,0.0,-51.0,-0.0,-0.02,1.0,,-15.0,22.0,0.0,30.25,725.0,,,326.0,,,,,0.0,0.0,,,,,,,,,,,,,,,,,,,74.0,20.0,1017.0,1017.0,14.2,2.4,,2.4,26.4,,,36.4,0.0,0.0,-0.8,1.1,0.4,,,,,31.0,415.0,33.0,483.0,35.0,505.0,37.0,514.0,,,-25.0,1.0,,26.4,-8.0,0.001,,,0.653,0.791,74.4,19.9,,,,,,1017.0,2026-02-07 15:30:08-08:00
85.06,1.0,9.0,2026-02-07 23:31:25,37.08157,-121.59955,370.0,0.0,50.4,-12.6,,,,,23:31:24,10.9,-1.2,56.9,0.0,-51.0,0.0,-0.03,1.0,,-39.0,22.0,0.0,30.25,725.0,,,326.0,,,,,0.0,0.0,,,,,,,,,,,,,,,,,,,74.0,20.0,1012.0,1012.0,14.1,2.4,,2.4,26.4,,,36.4,0.0,0.0,-0.8,1.1,0.4,,,,,32.0,426.0,34.0,488.0,35.0,508.0,38.0,516.0,,,-25.0,1.0,,26.4,-8.0,0.001,,,0.653,0.79,74.5,19.9,,,,,,1012.0,2026-02-07 15:30:08-08:00
86.06,1.0,9.0,2026-02-07 23:31:26,37.08157,-121.59954,372.0,0.1,50.4,-12.6,,,,,23:31:25,11.0,-1.1,56.9,0.0,-51.0,0.0,-0.02,1.0,,-34.0,22.0,0.0,30.25,726.0,,,326.0,,,,,0.0,0.0,,,,,,,,,,,,,,,,,,,74.0,20.0,1010.0,1010.0,14.0,2.3,,2.3,26.4,,,36.4,0.0,0.0,-0.8,1.1,0.4,,,,,32.0,440.0,34.0,493.0,36.0,510.0,39.0,518.0,,,-25.0,1.0,,26.4,-8.0,0.001,,,0.653,0.79,74.1,20.0,,,,,,1010.0,2026-02-07 15:30:08-08:00
87.06,1.0,9.0,2026-02-07 23:31:27,37.08157,-121.59954,373.0,0.0,50.4,-12.6,,,,,23:31:26,11.0,-1.2,56.9,0.0,-51.0,-0.0,-0.02,1.0,,-41.0,22.0,0.0,30.25,726.0,,,326.0,,,,,0.0,0.0,,,,,,,,,,,,,,,,,,,74.0,20.0,1013.0,1013.0,14.0,2.3,,2.3,26.4,,,36.4,0.0,0.0,-0.8,1.1,0.4,,,,,33.0,453.0,35.0,497.0,36.0,511.0,39.0,519.0,,,-25.0,0.0,,26.4,-8.0,0.001,,,0.654,0.79,74.0,20.0,,,,,,1013.0,2026-02-07 15:30:08-08:00
88.06,1.0,9.0,2026-02-07 23:31:28,37.08157,-121.59954,374.0,0.0,50.4,-12.6,,,,,23:31:27,10.9,-1.2,57.0,0.0,-51.0,0.0,-0.02,1.0,,-42.0,22.0,0.0,30.25,726.0,,,326.0,,,,,0.0,0.0,,,,,,,,,,,,,,,,,,,74.0,20.0,1026.0,1026.0,13.9,2.3,,2.3,26.4,,,36.4,0.0,0.0,-0.8,1.1,0.4,,,,,33.0,463.0,35.0,501.0,37.0,513.0,40.0,523.0,,,-25.0,0.0,,26.4,-8.0,0.001,,,0.654,0.79,74.3,20.0,,,,,,1026.0,2026-02-07 15:30:08-08:00
89.06,1.0,9.0,2026-02-07 23:31:29,37.08157,-121.59954,375.0,0.0,50.4,-12.6,,,,,23:31:28,10.9,-1.2,57.0,0.0,-51.0,0.0,-0.02,1.0,,-67.0,22.0,0.0,30.25,726.0,,,326.0,,,,,0.0,0.0,,,,,,,,,,,,,,,,,,,74.0,20.0,1029.0,1029.0,13.8,2.3,,2.3,26.4,,,36.4,0.0,0.0,-0.8,1.1,0.4,,,,,34.0,474.0,36.0,505.0,37.0,515.0,40.0,525.0,,,-25.0,0.0,,26.4,-8.0,0.001,,,0.653,0.79,74.4,20.0,,,,,,1029.0,2026-02-07 15:30:08-08:00
90.06,1.0,9.0,2026-02-07 23:31:30,37.08157,-121.59954,376.0,0.0,50.4,-12.6,,,,,23:31:29,10.9,-1.2,56.9,0.0,-51.0,-0.0,-0.02,1.0,,-45.0,22.0,0.0,30.25,726.0,,,326.0,,,,,0.0,0.0,,,,,,,,,,,,,,,,,,,75.0,20.0,1037.0,1037.0,13.6,2.3,,2.3,26.4,,,36.4,0.0,0.0,-0.8,1.1,0.4,,,,,34.0,482.0,37.0,509.0,38.0,517.0,41.0,527.0,,,-25.0,0.0,,26.4,-8.0,0.001,,,0.653,0.79,74.7,20.0,,,,,,1037.0,2026-02-07 15:30:08-08:00
91.06,2.0,9.0,2026-02-07 23:31:31,37.08157,-121.59956,385.0,0.1,50.4,-12.6,,,,,23:31:30,10.9,-1.2,57.0,0.0,-51.0,-0.0,-0.02,1.0,,-20.0,22.0,0.0,30.25,726.0,,,326.0,,,,,0.0,0.0,,,,,,,,,,,,,,,,,,,75.0,20.0,1022.0,1022.0,13.5,2.2,,2.2,26.5,,,36.4,0.0,0.0,-0.8,1.1,0.4,,,,,35.0,490.0,37.0,512.0,39.0,519.0,41.0,529.0,,,-25.0,0.0,,26.5,-8.0,0.001,,,0.653,0.79,74.7,20.0,,,,,,1022.0,2026-02-07 15:30:08-08:00
92.06,2.0,9.0,2026-02-07 23:31:32,37.08157,-121.59956,386.0,0.0,50.4,-12.6,,,,,23:31:31,11.0,-1.2,57.0,0.0,-51.0,-0.0,-0.02,1.0,,-32.0,22.0,0.0,30.25,735.0,,,326.0,,,,,0.0,0.0,,,,,,,,,,,,,,,,,,,75.0,20.0,1074.0,1074.0,13.5,2.2,,2.2,26.7,,,36.4,0.0,0.0,-0.8,1.1,0.4,,,,,35.0,496.0,38.0,514.0,39.0,520.0,42.0,533.0,,,-25.0,0.0,,26.7,-8.0,0.001,,,0.654,0.79,74.7,20.0,,,,,,1074.0,2026-02-07 15:30:08-08:00
93.06,2.0,9.0,2026-02-07 23:31:33,37.08157,-121.59956,387.0,0.0,50.4,-12.6,,,,,23:31:32,10.9,-1.2,56.9,0.0,-52.0,-0.0,-0.02,1.0,,-35.0,22.0,0.0,30.25,733.0,,,326.0,,,,,0.0,0.0,,,,,,,,,,,,,,,,,,,76.0,20.0,1086.0,1086.0,12.9,2.0,,2.0,26.6,,,36.4,0.0,0.0,-0.8,1.1,0.4,,,,,36.0,501.0,38.0,520.0,40.0,526.0,43.0,538.0,,,-25.0,0.0,,26.6,-8.0,0.001,,,0.653,0.79,75.8,20.1,,,,,,1086.0,2026-02-07 15:30:08-08:00
94.06,2.0,9.0,2026-02-07 23:31:34,37.08157,-121.59956,389.0,0.0,50.4,-12.6,,,,,23:31:33,10.9,-1.2,56.8,0.0,-52.0,-0.0,-0.02,1.0,,2.0,22.0,0.0,30.25,733.0,,,326.0,,,,,0.0,0.0,,,,,,,,,,,,,,,,,,,76.0,20.0,1072.0,1072.0,12.8,1.9,,1.9,26.6,,,36.3,0.0,0.0,-0.8,1.1,0.4,,,,,36.0,505.0,39.0,527.0,40.0,536.0,43.0,547.0,,,-25.0,0.0,,26.6,-8.0,0.001,,,0.654,0.79,76.0,20.1,,,,,,1072.0,2026-02-07 15:30:08-08:00
95.06,2.0,9.0,2026-02-07 23:31:35,37.08157,-121.59955,390.0,0.0,50.4,-12.6,,,,,23:31:34,11.0,-1.3,56.9,0.0,-52.0,-0.0,-0.02,1.0,,10.0,22.0,0.0,30.25,733.0,,,326.0,,,,,0.0,0.0,,,,,,,,,,,,,,,,,,,74.0,20.0,778.0,778.0,11.7,1.8,,1.8,26.5,,,36.3,0.0,0.0,-0.8,1.1,0.4,,,,,37.0,504.0,40.0,533.0,41.0,541.0,44.0,551.0,,,-25.0,0.0,,26.5,-8.0,0.001,,,0.654,0.79,74.0,20.1,,,,,,778.0,2026-02-07 15:30:08-08:00
96.06,2.0,9.0,2026-02-07 23:31:36,37.08157,-121.59955,391.0,0.0,50.4,-12.6,,,,,23:31:35,11.0,-1.2,56.9,0.0,-52.0,0.0,-0.02,1.0,,-36.0,22.0,0.0,30.25,733.0,,,326.0,,,,,0.0,0.0,,,,,,,,,,,,,,,,,,,68.0,20.0,749.0,749.0,13.7,1.6,,1.6,26.3,,,36.3,0.0,0.0,-0.8,1.1,0.4,,,,,37.0,493.0,40.0,531.0,41.0,535.0,45.0,548.0,,,-25.0,0.0,,26.3,-8.0,0.001,,,0.654,0.79,68.0,20.1,,,,,,749.0,2026-02-07 15:30:08-08:00
97.06,2.0,9.0,2026-02-07 23:31:37,37.08157,-121.59955,392.0,0.0,50.4,-12.6,,,,,23:31:36,11.0,-1.2,56.9,0.0,-52.0,-0.0,-0.02,1.0,,-22.0,22.0,0.0,30.25,733.0,,,326.0,,,,,0.0,0.0,,,,,,,,,,,,,,,,,,,66.0,20.0,746.0,746.0,13.9,1.5,,1.5,26.3,,,36.3,0.0,0.0,-0.8,1.1,0.4,,,,,38.0,496.0,41.0,530.0,42.0,532.0,45.0,546.0,,,-25.0,0.0,,26.3,-8.0,0.001,,,0.654,0.79,66.2,20.1,,,,,,746.0,2026-02-07 15:30:08-08:00
98.06,2.0,9.0,2026-02-07 23:31:38,37.08157,-121.59955,393.0,0.0,50.4,-12.6,,,,,23:31:37,11.0,-1.2,56.9,0.0,-53.0,-0.0,-0.02,1.0,,-32.0,22.0,0.0,30.25,733.0,,,326.0,,,,,0.0,0.0,,,,,,,,,,,,,,,,,,,65.0,20.0,723.0,723.0,14.1,1.4,,1.4,26.3,,,36.3,0.0,0.0,-0.8,1.1,0.4,,,,,38.0,496.0,41.0,529.0,42.0,530.0,45.0,544.0,,,-25.0,0.0,,26.3,-8.0,0.001,,,0.654,0.79,65.2,20.1,,,,,,723.0,2026-02-07 15:30:08-08:00
99.06,2.0,9.0,2026-02-07 23:31:39,37.08157,-121.59955,392.0,0.0,50.4,-12.6,,,,,23:31:38,11.0,-1.2,56.9,0.0,-53.0,0.0,-0.02,1.0,,6.0,22.0,0.0,30.25,732.0,,,326.0,,,,,0.0,0.0,,,,,,,,,,,,,,,,,,,65.0,20.0,753.0,753.0,14.3,1.3,,1.3,26.3,,,36.3,0.0,0.0,-0.8,1.1,0.4,,,,,39.0,498.0,42.0,527.0,43.0,527.0,46.0,542.0,,,-25.0,0.0,,26.3,-8.0,0.001,,,0.654,0.79,64.9,20.1,,,,,,753.0,2026-02-07 15:30:08-08:00
100.06,2.0,9.0,2026-02-07 23:31:40,37.08157,-121.59955,391.0,0.0,50.4,-12.6,,,,,23:31:39,11.0,-1.2,57.0,0.0,-53.0,0.0,-0.02,1.0,,14.0,22.0,0.0,30.25,732.0,,,326.0,,,,,0.0,0.0,,,,,,,,,,,,,,,,,,,65.0,20.0,741.0,741.0,14.1,1.2,,1.2,26.3,,,36.3,0.0,0.0,-0.8,1.1,0.4,,,,,39.0,499.0,42.0,527.0,43.0,525.0,46.0,540.0,,,-25.0,0.0,,26.3,-8.0,0.001,,,0.654,0.79,65.1,20.1,,,,,,741.0,2026-02-07 15:30:08-08:00
101.06,2.0,9.0,2026-02-07 23:31:41,37.08157,-121.59955,390.0,0.0,50.4,-12.6,,,,,23:31:40,10.9,-1.2,57.0,0.0,-53.0,0.0,-0.02,1.0,,46.0,22.0,0.0,30.25,732.0,,,326.0,,,,,0.0,0.0,,,,,,,,,,,,,,,,,,,65.0,20.0,751.0,751.0,14.1,1.2,,1.2,26.3,,,36.3,0.0,0.0,-0.8,1.1,0.4,,,,,39.0,501.0,43.0,527.0,44.0,524.0,47.0,538.0,,,-25.0,0.0,,26.3,-8.0,0.001,,,0.654,0.79,65.0,20.2,,,,,,751.0,2026-02-07 15:30:08-08:00
102.06,2.0,9.0,2026-02-07 23:31:42,37.08159,-121.59953,380.0,0.0,50.4,-12.6,,,,,23:31:41,11.0,-1.2,56.9,0.0,-53.0,-0.0,-0.02,1.0,,47.0,22.0,0.0,30.25,732.0,,,326.0,,,,,0.0,0.0,,,,,,,,,,,,,,,,,,,65.0,20.0,750.0,750.0,14.1,1.1,,1.1,26.3,,,36.3,0.0,0.0,-0.8,1.1,0.4,,,,,40.0,502.0,43.0,526.0,44.0,524.0,47.0,537.0,,,-25.0,0.0,,26.3,-8.0,0.001,,,0.654,0.791,65.0,20.2,,,,,,750.0,2026-02-07 15:30:08-08:00
103.06,2.0,9.0,2026-02-07 23:31:43,37.08159,-121.59953,378.0,0.0,50.4,-12.6,,,,,23:31:42,11.0,-1.2,57.0,0.0,-53.0,0.0,-0.02,1.0,,64.0,22.0,0.0,30.25,732.0,,,326.0,,,,,0.0,0.0,,,,,,,,,,,,,,,,,,,65.0,20.0,745.0,745.0,14.1,1.1,,1.1,26.3,,,36.3,0.0,0.0,-0.8,1.1,0.4,,,,,40.0,504.0,44.0,525.0,45.0,524.0,48.0,537.0,,,-25.0,0.0,,26.3,-8.0,0.001,,,0.654,0.79,64.9,20.2,,,,,,745.0,2026-02-07 15:30:08-08:00
104.06,2.0,9.0,2026-02-07 23:31:44,37.08158,-121.59953,376.0,0.1,50.4,-12.6,,,,,23:31:43,11.0,-1.3,56.9,0.0,-53.0,0.0,-0.02,1.0,,46.0,22.0,0.0,30.25,732.0,,,326.0,,,,,0.0,0.0,,,,,,,,,,,,,,,,,,,65.0,20.0,739.0,739.0,14.2,1.1,,1.1,26.3,,,36.3,0.0,0.0,-0.8,1.1,0.4,,,,,41.0,505.0,44.0,526.0,45.0,522.0,48.0,536.0,,,-25.0,0.0,,26.3,-8.0,0.0,,,0.654,0.79,64.9,20.2,,,,,,739.0,2026-02-07 15:30:08-08:00
105.06,2.0,8.0,2026-02-07 23:31:45,37.08161,-121.59949,409.0,0.0,50.4,-12.6,,,,,23:31:44,11.0,-1.3,56.9,0.0,-53.0,-0.0,-0.02,1.0,,75.0,22.0,0.0,30.25,732.0,,,326.0,,,,,0.0,0.0,,,,,,,,,,,,,,,,,,,65.0,20.0,742.0,742.0,14.3,1.1,,1.1,26.3,,,36.3,0.0,0.0,-0.8,1.1,0.4,,,,,41.0,506.0,45.0,525.0,46.0,521.0,49.0,535.0,,,-25.0,0.0,,26.3,-8.0,0.0,,,0.654,0.79,65.0,20.2,,,,,,742.0,2026-02-07 15:30:08-08:00
106.06,2.0,8.0,2026-02-07 23:31:46,37.08161,-121.59949,409.0,0.0,50.4,-12.6,,,,,23:31:45,11.0,-1.3,56.9,0.0,-53.0,-0.0,-0.02,1.0,,60.0,22.0,0.0,30.25,732.0,,,326.0,,,,,0.0,0.0,,,,,,,,,,,,,,,,,,,65.0,20.0,743.0,743.0,14.2,1.1,,1.1,26.3,,,36.3,0.0,0.0,-0.8,1.1,0.4,,,,,42.0,506.0,45.0,526.0,46.0,521.0,49.0,534.0,,,-25.0,0.0,,26.3,-8.0,0.0,,,0.654,0.79,64.9,20.2,,,,,,743.0,2026-02-07 15:30:08-08:00
107.06,2.0,8.0,2026-02-07 23:31:47,37.08162,-121.59949,405.0,0.0,50.4,-12.6,,,,,23:31:46,11.0,-1.3,56.9,0.0,-53.0,-0.0,-0.02,0.9,,39.0,22.0,0.0,30.25,732.0,,,326.0,,,,,0.0,0.0,,,,,,,,,,,,,,,,,,,65.0,20.0,747.0,747.0,14.2,1.1,,1.1,26.3,,,36.3,0.0,0.0,-0.8,1.1,0.4,,,,,42.0,508.0,46.0,525.0,47.0,521.0,50.0,535.0,,,-25.0,0.0,,26.3,-8.0,0.0,,,0.654,0.79,64.8,20.2,,,,,,747.0,2026-02-07 15:30:08-08:00
108.06,2.0,8.0,2026-02-07 23:31:48,37.0816,-121.59949,401.0,0.0,50.4,-12.6,,,,,23:31:47,10.9,-1.3,56.9,0.0,-53.0,-0.0,-0.02,1.0,,29.0,22.0,0.0,30.25,732.0,,,326.0,,,,,0.0,0.0,,,,,,,,,,,,,,,,,,,65.0,20.0,746.0,746.0,14.2,1.1,,1.1,26.3,,,36.3,0.0,0.0,-0.8,1.1,0.4,,,,,43.0,510.0,46.0,525.0,47.0,521.0,50.0,535.0,,,-25.0,0.0,,26.3,-8.0,0.0,,,0.654,0.79,64.8,20.3,,,,,,746.0,2026-02-07 15:30:08-08:00
109.06,2.0,8.0,2026-02-07 23:31:49,37.0816,-121.59949,400.0,0.1,50.4,-12.6,,,,,23:31:48,10.9,-1.2,56.9,0.0,-53.0,-0.0,-0.02,1.0,,-4.0,22.0,0.0,30.25,732.0,,,326.0,,,,,0.0,0.0,,,,,,,,,,,,,,,,,,,65.0,20.0,755.0,755.0,14.2,1.1,,1.1,26.3,,,36.3,0.0,0.0,-0.8,1.1,0.4,,,,,43.0,511.0,47.0,526.0,48.0,521.0,51.0,533.0,,,-25.0,0.0,,26.3,-8.0,0.001,,,0.654,0.79,65.0,20.3,,,,,,755.0,2026-02-07 15:30:08-08:00
110.06,2.0,8.0,2026-02-07 23:31:50,37.0816,-121.5995,397.0,0.1,50.4,-12.6,,,,,23:31:49,10.9,-1.2,56.9,0.0,-53.0,-0.0,-0.02,1.0,,-18.0,22.0,0.0,30.25,732.0,,,326.0,,,,,0.0,0.0,,,,,,,,,,,,,,,,,,,64.0,20.0,728.0,728.0,14.1,1.1,,1.1,26.2,,,36.3,0.0,0.0,-0.8,1.1,0.4,,,,,43.0,512.0,47.0,525.0,48.0,520.0,51.0,533.0,,,-25.0,0.0,,26.2,-8.0,0.0,,,0.654,0.79,64.4,20.3,,,,,,728.0,2026-02-07 15:30:08-08:00
111.06,2.0,8.0,2026-02-07 23:31:51,37.0816,-121.5995,395.0,0.1,50.4,-12.6,,,,,23:31:50,10.9,-1.2,56.9,0.0,-53.0,-0.0,-0.02,1.0,,-37.0,22.0,0.0,30.25,732.0,,,326.0,,,,,0.0,0.0,,,,,,,,,,,,,,,,,,,64.0,20.0,699.0,699.0,14.2,1.1,,1.1,26.2,,,36.3,0.0,0.0,-0.8,1.1,0.4,,,,,44.0,512.0,48.0,524.0,49.0,520.0,52.0,532.0,,,-25.0,0.0,,26.2,-8.0,0.001,,,0.654,0.79,64.0,20.3,,,,,,699.0,2026-02-07 15:30:08-08:00
112.06,2.0,8.0,2026-02-07 23:31:52,37.0816,-121.59949,398.0,0.0,50.4,-12.6,,,,,23:31:51,10.9,-1.3,56.9,0.0,-53.0,-0.0,-0.02,1.0,,-43.0,22.0,0.0,30.25,732.0,,,326.0,,,,,0.0,0.0,,,,,,,,,,,,,,,,,,,63.0,20.0,687.0,687.0,14.8,1.1,,1.1,26.2,,,36.3,0.0,0.0,-0.8,1.1,0.4,,,,,44.0,511.0,48.0,523.0,49.0,520.0,52.0,532.0,,,-25.0,0.0,,26.2,-8.0,0.001,,,0.654,0.79,63.3,20.3,,,,,,687.0,2026-02-07 15:30:08-08:00
113.06,2.0,8.0,2026-02-07 23:31:53,37.0816,-121.59949,396.0,0.1,50.4,-12.6,,,,,23:31:52,10.9,-1.3,56.9,0.0,-53.0,-0.0,-0.02,1.0,,-27.0,22.0,0.0,30.25,732.0,,,326.0,,,,,0.0,0.0,,,,,,,,,,,,,,,,,,,63.0,20.0,709.0,709.0,14.9,1.1,,1.1,26.3,,,36.3,0.0,0.0,-0.8,1.1,0.4,,,,,45.0,510.0,49.0,522.0,50.0,520.0,53.0,531.0,,,-25.0,0.0,,26.3,-8.0,0.0,,,0.654,0.79,63.3,20.3,,,,,,709.0,2026-02-07 15:30:08-08:00
114.06,2.0,8.0,2026-02-07 23:31:54,37.0816,-121.59949,395.0,0.1,50.4,-12.6,,,,,23:31:53,11.0,-1.3,56.9,0.0,-53.0,0.0,-0.02,1.0,,8.0,22.0,0.0,30.25,733.0,,,326.0,,,,,0.0,0.0,,,,,,,,,,,,,,,,,,,64.0,20.0,728.0,728.0,14.7,1.1,,1.1,26.3,,,36.3,0.0,0.0,-0.8,1.1,0.4,,,,,45.0,510.0,49.0,522.0,50.0,519.0,53.0,533.0,,,-25.0,0.0,,26.3,-8.0,0.0,,,0.654,0.79,63.5,20.3,,,,,,728.0,2026-02-07 15:30:08-08:00
115.06,2.0,8.0,2026-02-07 23:31:55,37.0816,-121.5995,393.0,0.1,50.4,-12.6,,,,,23:31:54,11.0,-1.4,56.8,0.0,-53.0,-0.0,-0.02,1.0,,12.0,22.0,0.0,30.25,733.0,,,326.0,,,,,0.0,0.0,,,,,,,,,,,,,,,,,,,64.0,20.0,718.0,718.0,14.6,1.1,,1.1,26.3,,,36.3,0.0,0.0,-0.8,1.1,0.4,,,,,46.0,510.0,50.0,522.0,51.0,518.0,53.0,532.0,,,-25.0,0.0,,26.3,-8.0,0.001,,,0.654,0.79,63.7,20.3,,,,,,718.0,2026-02-07 15:30:08-08:00
116.06,2.0,8.0,2026-02-07 23:31:56,37.0816,-121.5995,393.0,0.0,50.4,-12.6,,,,,23:31:55,10.9,-1.3,56.8,0.0,-53.0,-0.0,-0.02,1.0,,25.0,22.0,0.0,30.25,733.0,,,326.0,,,,,0.0,0.0,,,,,,,,,,,,,,,,,,,64.0,20.0,723.0,723.0,14.5,1.1,,1.1,26.3,,,36.3,0.0,0.0,-0.8,1.1,0.4,,,,,46.0,509.0,50.0,523.0,51.0,518.0,54.0,531.0,,,-25.0,0.0,,26.3,-8.0,0.0,,,0.654,0.79,63.6,20.4,,,,,,723.0,2026-02-07 15:30:08-08:00
117.06,2.0,9.0,2026-02-07 23:31:57,37.08154,-121.59953,368.0,0.1,50.4,-12.6,,,,,23:31:56,10.9,-1.3,56.9,0.0,-53.0,0.0,-0.02,1.0,,23.0,22.0,0.0,30.25,733.0,,,326.0,,,,,0.0,0.0,,,,,,,,,,,,,,,,,,,63.0,20.0,720.0,720.0,14.4,1.1,,1.1,26.3,,,36.3,0.0,0.0,-0.8,1.1,0.4,,,,,46.0,510.0,51.0,524.0,52.0,519.0,54.0,529.0,,,-25.0,0.0,,26.3,-8.0,0.0,,,0.654,0.79,63.4,20.4,,,,,,720.0,2026-02-07 15:30:08-08:00
118.06,2.0,9.0,2026-02-07 23:31:58,37.08155,-121.59953,365.0,0.0,50.4,-12.6,,,,,23:31:57,11.0,-1.3,56.8,0.0,-53.0,-0.0,-0.02,1.0,,53.0,22.0,0.0,30.25,733.0,,,326.0,,,,,0.0,0.0,,,,,,,,,,,,,,,,,,,64.0,20.0,731.0,731.0,14.4,1.1,,1.1,26.3,,,36.3,0.0,0.0,-0.8,1.1,0.4,,,,,47.0,510.0,51.0,524.0,52.0,519.0,55.0,528.0,,,-25.0,0.0,,26.3,-8.0,0.0,,,0.654,0.79,63.8,20.4,,,,,,731.0,2026-02-07 15:30:08-08:00
119.06,2.0,9.0,2026-02-07 23:31:59,37.08155,-121.59953,364.0,0.1,50.4,-12.6,,,,,23:31:58,11.0,-1.3,56.8,0.0,-53.0,-0.0,-0.02,1.0,,57.0,22.0,0.0,30.25,733.0,,,326.0,,,,,0.0,0.0,,,,,,,,,,,,,,,,,,,64.0,20.0,726.0,726.0,14.4,1.1,,1.1,26.3,,,36.3,0.0,0.0,-0.8,1.1,0.4,,,,,47.0,510.0,52.0,524.0,53.0,520.0,55.0,527.0,,,-25.0,0.0,,26.3,-8.0,0.0,,,0.654,0.79,63.8,20.4,,,,,,726.0,2026-02-07 15:30:08-08:00
120.06,2.0,9.0,2026-02-07 23:32:00,37.08155,-121.59953,364.0,0.1,50.4,-12.6,,,,,23:31:59,11.0,-1.3,56.8,0.0,-53.0,-0.0,-0.02,1.0,,42.0,22.0,0.0,30.25,742.0,,,326.0,,,,,0.0,0.0,,,,,,,,,,,,,,,,,,,64.0,20.0,738.0,738.0,14.2,1.1,,1.1,26.3,,,36.3,0.0,0.0,-0.8,1.1,0.4,,,,,48.0,510.0,52.0,524.0,53.0,521.0,56.0,526.0,,,-25.0,0.0,,26.3,-8.0,0.0,,,0.654,0.79,63.9,20.4,,,,,,738.0,2026-02-07 15:30:08-08:00
121.06,2.0,9.0,2026-02-07 23:32:01,37.08155,-121.59953,364.0,0.0,50.4,-12.6,,,,,23:32:00,11.0,-1.4,56.8,0.0,-52.0,0.0,-0.02,1.0,,54.0,22.0,0.0,30.25,742.0,,,326.0,,,,,0.0,0.0,,,,,,,,,,,,,,,,,,,64.0,20.0,737.0,737.0,14.2,1.1,,1.1,26.2,,,36.3,0.0,0.0,-0.8,1.1,0.4,,,,,48.0,512.0,53.0,525.0,54.0,521.0,56.0,526.0,,,-25.0,0.0,,26.2,-8.0,0.0,,,0.654,0.79,63.9,20.4,,,,,,737.0,2026-02-07 15:30:08-08:00
122.06,2.0,8.0,2026-02-07 23:32:02,37.08161,-121.59961,314.0,0.1,50.4,-12.6,,,,,23:32:01,11.0,-1.3,56.8,0.0,-52.0,-0.0,-0.02,1.0,,25.0,22.0,0.0,30.25,742.0,,,326.0,,,,,0.0,0.0,,,,,,,,,,,,,,,,,,,64.0,20.0,731.0,731.0,14.1,1.1,,1.1,26.2,,,36.3,0.0,0.0,-0.8,1.1,0.4,,,,,48.0,513.0,53.0,526.0,54.0,520.0,57.0,526.0,,,-25.0,0.0,,26.2,-8.0,0.0,,,0.654,0.79,64.2,20.5,,,,,,731.0,2026-02-07 15:30:08-08:00
123.06,2.0,8.0,2026-02-07 23:32:03,37.08162,-121.59961,313.0,0.0,50.4,-12.6,,,,,23:32:02,11.0,-1.2,56.8,0.0,-50.0,0.0,-0.02,1.0,,73.0,22.0,0.0,30.25,746.0,,,326.0,,,,,0.0,0.0,,,,,,,,,,,,,,,,,,,64.0,20.0,729.0,729.0,14.2,1.1,,1.1,26.2,,,36.3,0.0,0.0,-0.8,1.1,0.4,,,,,49.0,514.0,54.0,526.0,55.0,520.0,57.0,529.0,,,-25.0,0.0,,26.2,-8.0,0.0,,,0.654,0.79,63.9,20.5,,,,,,729.0,2026-02-07 15:30:08-08:00
124.06,2.0,8.0,2026-02-07 23:32:04,37.08162,-121.59961,312.0,0.0,50.4,-12.6,,,,,23:32:03,11.0,-1.3,56.9,0.0,-49.0,0.0,-0.02,1.0,,84.0,22.0,0.0,30.25,746.0,,,326.0,,,,,0.0,0.0,,,,,,,,,,,,,,,,,,,64.0,20.0,717.0,717.0,14.3,1.2,,1.2,26.2,,,36.3,0.0,0.0,-0.8,1.1,0.4,,,,,49.0,515.0,54.0,527.0,55.0,521.0,58.0,529.0,,,-25.0,0.0,,26.2,-8.0,0.0,,,0.654,0.79,63.8,20.5,,,,,,717.0,2026-02-07 15:30:08-08:00
125.06,2.0,8.0,2026-02-07 23:32:05,37.08162,-121.59961,312.0,0.0,50.4,-12.6,,,,,23:32:04,11.0,-1.3,56.8,0.0,-48.0,0.0,-0.02,1.0,,68.0,22.0,0.0,30.25,746.0,,,326.0,,,,,0.0,0.0,,,,,,,,,,,,,,,,,,,64.0,21.0,723.0,723.0,14.4,1.2,,1.2,26.2,,,36.3,0.0,0.0,-0.8,1.1,0.4,,,,,50.0,516.0,55.0,528.0,55.0,525.0,58.0,529.0,,,-25.0,0.0,,26.2,-8.0,0.0,,,0.654,0.79,63.6,20.5,,,,,,723.0,2026-02-07 15:30:08-08:00
126.06,2.0,8.0,2026-02-07 23:32:06,37.08162,-121.59961,313.0,0.0,50.4,-12.6,,,,,23:32:05,11.0,-1.3,56.8,0.0,-47.0,0.0,-0.02,1.0,,72.0,22.0,0.0,30.25,750.0,,,326.0,,,,,0.0,0.0,,,,,,,,,,,,,,,,,,,64.0,21.0,707.0,707.0,14.4,1.2,,1.2,26.1,,,36.3,0.0,0.0,-0.8,1.1,0.4,,,,,50.0,516.0,55.0,528.0,56.0,524.0,59.0,529.0,,,-25.0,0.0,,26.1,-8.0,0.0,,,0.654,0.79,63.7,20.5,,,,,,707.0,2026-02-07 15:30:08-08:00
127.06,2.0,9.0,2026-02-07 23:32:07,37.08155,-121.59954,360.0,0.1,50.4,-12.6,,,,,23:32:06,11.0,-1.3,56.7,0.0,-47.0,-0.0,-0.02,1.0,,18.0,22.0,0.0,30.25,750.0,,,326.0,,,,,0.0,0.0,,,,,,,,,,,,,,,,,,,64.0,21.0,723.0,723.0,14.5,1.2,,1.2,26.2,,,36.3,0.0,0.0,-0.8,1.1,0.4,,,,,51.0,517.0,56.0,529.0,56.0,523.0,59.0,528.0,,,-25.0,0.0,,26.2,-8.0,0.0,,,0.654,0.79,63.6,20.5,,,,,,723.0,2026-02-07 15:30:08-08:00
128.06,2.0,9.0,2026-02-07 23:32:08,37.08155,-121.59954,362.0,0.0,50.4,-12.6,,,,,23:32:07,11.0,-1.3,56.7,0.0,-47.0,-0.0,-0.02,1.0,,-13.0,22.0,0.0,30.25,750.0,,,326.0,,,,,0.0,0.0,,,,,,,,,,,,,,,,,,,64.0,21.0,725.0,725.0,14.4,1.2,,1.2,26.2,,,36.3,0.0,0.0,-0.8,1.1,0.4,,,,,51.0,517.0,56.0,529.0,57.0,523.0,60.0,530.0,,,-25.0,0.0,,26.2,-8.0,0.0,,,0.654,0.79,63.7,20.5,,,,,,725.0,2026-02-07 15:30:08-08:00
129.06,2.0,9.0,2026-02-07 23:32:09,37.08155,-121.59953,364.0,0.1,50.4,-12.6,,,,,23:32:08,11.0,-1.3,56.7,0.0,-47.0,-0.0,-0.02,1.0,,-2.0,22.0,0.0,30.25,751.0,,,326.0,,,,,0.0,0.0,,,,,,,,,,,,,,,,,,,64.0,21.0,734.0,734.0,14.4,1.2,,1.2,26.2,,,36.3,0.0,0.0,-0.8,1.1,0.4,,,,,51.0,517.0,57.0,530.0,57.0,523.0,60.0,530.0,,,-25.0,0.0,,26.2,-8.0,0.0,,,0.654,0.79,63.6,20.6,,,,,,734.0,2026-02-07 15:30:08-08:00
130.06,2.0,9.0,2026-02-07 23:32:10,37.08156,-121.59954,365.0,0.0,50.4,-12.6,,,,,23:32:09,11.0,-1.3,56.7,0.0,-47.0,0.0,-0.02,1.0,,23.0,22.0,0.0,30.25,751.0,,,326.0,,,,,0.0,0.0,,,,,,,,,,,,,,,,,,,64.0,21.0,732.0,732.0,14.2,1.2,,1.2,26.2,,,36.3,0.0,0.0,-0.8,1.1,0.4,,,,,52.0,519.0,57.0,530.0,58.0,521.0,61.0,530.0,,,-25.0,0.0,,26.2,-8.0,0.0,,,0.654,0.79,63.8,20.6,,,,,,732.0,2026-02-07 15:30:08-08:00
131.06,2.0,9.0,2026-02-07 23:32:11,37.08156,-121.59954,367.0,0.0,50.4,-12.6,,,,,23:32:10,11.0,-1.3,56.7,0.0,-47.0,-0.0,-0.02,1.0,,22.0,22.0,0.0,30.25,751.0,,,326.0,,,,,0.0,0.0,,,,,,,,,,,,,,,,,,,64.0,21.0,727.0,727.0,14.2,1.2,,1.2,26.2,,,36.3,0.0,0.0,-0.8,1.1,0.4,,,,,52.0,520.0,58.0,529.0,58.0,521.0,61.0,530.0,,,-25.0,0.0,,26.2,-8.0,0.001,,,0.654,0.79,63.8,20.6,,,,,,727.0,2026-02-07 15:30:08-08:00
132.06,2.0,9.0,2026-02-07 23:32:12,37.08157,-121.59954,366.0,0.0,50.4,-12.6,,,,,23:32:11,11.0,-1.3,56.7,0.0,-47.0,-0.0,-0.02,1.0,,16.0,22.0,0.0,30.25,751.0,,,326.0,,,,,0.0,0.0,,,,,,,,,,,,,,,,,,,64.0,21.0,730.0,730.0,14.3,1.2,,1.2,26.2,,,36.3,0.0,0.0,-0.8,1.1,0.4,,,,,53.0,521.0,58.0,530.0,58.0,524.0,62.0,529.0,,,-25.0,0.0,,26.2,-8.0,0.0,,,0.654,0.79,63.8,20.6,,,,,,730.0,2026-02-07 15:30:08-08:00
133.06,2.0,9.0,2026-02-07 23:32:13,37.08157,-121.59955,366.0,0.0,50.4,-12.6,,,,,23:32:12,10.9,-1.3,56.7,0.0,-47.0,-0.0,-0.02,1.0,,-2.0,22.0,0.0,30.25,751.0,,,326.0,,,,,0.0,0.0,,,,,,,,,,,,,,,,,,,64.0,21.0,729.0,729.0,14.3,1.2,,1.2,26.2,,,36.3,0.0,0.0,-0.8,1.1,0.4,,,,,53.0,522.0,58.0,530.0,59.0,523.0,62.0,529.0,,,-25.0,0.0,,26.2,-8.0,0.001,,,0.654,0.79,63.8,20.6,,,,,,729.0,2026-02-07 15:30:08-08:00
134.06,2.0,9.0,2026-02-07 23:32:14,37.08157,-121.59955,367.0,0.0,50.4,-12.6,,,,,23:32:13,11.0,-1.3,56.7,0.0,-47.0,-0.0,-0.02,1.0,,6.0,22.0,0.0,30.25,751.0,,,326.0,,,,,0.0,0.0,,,,,,,,,,,,,,,,,,,64.0,21.0,738.0,738.0,14.3,1.2,,1.2,26.2,,,36.3,0.0,0.0,-0.8,1.1,0.4,,,,,54.0,522.0,59.0,530.0,59.0,522.0,62.0,529.0,,,-25.0,0.0,,26.2,-8.0,0.001,,,0.654,0.79,64.0,20.7,,,,,,738.0,2026-02-07 15:30:08-08:00
135.06,2.0,9.0,2026-02-07 23:32:15,37.08158,-121.59956,357.0,0.1,50.4,-12.6,,,,,23:32:14,11.0,-1.3,56.7,0.0,-47.0,-0.0,-0.02,1.0,,13.0,22.0,0.0,30.25,751.0,,,326.0,,,,,0.0,0.0,,,,,,,,,,,,,,,,,,,64.0,21.0,756.0,756.0,14.2,1.2,,1.2,26.2,,,36.3,0.0,0.0,-0.8,1.1,0.4,,,,,54.0,522.0,59.0,531.0,60.0,521.0,63.0,529.0,,,-25.0,0.0,,26.2,-8.0,0.001,,,0.654,0.79,64.1,20.7,,,,,,756.0,2026-02-07 15:30:08-08:00
136.06,2.0,9.0,2026-02-07 23:32:16,37.08158,-121.59956,357.0,0.0,50.4,-12.6,,,,,23:32:15,11.0,-1.3,56.7,0.0,-47.0,-0.0,-0.02,1.0,,-4.0,22.0,0.0,30.25,751.0,,,326.0,,,,,0.0,0.0,,,,,,,,,,,,,,,,,,,64.0,21.0,736.0,736.0,14.1,1.2,,1.2,26.1,,,36.3,0.0,0.0,-0.8,1.1,0.4,,,,,55.0,522.0,60.0,531.0,60.0,520.0,63.0,531.0,,,-25.0,0.0,,26.1,-8.0,0.001,,,0.654,0.79,63.9,20.7,,,,,,736.0,2026-02-07 15:30:08-08:00
137.06,2.0,9.0,2026-02-07 23:32:17,37.08158,-121.59956,357.0,0.0,50.4,-12.6,,,,,23:32:16,10.9,-1.3,56.7,0.0,-47.0,-0.0,-0.02,1.0,,28.0,22.0,0.0,30.25,751.0,,,326.0,,,,,0.0,0.0,,,,,,,,,,,,,,,,,,,64.0,21.0,742.0,742.0,14.2,1.2,,1.2,26.2,,,36.3,0.0,0.0,-0.8,1.1,0.4,,,,,55.0,522.0,60.0,531.0,61.0,521.0,64.0,535.0,,,-25.0,0.0,,26.2,-8.0,0.0,,,0.654,0.79,64.1,20.7,,,,,,742.0,2026-02-07 15:30:08-08:00
138.06,2.0,9.0,2026-02-07 23:32:18,37.08159,-121.59956,358.0,0.1,50.4,-12.6,,,,,23:32:17,10.9,-1.3,56.8,0.0,-47.0,-0.0,-0.02,1.0,,1.0,22.0,0.0,30.25,751.0,,,326.0,,,,,0.0,0.0,,,,,,,,,,,,,,,,,,,64.0,21.0,759.0,759.0,14.0,1.2,,1.2,26.2,,,36.3,0.0,0.0,-0.8,1.1,0.4,,,,,55.0,523.0,61.0,532.0,61.0,522.0,64.0,534.0,,,-25.0,0.0,,26.2,-8.0,0.0,,,0.654,0.79,64.2,20.7,,,,,,759.0,2026-02-07 15:30:08-08:00
139.06,2.0,9.0,2026-02-07 23:32:19,37.08168,-121.59951,359.0,0.0,50.4,-12.6,,,,,23:32:18,10.9,-1.2,56.8,0.0,-47.0,0.0,-0.02,1.0,,38.0,22.0,0.0,30.25,751.0,,,326.0,,,,,0.0,0.0,,,,,,,,,,,,,,,,,,,64.0,21.0,749.0,749.0,13.9,1.2,,1.2,26.2,,,36.3,0.0,0.0,-0.8,1.1,0.4,,,,,56.0,523.0,61.0,532.0,62.0,525.0,64.0,534.0,,,-25.0,0.0,,26.2,-8.0,0.001,,,0.654,0.79,64.2,20.7,,,,,,749.0,2026-02-07 15:30:08-08:00
140.06,2.0,9.0,2026-02-07 23:32:20,37.08168,-121.59952,406.0,0.1,50.4,-12.6,,,,,23:32:19,10.9,-1.2,56.8,0.0,-47.0,-0.0,-0.02,1.0,,15.0,22.0,0.0,30.25,751.0,,,326.0,,,,,0.0,0.0,,,,,,,,,,,,,,,,,,,66.0,21.0,860.0,860.0,13.8,1.2,,1.2,26.3,,,36.3,0.0,0.0,-0.8,1.1,0.4,,,,,56.0,524.0,62.0,534.0,62.0,530.0,65.0,535.0,,,-25.0,0.0,,26.3,-8.0,0.001,,,0.654,0.79,65.5,20.8,,,,,,860.0,2026-02-07 15:30:08-08:00
141.06,2.0,9.0,2026-02-07 23:32:21,37.08168,-121.59952,408.0,0.0,50.4,-12.6,,,,,23:32:20,10.9,-1.2,56.8,0.0,-47.0,-0.0,-0.02,1.0,,24.0,22.0,0.0,30.25,751.0,,,326.0,,,,,0.0,0.0,,,,,,,,,,,,,,,,,,,67.0,21.0,847.0,847.0,13.2,1.2,,1.2,26.3,,,36.3,0.0,0.0,-0.8,1.1,0.4,,,,,57.0,525.0,62.0,537.0,62.0,531.0,65.0,536.0,,,-25.0,0.0,,26.3,-8.0,0.001,,,0.654,0.79,66.9,20.8,,,,,,847.0,2026-02-07 15:30:08-08:00
142.06,2.0,9.0,2026-02-07 23:32:22,37.08168,-121.59951,410.0,0.0,50.4,-12.6,,,,,23:32:21,10.9,-1.2,56.9,0.0,-47.0,0.0,-0.02,1.0,,1.0,22.0,0.0,30.25,751.0,,,326.0,,,,,0.0,0.0,,,,,,,,,,,,,,,,,,,67.0,21.0,806.0,806.0,13.1,1.3,,1.3,26.2,,,36.3,0.0,0.0,-0.8,1.1,0.4,,,,,57.0,526.0,63.0,540.0,63.0,531.0,66.0,537.0,,,-25.0,0.0,,26.2,-8.0,0.0,,,0.654,0.79,67.0,20.8,,,,,,806.0,2026-02-07 15:30:08-08:00
143.06,2.0,9.0,2026-02-07 23:32:23,37.08168,-121.59951,411.0,0.0,50.4,-12.6,,,,,23:32:22,10.9,-1.2,56.9,0.0,-47.0,0.0,-0.02,1.0,,-65.0,22.0,0.0,30.25,751.0,,,326.0,,,,,0.0,0.0,,,,,,,,,,,,,,,,,,,66.0,21.0,808.0,808.0,14.2,1.3,,1.3,26.1,,,36.3,0.0,0.0,-0.8,1.1,0.4,,,,,58.0,528.0,63.0,540.0,63.0,532.0,66.0,538.0,,,-25.0,0.0,,26.1,-8.0,0.001,,,0.654,0.791,65.7,20.8,,,,,,808.0,2026-02-07 15:30:08-08:00
144.06,2.0,9.0,2026-02-07 23:32:24,37.08168,-121.59952,412.0,0.0,50.4,-12.6,,,,,23:32:23,11.0,-1.2,56.9,0.0,-47.0,0.0,-0.02,1.0,,-72.0,22.0,0.0,30.25,752.0,,,326.0,,,,,0.0,0.0,,,,,,,,,,,,,,,,,,,66.0,21.0,844.0,844.0,13.8,1.4,,1.4,26.2,,,36.3,0.0,0.0,-0.8,1.1,0.4,,,,,58.0,530.0,64.0,538.0,64.0,532.0,67.0,537.0,,,-25.0,0.0,,26.2,-8.0,0.0,,,0.654,0.791,66.4,20.8,,,,,,844.0,2026-02-07 15:30:08-08:00
145.06,2.0,9.0,2026-02-07 23:32:25,37.08168,-121.59952,412.0,0.0,50.4,-12.6,,,,,23:32:24,11.0,-1.2,56.8,0.0,-47.0,-0.0,-0.02,1.0,,-45.0,22.0,0.0,30.25,752.0,,,326.0,,,,,0.0,0.0,,,,,,,,,,,,,,,,,,,67.0,21.0,840.0,840.0,13.7,1.4,,1.4,26.2,,,36.3,0.0,0.0,-0.8,1.1,0.4,,,,,59.0,532.0,64.0,538.0,64.0,533.0,67.0,538.0,,,-25.0,0.0,,26.2,-8.0,0.001,,,0.654,0.79,66.5,20.8,,,,,,840.0,2026-02-07 15:30:08-08:00
146.06,2.0,9.0,2026-02-07 23:32:26,37.08168,-121.59952,413.0,0.0,50.4,-12.6,,,,,23:32:25,11.0,-1.2,56.8,0.0,-47.0,-0.0,-0.02,1.0,,-34.0,22.0,0.0,30.25,752.0,,,326.0,,,,,0.0,0.0,,,,,,,,,,,,,,,,,,,67.0,21.0,940.0,940.0,14.1,1.5,,1.5,26.0,,,36.3,0.0,0.0,-0.8,1.1,0.4,,,,,59.0,533.0,65.0,537.0,65.0,532.0,68.0,538.0,,,-25.0,0.0,,26.0,-8.0,0.0,,,0.654,0.79,67.1,20.9,,,,,,940.0,2026-02-07 15:30:08-08:00
147.06,2.0,9.0,2026-02-07 23:32:27,37.08168,-121.59952,412.0,0.0,50.4,-12.6,,,,,23:32:26,11.0,-1.3,56.8,0.0,-47.0,0.0,-0.02,1.0,,-9.0,22.0,0.0,30.25,761.0,,,326.0,,,,,0.0,0.0,,,,,,,,,,,,,,,,,,,72.0,21.0,1096.0,1096.0,14.0,1.7,,1.7,26.1,,,36.3,0.0,0.0,-0.8,1.1,0.4,,,,,60.0,535.0,65.0,541.0,65.0,534.0,68.0,541.0,,,-25.0,0.0,,26.1,-8.0,0.001,,,0.654,0.79,72.4,20.9,,,,,,1096.0,2026-02-07 15:30:08-08:00
148.06,2.0,9.0,2026-02-07 23:32:28,37.08168,-121.59952,411.0,0.0,50.4,-12.6,,,,,23:32:27,11.0,-1.2,56.8,0.0,-47.0,0.0,-0.02,1.0,,-48.0,22.0,0.0,30.25,761.0,,,326.0,,,,,0.0,0.0,,,,,,,,,,,,,,,,,,,74.0,21.0,1029.0,1029.0,13.7,1.9,,1.9,26.0,,,36.3,0.0,0.0,-0.8,1.1,0.4,,,,,60.0,539.0,66.0,538.0,66.0,538.0,69.0,544.0,,,-25.0,0.0,,26.0,-8.0,0.001,,,0.654,0.79,74.1,20.9,,,,,,1029.0,2026-02-07 15:30:08-08:00
149.06,2.0,9.0,2026-02-07 23:32:29,37.08168,-121.59952,410.0,0.0,50.4,-12.6,,,,,23:32:28,11.0,-1.3,56.8,0.0,-47.0,0.0,-0.02,1.0,,-33.0,22.0,0.0,30.25,761.0,,,326.0,,,,,0.0,0.0,,,,,,,,,,,,,,,,,,,74.0,21.0,1096.0,1096.0,14.0,2.1,,2.1,26.1,,,36.3,0.0,0.0,-0.8,1.1,0.4,,,,,61.0,542.0,66.0,526.0,66.0,539.0,69.0,548.0,,,-25.0,0.0,,26.1,-8.0,0.001,,,0.654,0.79,74.4,20.9,,,,,,1096.0,2026-02-07 15:30:08-08:00
150.06,2.0,9.0,2026-02-07 23:32:30,37.08168,-121.59952,411.0,0.1,50.4,-12.6,,,,,23:32:29,11.0,-1.3,56.7,0.0,-47.0,-0.0,-0.02,0.9,,-32.0,22.0,0.0,30.25,761.0,,,326.0,,,,,0.0,0.0,,,,,,,,,,,,,,,,,,,76.0,21.0,1133.0,1133.0,13.3,2.2,,2.2,26.2,,,36.3,0.0,0.0,-0.8,1.1,0.4,,,,,61.0,545.0,67.0,531.0,67.0,542.0,70.0,552.0,,,-25.0,0.0,,26.2,-8.0,0.0,,,0.654,0.791,75.7,21.0,,,,,,1133.0,2026-02-07 15:30:08-08:00
151.06,2.0,9.0,2026-02-07 23:32:31,37.08168,-121.59952,410.0,0.0,50.4,-12.6,,,,,23:32:30,10.9,-1.3,56.7,0.0,-47.0,-0.0,-0.02,1.0,,-27.0,22.0,0.0,30.25,761.0,,,326.0,,,,,0.0,0.0,,,,,,,,,,,,,,,,,,,76.0,21.0,1132.0,1132.0,13.2,2.3,,2.3,26.2,,,36.3,0.0,0.0,-0.8,1.1,0.4,,,,,62.0,548.0,68.0,535.0,67.0,546.0,70.0,556.0,,,-25.0,0.0,,26.2,-8.0,0.001,,,0.654,0.791,76.2,21.0,,,,,,1132.0,2026-02-07 15:30:08-08:00
152.06,2.0,9.0,2026-02-07 23:32:32,37.08168,-121.59952,410.0,0.0,50.4,-12.6,,,,,23:32:31,10.9,-1.2,56.7,0.0,-47.0,-0.0,-0.02,1.0,,-27.0,22.0,0.0,30.25,761.0,,,326.0,,,,,0.0,0.0,,,,,,,,,,,,,,,,,,,76.0,21.0,1107.0,1107.0,13.0,2.4,,2.4,26.2,,,36.3,0.0,0.0,-0.8,1.1,0.4,,,,,62.0,552.0,68.0,539.0,68.0,548.0,71.0,559.0,,,-25.0,0.0,,26.2,-8.0,0.001,,,0.654,0.791,76.3,21.0,,,,,,1107.0,2026-02-07 15:30:08-08:00
153.06,2.0,9.0,2026-02-07 23:32:33,37.08167,-121.59952,412.0,0.0,50.4,-12.6,,,,,23:32:32,11.0,-1.2,56.7,0.0,-47.0,0.0,-0.02,1.0,,-33.0,22.0,0.0,30.25,761.0,,,326.0,,,,,0.0,0.0,,,,,,,,,,,,,,,,,,,76.0,21.0,1095.0,1095.0,13.1,2.4,,2.4,26.2,,,36.3,0.0,0.0,-0.8,1.1,0.4,,,,,63.0,553.0,69.0,542.0,68.0,549.0,71.0,561.0,,,-25.0,0.0,,26.2,-8.0,0.001,,,0.654,0.791,75.6,21.0,,,,,,1095.0,2026-02-07 15:30:08-08:00
