Session Time,GPS Fix Quality,Number of Satellites,GPS Date & Time,Latitude (deg),Longitude (deg),GPS Altitude (feet),Ground Speed (knots),Ground Track (deg),Mag Var (deg),Cross Track Error (NM),Destination Waypoint ID,Range to Destination (NM),Bearing to Destination (deg),System Time,Pitch (deg),Roll (deg),Magnetic Heading (deg),Indicated Airspeed (knots),Pressure Altitude (ft),Turn Rate (deg/s),Lateral Accel (g),Vertical Accel(g),Angle of Attack (%),Vertical Speed (ft/min),OAT (deg C),True Airspeed (knots),Barometer Setting (inHg),Density Altitude (ft),Wind Direction (deg),Wind Speed (knots),Heading Bug (deg),Altitude Bug (ft),Airspeed Bug (knots),Vertical Speed Bug (ft/min),Course (deg),CDI Source Type,CDI Source Port,CDI Scale (NM),CDI Deflection (%),Glideslope (%),AP Engaged,AP Roll Mode,AP Roll Force,AP Roll Position (steps),AP Roll Slip (bool),AP Pitch Force,AP Pitch Position (steps),AP Pitch Slip (bool),AP Yaw Force,AP Yaw Position,AP Yaw Slip (bool),Transponder Status,Transponder Reply (bool),Transponder Identing (bool),Transponder Code (octal),Oil Pressure (PSI),Oil Temp (deg C),RPM L,RPM R,Manifold Pressure (inHg),Fuel Flow 1 (gal/hr),Fuel Flow 2 (gal/hr),Total Fuel Flow (gal/hr),Fuel Pressure (PSI),Fuel Level L (gal),Fuel Level R (gal),Fuel Remaining (gal),Volts 1,Volts 2,Amps,Hobbs Time,Tach Time,Thermocouple 1 (deg C),Thermocouple 2 (deg C),Thermocouple 3 (deg C),Thermocouple 4 (deg C),CHT 4 (deg C),EGT 4 (deg C),CHT 3 (deg C),EGT 3 (deg C),CHT 2 (deg C),EGT 2 (deg C),CHT 1 (deg C),EGT 1 (deg C),Thermocouple 13 (deg C),Thermocouple 14 (deg C),ELEV POSITION (%),CO PPM PRESSURE (PSI),GP Input 3,FUEL PRESSURE (PSI),AILERN POSITION (%),CANOPY CONTACT (V),GP Input 7,GP Input 8,LEFT LEVEL (Sensor V),RIGHT LEVEL (Sensor V),OIL PRESSURE (PSI),OIL TEMPERATURE (deg C),GP Input 13,Contacts,Percent Power,EGT Leaning State,Unnamed: 103,RPM,Flight ID
0.06,1.0,7.0,2026-03-18 22:55:22,37.08163,-121.59962,385.0,0.0,344.7,-12.7,,,,,22:55:22,,,,,,,,,,,33.0,,,,,,42.0,,125.0,800.0,,0.0,0.0,,,,,,,,,,,,,,,,,,,,,,,,,,,,,,18.4,,,,6.8,5.3,,,,,,,,,,,,,,,,,,,,,,,,,,,,,,,,,2026-03-18 15:55:22-07:00
1.06,1.0,7.0,2026-03-18 22:55:23,37.08163,-121.59962,383.0,0.0,344.7,-12.6,,,,,22:55:22,10.7,-0.5,4.0,0.0,224.0,-0.0,-0.01,1.0,,-38.0,33.0,0.0,30.06,2399.0,,,42.0,,125.0,800.0,,0.0,0.0,,,,,,,,,,,,,,,,,,,,,0.0,0.0,,,,0.0,,,,18.4,0.0,0.0,-0.1,6.8,5.3,,,,,29.0,30.0,29.0,30.0,29.0,30.0,29.0,30.0,,,12.0,254.1,,1.0,1.0,4.998,,,1.525,1.387,0.0,114.7,,,,,,0.0,2026-03-18 15:55:22-07:00
2.06,1.0,7.0,2026-03-18 22:55:24,37.08163,-121.59962,381.0,0.0,344.7,-12.6,,,,,22:55:23,10.7,-0.5,4.1,0.0,224.0,0.0,-0.01,1.0,,5.0,33.0,0.0,30.06,2399.0,,,42.0,,125.0,800.0,,0.0,0.0,,,,,,,,,,,,,,,,,,,,,0.0,0.0,,,,0.0,,,,18.4,0.0,0.0,-0.1,6.8,5.3,,,,,29.0,30.0,29.0,30.0,29.0,30.0,29.0,30.0,,,12.0,254.1,,1.0,1.0,4.998,,,1.525,1.387,0.0,28.0,,,,,,0.0,2026-03-18 15:55:22-07:00
3.06,1.0,7.0,2026-03-18 22:55:25,37.08163,-121.59962,379.0,0.0,344.7,-12.6,,,,,22:55:24,10.7,-0.4,4.2,0.0,224.0,0.0,-0.01,1.0,,-15.0,33.0,0.0,30.06,2399.0,,,42.0,,125.0,800.0,,0.0,0.0,,,,,,,,,,,,,,,,,,,,,0.0,0.0,,0.0,,0.0,,,,18.4,0.0,0.0,-0.1,6.8,5.3,,,,,28.0,30.0,28.0,30.0,28.0,30.0,29.0,30.0,,,12.0,254.1,,1.0,1.0,4.998,,,1.525,1.388,0.0,27.9,,,,,,0.0,2026-03-18 15:55:22-07:00
4.06,1.0,7.0,2026-03-18 22:55:26,37.08162,-121.59962,377.0,0.0,344.7,-12.6,,,,,22:55:25,10.7,-0.4,4.2,0.0,224.0,0.0,-0.01,1.0,,-5.0,33.0,0.0,30.06,2399.0,,,42.0,,125.0,800.0,,0.0,0.0,,,,,,,,,,,,,,,,,,,,,0.0,0.0,,0.0,,0.0,,,,18.4,0.0,0.0,-0.1,6.8,5.3,,,,,28.0,30.0,28.0,30.0,28.0,30.0,29.0,30.0,,,12.0,254.1,,1.0,1.0,4.998,,,1.525,1.388,0.0,27.8,,,,,,0.0,2026-03-18 15:55:22-07:00
5.06,1.0,7.0,2026-03-18 22:55:27,37.08162,-121.59961,376.0,0.4,344.7,-12.6,,,,,22:55:26,10.7,-0.5,4.1,0.0,224.0,-0.0,-0.01,1.0,99.0,-7.0,33.0,0.0,30.06,2410.0,,,42.0,,,,,0.0,0.0,,,,,,,,,,,,,,,,,,,0.0,28.0,0.0,0.0,30.1,0.0,,0.0,1.0,,,18.4,0.0,0.0,-0.1,6.8,5.3,,,,,29.0,30.0,29.0,30.0,29.0,30.0,29.0,30.0,,,12.0,254.1,,1.0,1.0,4.998,,,1.525,1.388,0.0,27.8,,,,,,0.0,2026-03-18 15:55:22-07:00
6.06,1.0,6.0,2026-03-18 22:55:28,37.08158,-121.59959,348.0,0.1,344.7,-12.6,,,,,22:55:27,10.7,-0.4,4.1,0.0,224.0,-0.0,-0.01,1.0,99.0,18.0,33.0,0.0,30.06,2410.0,,,42.0,,,,,0.0,0.0,,,,,,,,,,,,,,,,,,,0.0,28.0,0.0,0.0,30.1,0.0,,0.0,1.0,,,18.4,0.0,0.0,-0.1,6.8,5.3,,,,,29.0,30.0,29.0,30.0,29.0,30.0,29.0,30.0,,,12.0,254.1,,1.0,1.0,4.998,,,1.525,1.387,0.0,27.7,,,,,,0.0,2026-03-18 15:55:22-07:00
7.06,1.0,6.0,2026-03-18 22:55:29,37.08158,-121.59959,348.0,0.0,344.7,-12.6,,,,,22:55:28,10.7,-0.5,4.2,0.0,224.0,-0.0,-0.01,1.0,99.0,-20.0,33.0,0.0,30.06,2410.0,,,42.0,,,,,0.0,0.0,,,,,,,,,,,,,,,,,,,0.0,28.0,0.0,0.0,30.1,0.0,,0.0,1.0,,,18.4,0.0,0.0,-0.1,6.8,5.3,,,,,29.0,30.0,29.0,30.0,29.0,30.0,29.0,30.0,,,12.0,254.1,,1.0,1.0,4.998,,,1.525,1.388,0.0,27.7,,,,,,0.0,2026-03-18 15:55:22-07:00
8.06,1.0,6.0,2026-03-18 22:55:30,37.08158,-121.59958,348.0,0.0,344.7,-12.6,,,,,22:55:29,10.8,-0.5,4.2,0.0,223.0,0.0,-0.01,1.0,99.0,-12.0,33.0,0.0,30.06,2419.0,,,42.0,,,,,0.0,0.0,,,,,,,,,,,,,,,,,,,0.0,28.0,0.0,0.0,30.1,0.0,,0.0,1.0,,,18.4,0.0,0.0,-0.1,6.8,5.3,,,,,28.0,30.0,28.0,30.0,28.0,30.0,29.0,30.0,,,12.0,254.1,,1.0,1.0,4.998,,,1.525,1.388,0.0,27.7,,,,,,0.0,2026-03-18 15:55:22-07:00
9.06,1.0,6.0,2026-03-18 22:55:31,37.08158,-121.59958,347.0,0.1,344.7,-12.6,,,,,22:55:30,10.8,-0.5,4.2,0.0,223.0,0.0,-0.01,1.0,99.0,-19.0,33.0,0.0,30.06,2419.0,,,42.0,,,,,0.0,0.0,,,,,,,,,,,,,,,,,,,0.0,28.0,0.0,0.0,30.1,0.0,,0.0,1.0,,,18.4,0.0,0.0,-0.1,6.8,5.3,,,,,28.0,30.0,28.0,30.0,28.0,30.0,29.0,30.0,,,12.0,254.1,,1.0,1.0,4.998,,,1.525,1.388,0.0,27.7,,,,,,0.0,2026-03-18 15:55:22-07:00
10.06,1.0,6.0,2026-03-18 22:55:32,37.08158,-121.59958,346.0,0.0,344.7,-12.6,,,,,22:55:31,10.8,-0.5,4.1,0.0,222.0,0.0,-0.01,1.0,99.0,-40.0,33.0,0.0,30.06,2419.0,,,42.0,,,,,0.0,0.0,,,,,,,,,,,,,,,,,,,0.0,28.0,0.0,0.0,30.1,0.0,,0.0,1.0,,,18.4,0.0,0.0,-0.1,6.8,5.3,,,,,29.0,30.0,29.0,30.0,29.0,30.0,29.0,30.0,,,12.0,254.1,,1.0,1.0,4.998,,,1.525,1.387,0.0,27.6,,,,,,0.0,2026-03-18 15:55:22-07:00
11.06,1.0,6.0,2026-03-18 22:55:33,37.08158,-121.59958,346.0,0.0,344.7,-12.6,,,,,22:55:32,10.8,-0.5,4.0,0.0,221.0,0.0,-0.01,1.0,99.0,-43.0,33.0,0.0,30.06,2426.0,,,42.0,,,,,0.0,0.0,,,,,,,,,,,,,,,,,,,0.0,28.0,0.0,0.0,30.1,0.0,,0.0,1.0,,,18.4,0.0,0.0,-0.1,6.8,5.3,,,,,29.0,30.0,29.0,30.0,29.0,30.0,29.0,30.0,,,12.0,254.0,,1.0,1.0,4.998,,,1.525,1.387,0.0,27.6,,,,,,0.0,2026-03-18 15:55:22-07:00
12.06,1.0,6.0,2026-03-18 22:55:34,37.08158,-121.59958,345.0,0.0,344.7,-12.6,,,,,22:55:33,10.8,-0.5,4.0,0.0,221.0,0.0,-0.01,1.0,99.0,-49.0,33.0,0.0,30.06,2426.0,,,42.0,,,,,0.0,0.0,,,,,,,,,,,,,,,,,,,0.0,28.0,0.0,0.0,30.1,0.0,,0.0,1.0,,,18.4,0.0,0.0,-0.1,6.8,5.3,,,,,29.0,30.0,29.0,30.0,29.0,30.0,29.0,30.0,,,12.0,254.0,,1.0,1.0,4.998,,,1.525,1.387,0.0,27.6,,,,,,0.0,2026-03-18 15:55:22-07:00
13.06,1.0,6.0,2026-03-18 22:55:35,37.08158,-121.59958,343.0,0.1,344.7,-12.6,,,,,22:55:34,10.8,-0.5,4.0,0.0,220.0,0.0,-0.01,1.0,99.0,-43.0,33.0,0.0,30.06,2426.0,,,42.0,,,,,0.0,0.0,,,,,,,,,,,,,,,,,,,0.0,28.0,0.0,0.0,30.1,0.0,,0.0,1.0,,,18.4,0.0,0.0,-0.1,6.8,5.3,,,,,29.0,30.0,29.0,30.0,29.0,30.0,29.0,30.0,,,12.0,254.0,,1.0,1.0,4.998,,,1.525,1.388,0.0,27.6,,,,,,0.0,2026-03-18 15:55:22-07:00
14.06,1.0,6.0,2026-03-18 22:55:36,37.08158,-121.59957,342.0,0.0,344.7,-12.6,,,,,22:55:35,10.8,-0.5,3.9,0.0,217.0,-0.0,-0.01,1.0,99.0,-112.0,33.0,0.0,30.06,2422.0,,,42.0,,,,,0.0,0.0,,,,,,,,,,,,,,,,,,,0.0,28.0,0.0,0.0,30.1,0.0,,0.0,1.0,,,18.4,0.0,0.0,-0.1,6.8,5.3,,,,,29.0,30.0,29.0,30.0,29.0,30.0,29.0,30.0,,,12.0,254.0,,1.0,1.0,4.998,,,1.525,1.387,0.0,27.6,,,,,,0.0,2026-03-18 15:55:22-07:00
15.06,1.0,6.0,2026-03-18 22:55:37,37.08158,-121.59957,341.0,0.0,344.7,-12.6,,,,,22:55:36,10.8,-0.6,3.9,0.0,214.0,-0.0,-0.01,1.0,99.0,-116.0,33.0,0.0,30.06,2422.0,,,42.0,,,,,0.0,0.0,,,,,,,,,,,,,,,,,,,0.0,28.0,0.0,0.0,30.1,0.0,,0.0,1.0,,,18.4,0.0,0.0,-0.1,6.8,5.3,,,,,29.0,30.0,29.0,30.0,29.0,30.0,29.0,30.0,,,12.0,254.0,,1.0,1.0,4.998,,,1.525,1.388,0.0,27.6,,,,,,0.0,2026-03-18 15:55:22-07:00
16.06,1.0,6.0,2026-03-18 22:55:38,37.08158,-121.59957,340.0,0.0,344.7,-12.6,,,,,22:55:37,10.8,-0.6,3.8,0.0,213.0,-0.0,-0.01,1.0,99.0,-67.0,33.0,0.0,30.06,2422.0,,,42.0,,,,,0.0,0.0,,,,,,,,,,,,,,,,,,,0.0,28.0,0.0,0.0,30.1,0.0,,0.0,1.0,,,18.4,0.0,0.0,-0.1,6.8,5.3,,,,,29.0,30.0,29.0,30.0,29.0,30.0,29.0,30.0,,,12.0,254.0,,1.0,1.0,4.998,,,1.525,1.388,0.0,27.6,,,,,,0.0,2026-03-18 15:55:22-07:00
17.06,1.0,6.0,2026-03-18 22:55:39,37.08157,-121.59957,339.0,0.0,344.7,-12.6,,,,,22:55:38,10.8,-0.6,3.8,0.0,212.0,-0.0,-0.01,1.0,99.0,-99.0,33.0,0.0,30.06,2427.0,,,42.0,,,,,0.0,0.0,,,,,,,,,,,,,,,,,,,0.0,28.0,0.0,0.0,30.1,0.0,,0.0,0.4,,,18.4,0.0,0.0,-0.1,6.8,5.3,,,,,29.0,30.0,29.0,30.0,29.0,30.0,29.0,31.0,,,12.0,254.0,,0.4,1.0,4.998,,,1.525,1.388,0.0,27.6,,,,,,0.0,2026-03-18 15:55:22-07:00
18.06,1.0,6.0,2026-03-18 22:55:40,37.08157,-121.59957,339.0,0.0,344.7,-12.6,,,,,22:55:39,10.8,-0.6,3.8,0.0,210.0,-0.0,-0.01,1.0,99.0,-105.0,33.0,0.0,30.06,2427.0,,,42.0,,,,,0.0,0.0,,,,,,,,,,,,,,,,,,,0.0,28.0,0.0,0.0,30.1,0.0,,0.0,0.0,,,18.4,0.0,0.0,-0.1,6.8,5.3,,,,,29.0,30.0,29.0,30.0,29.0,30.0,29.0,30.0,,,12.0,254.0,,0.0,1.0,4.998,,,1.525,1.388,0.0,27.6,,,,,,0.0,2026-03-18 15:55:22-07:00
19.06,1.0,6.0,2026-03-18 22:55:41,37.08157,-121.59957,338.0,0.0,344.7,-12.6,,,,,22:55:40,10.7,-0.6,3.8,0.0,208.0,-0.0,-0.01,1.0,99.0,-88.0,33.0,0.0,30.06,2427.0,,,42.0,,,,,0.0,0.0,,,,,,,,,,,,,,,,,,,0.0,28.0,0.0,0.0,30.1,0.0,,0.0,0.0,,,18.4,0.0,0.0,-0.1,6.8,5.3,,,,,29.0,30.0,29.0,30.0,29.0,30.0,29.0,31.0,,,12.0,254.0,,0.0,2.0,4.998,,,1.525,1.388,0.0,27.6,,,,,,0.0,2026-03-18 15:55:22-07:00
20.06,1.0,6.0,2026-03-18 22:55:42,37.08157,-121.59957,337.0,0.0,344.7,-12.6,,,,,22:55:41,10.8,-0.6,3.8,0.0,207.0,-0.0,-0.01,1.0,99.0,-78.0,33.0,0.0,30.06,2432.0,,,42.0,,,,,0.0,0.0,,,,,,,,,,,,,,,,,,,0.0,28.0,0.0,0.0,30.1,0.0,,0.0,0.0,,,18.4,0.0,0.0,-0.1,6.8,5.3,,,,,29.0,30.0,29.0,30.0,29.0,30.0,29.0,31.0,,,12.0,254.0,,0.0,2.0,4.998,,,1.525,1.387,0.0,27.6,,,,,,0.0,2026-03-18 15:55:22-07:00
21.06,1.0,6.0,2026-03-18 22:55:43,37.08157,-121.59957,336.0,0.0,344.7,-12.6,,,,,22:55:42,10.8,-0.6,3.9,0.0,206.0,0.0,-0.01,1.0,99.0,-92.0,33.0,0.0,30.06,2430.0,,,42.0,,,,,0.0,0.0,,,,,,,,,,,,,,,,,,,0.0,28.0,0.0,0.0,30.1,0.1,,0.1,12.6,,,18.4,0.0,0.0,-0.1,6.8,5.3,,,,,29.0,30.0,29.0,30.0,29.0,30.0,29.0,30.0,,,12.0,254.0,,12.6,2.0,4.998,,,1.525,1.388,0.0,27.6,,,,,,0.0,2026-03-18 15:55:22-07:00
22.06,1.0,6.0,2026-03-18 22:55:44,37.08157,-121.59956,336.0,0.0,344.7,-12.6,,,,,22:55:43,10.8,-0.7,3.8,0.0,204.0,0.0,-0.01,1.0,99.0,-85.0,33.0,0.0,30.06,2430.0,,,42.0,,,,,0.0,0.0,,,,,,,,,,,,,,,,,,,0.0,28.0,0.0,0.0,30.1,0.5,,0.5,30.1,,,18.4,0.0,0.0,-0.1,6.8,5.3,,,,,29.0,30.0,29.0,30.0,29.0,30.0,29.0,31.0,,,12.0,254.0,,30.1,2.0,4.998,,,1.525,1.387,0.0,27.6,,,,,,0.0,2026-03-18 15:55:22-07:00
23.06,1.0,6.0,2026-03-18 22:55:45,37.08157,-121.59956,335.0,0.0,344.7,-12.6,,,,,22:55:44,10.8,-0.6,3.8,0.0,203.0,0.0,-0.01,1.0,99.0,-65.0,33.0,0.0,30.06,2430.0,,,42.0,,,,,0.0,0.0,,,,,,,,,,,,,,,,,,,0.0,28.0,0.0,0.0,30.1,1.2,,1.2,31.3,,,18.4,0.0,0.0,-0.1,6.8,5.3,,,,,29.0,30.0,29.0,30.0,29.0,30.0,29.0,31.0,,,12.0,254.0,,31.3,2.0,4.998,,,1.525,1.388,0.0,27.6,,,,,,0.0,2026-03-18 15:55:22-07:00
24.06,1.0,6.0,2026-03-18 22:55:46,37.08157,-121.59956,334.0,0.0,344.7,-12.6,,,,,22:55:45,10.7,-0.7,3.8,0.0,203.0,-0.0,-0.01,1.0,99.0,-45.0,33.0,0.0,30.06,2428.0,,,42.0,,,,,0.0,0.0,,,,,,,,,,,,,,,,,,,0.0,28.0,0.0,0.0,30.1,1.7,,1.7,31.1,,,18.4,0.0,0.0,-0.1,6.8,5.3,,,,,29.0,30.0,29.0,30.0,29.0,30.0,29.0,30.0,,,12.0,254.0,,31.1,2.0,4.998,,,1.525,1.388,0.0,27.6,,,,,,0.0,2026-03-18 15:55:22-07:00
25.06,1.0,7.0,2026-03-18 22:55:47,37.08157,-121.59958,385.0,0.0,344.7,-12.6,,,,,22:55:46,10.8,-0.6,3.8,0.0,202.0,0.0,-0.01,1.0,99.0,-52.0,33.0,0.0,30.06,2428.0,,,42.0,,,,,0.0,0.0,,,,,,,,,,,,,,,,,,,0.0,28.0,0.0,0.0,30.1,2.1,,2.1,31.1,,,18.4,0.0,0.0,-0.1,6.8,5.3,,,,,29.0,30.0,29.0,30.0,29.0,30.0,29.0,31.0,,,12.0,254.0,,31.1,2.0,4.998,,,1.525,1.388,0.0,27.6,,,,,,0.0,2026-03-18 15:55:22-07:00
26.06,1.0,7.0,2026-03-18 22:55:48,37.08157,-121.59958,343.0,0.0,344.7,-12.6,,,,,22:55:47,10.8,-0.6,3.9,0.0,202.0,0.0,-0.01,1.0,99.0,-19.0,33.0,0.0,30.06,2428.0,,,42.0,,,,,0.0,0.0,,,,,,,,,,,,,,,,,,,0.0,28.0,0.0,0.0,30.1,2.4,,2.4,32.3,,,18.4,0.0,0.0,-0.1,6.8,5.3,,,,,29.0,30.0,29.0,30.0,29.0,30.0,29.0,31.0,,,12.0,254.0,,32.3,2.0,4.998,,,1.525,1.388,0.0,27.6,,,,,,0.0,2026-03-18 15:55:22-07:00
27.06,1.0,7.0,2026-03-18 22:55:49,37.08157,-121.59958,344.0,0.0,344.7,-12.6,,,,,22:55:48,10.8,-0.6,3.9,0.0,201.0,0.0,-0.01,1.0,99.0,-53.0,33.0,0.0,30.06,2437.0,,,42.0,,,,,0.0,0.0,,,,,,,,,,,,,,,,,,,0.0,28.0,0.0,0.0,30.1,2.2,,2.2,31.0,,,18.4,0.0,0.0,-0.1,6.8,5.3,,,,,29.0,30.0,29.0,30.0,29.0,30.0,29.0,31.0,,,12.0,254.0,,31.0,2.0,4.998,,,1.525,1.388,0.0,27.6,,,,,,0.0,2026-03-18 15:55:22-07:00
28.06,1.0,7.0,2026-03-18 22:55:50,37.08156,-121.59958,343.0,0.1,344.7,-12.6,,,,,22:55:49,10.8,-0.6,3.9,0.0,201.0,-0.0,-0.01,1.0,99.0,-12.0,33.0,0.0,30.06,2437.0,,,42.0,,,,,0.0,0.0,,,,,,,,,,,,,,,,,,,0.0,28.0,0.0,0.0,30.1,2.2,,2.2,30.8,,,18.4,0.0,0.0,-0.1,6.8,5.3,,,,,29.0,30.0,29.0,30.0,29.0,30.0,29.0,31.0,,,12.0,254.0,,30.8,2.0,4.998,,,1.525,1.387,0.0,27.6,,,,,,0.0,2026-03-18 15:55:22-07:00
29.06,1.0,7.0,2026-03-18 22:55:51,37.08156,-121.59958,343.0,0.1,344.7,-12.6,,,,,22:55:50,10.9,-0.6,3.8,0.0,201.0,0.0,-0.01,1.0,99.0,11.0,34.0,0.0,30.06,2437.0,,,42.0,,,,,0.0,0.0,,,,,,,,,,,,,,,,,,,0.0,28.0,0.0,0.0,30.1,0.0,,0.0,30.5,,,18.4,0.0,0.0,-0.1,6.8,5.3,,,,,29.0,30.0,29.0,30.0,29.0,30.0,29.0,31.0,,,12.0,254.0,,30.5,2.0,4.998,,,1.525,1.388,0.0,27.6,,,,,,0.0,2026-03-18 15:55:22-07:00
30.06,1.0,7.0,2026-03-18 22:55:52,37.08156,-121.59958,343.0,0.0,344.7,-12.6,,,,,22:55:51,10.8,-0.6,3.9,0.0,200.0,0.0,-0.01,1.0,99.0,-55.0,34.0,0.0,30.06,2437.0,,,42.0,,,,,0.0,0.0,,,,,,,,,,,,,,,,,,,0.0,28.0,0.0,0.0,30.1,0.0,,0.0,30.3,,,18.4,0.0,0.0,-0.1,6.8,5.3,,,,,29.0,30.0,29.0,30.0,29.0,30.0,29.0,31.0,,,12.0,254.0,,30.3,2.0,4.998,,,1.525,1.387,0.0,27.5,,,,,,0.0,2026-03-18 15:55:22-07:00
31.06,1.0,7.0,2026-03-18 22:55:53,37.08156,-121.59958,342.0,0.0,344.7,-12.6,,,,,22:55:52,10.8,-0.6,3.9,0.0,200.0,-0.0,-0.01,1.0,99.0,-40.0,34.0,0.0,30.06,2437.0,,,42.0,,,,,0.0,0.0,,,,,,,,,,,,,,,,,,,0.0,28.0,0.0,0.0,30.1,0.0,,0.0,30.1,,,18.4,0.0,0.0,-0.1,6.8,5.3,,,,,29.0,30.0,29.0,30.0,29.0,30.0,29.0,30.0,,,12.0,253.9,,30.1,2.0,4.998,,,1.525,1.388,0.0,27.6,,,,,,0.0,2026-03-18 15:55:22-07:00
32.06,1.0,7.0,2026-03-18 22:55:54,37.08156,-121.59957,341.0,0.0,344.7,-12.6,,,,,22:55:53,10.8,-0.6,3.8,0.0,199.0,-0.0,-0.01,1.0,99.0,-57.0,34.0,0.0,30.06,2445.0,,,42.0,,,,,0.0,0.0,,,,,,,,,,,,,,,,,,,0.0,28.0,0.0,0.0,30.1,0.0,,0.0,30.0,,,18.4,0.0,0.0,-0.1,6.8,5.3,,,,,29.0,30.0,29.0,30.0,29.0,30.0,29.0,31.0,,,12.0,253.9,,30.0,2.0,4.998,,,1.525,1.388,0.0,27.6,,,,,,0.0,2026-03-18 15:55:22-07:00
33.06,1.0,7.0,2026-03-18 22:55:55,37.08155,-121.59957,341.0,0.1,344.7,-12.6,,,,,22:55:54,10.8,-0.6,3.8,0.0,198.0,-0.0,-0.01,1.0,99.0,-29.0,34.0,0.0,30.06,2446.0,,,42.0,,,,,0.0,0.0,,,,,,,,,,,,,,,,,,,0.0,28.0,0.0,0.0,30.1,0.0,,0.0,29.8,,,18.4,0.0,0.0,-0.1,6.8,5.3,,,,,29.0,30.0,29.0,30.0,29.0,30.0,29.0,30.0,,,12.0,253.9,,29.8,2.0,4.998,,,1.525,1.387,0.0,27.5,,,,,,0.0,2026-03-18 15:55:22-07:00
34.06,1.0,7.0,2026-03-18 22:55:56,37.08155,-121.59957,340.0,0.0,344.7,-12.6,,,,,22:55:55,10.8,-0.5,3.9,0.0,198.0,-0.0,-0.01,1.0,99.0,2.0,34.0,0.0,30.06,2446.0,,,42.0,,,,,0.0,0.0,,,,,,,,,,,,,,,,,,,0.0,28.0,0.0,0.0,30.1,0.0,,0.0,29.7,,,18.4,0.0,0.0,-0.1,6.8,5.3,,,,,29.0,30.0,29.0,30.0,29.0,30.0,29.0,30.0,,,12.0,253.9,,29.7,2.0,4.998,,,1.525,1.387,0.0,27.6,,,,,,0.0,2026-03-18 15:55:22-07:00
35.06,1.0,7.0,2026-03-18 22:55:57,37.08155,-121.59957,339.0,0.0,344.7,-12.6,,,,,22:55:56,10.8,-0.6,3.9,0.0,198.0,-0.0,-0.01,1.0,99.0,3.0,34.0,0.0,30.06,2446.0,,,42.0,,,,,0.0,0.0,,,,,,,,,,,,,,,,,,,0.0,28.0,0.0,0.0,30.1,0.0,,0.0,29.6,,,18.4,0.0,0.0,-0.1,6.8,5.3,,,,,29.0,30.0,29.0,30.0,29.0,30.0,29.0,31.0,,,12.0,253.9,,29.6,2.0,4.998,,,1.525,1.387,0.0,27.6,,,,,,0.0,2026-03-18 15:55:22-07:00
36.06,1.0,7.0,2026-03-18 22:55:58,37.08155,-121.59957,338.0,0.0,344.7,-12.6,,,,,22:55:57,10.8,-0.5,3.9,0.0,198.0,0.0,-0.01,1.0,99.0,-8.0,34.0,0.0,30.06,2455.0,,,42.0,,,,,0.0,0.0,,,,,,,,,,,,,,,,,,,0.0,28.0,0.0,0.0,30.1,0.0,,0.0,29.4,,,18.4,0.0,0.0,-0.1,6.8,5.3,,,,,29.0,30.0,29.0,30.0,29.0,30.0,29.0,30.0,,,12.0,253.9,,29.4,2.0,4.998,,,1.525,1.388,0.0,27.5,,,,,,0.0,2026-03-18 15:55:22-07:00
37.06,1.0,7.0,2026-03-18 22:55:59,37.08155,-121.59957,337.0,0.0,344.7,-12.6,,,,,22:55:58,10.9,-0.6,3.9,0.0,198.0,-0.0,-0.01,1.0,99.0,-15.0,34.0,0.0,30.06,2457.0,,,42.0,,,,,0.0,0.0,,,,,,,,,,,,,,,,,,,0.0,28.0,0.0,0.0,30.1,0.0,,0.0,29.3,,,18.4,0.0,0.0,-0.1,6.8,5.3,,,,,29.0,30.0,29.0,30.0,29.0,30.0,29.0,30.0,,,12.0,253.9,,29.3,2.0,4.998,,,1.525,1.388,0.0,27.6,,,,,,0.0,2026-03-18 15:55:22-07:00
38.06,1.0,7.0,2026-03-18 22:56:00,37.08155,-121.59957,337.0,0.0,344.7,-12.6,,,,,22:55:59,10.9,-0.6,3.9,0.0,198.0,-0.0,-0.01,1.0,99.0,-37.0,34.0,0.0,30.06,2457.0,,,42.0,,,,,0.0,0.0,,,,,,,,,,,,,,,,,,,0.0,28.0,0.0,0.0,30.1,0.0,,0.0,29.2,,,18.4,0.0,0.0,-0.1,6.8,5.3,,,,,29.0,30.0,29.0,30.0,29.0,30.0,29.0,30.0,,,12.0,253.9,,29.2,2.0,4.998,,,1.525,1.388,0.0,27.6,,,,,,0.0,2026-03-18 15:55:22-07:00
39.06,1.0,7.0,2026-03-18 22:56:01,37.08154,-121.59957,336.0,0.0,344.7,-12.6,,,,,22:56:00,10.9,-0.6,3.9,0.0,198.0,-0.0,-0.01,1.0,99.0,-22.0,34.0,0.0,30.06,2457.0,,,42.0,,,,,0.0,0.0,,,,,,,,,,,,,,,,,,,0.0,28.0,0.0,0.0,30.1,0.0,,0.0,29.1,,,18.4,0.0,0.0,-0.1,6.8,5.3,,,,,29.0,30.0,29.0,30.0,29.0,30.0,29.0,30.0,,,12.0,253.9,,29.1,2.0,4.998,,,1.525,1.388,0.0,27.5,,,,,,0.0,2026-03-18 15:55:22-07:00
40.06,1.0,7.0,2026-03-18 22:56:02,37.08154,-121.59957,336.0,0.0,344.7,-12.6,,,,,22:56:01,10.8,-0.6,3.9,0.0,196.0,0.0,-0.01,1.0,99.0,-45.0,34.0,0.0,30.06,2463.0,,,42.0,,,,,0.0,0.0,,,,,,,,,,,,,,,,,,,0.0,28.0,0.0,0.0,30.1,0.0,,0.0,28.9,,,18.4,0.0,0.0,-0.1,6.8,5.3,,,,,29.0,30.0,29.0,30.0,29.0,30.0,29.0,30.0,,,12.0,253.9,,28.9,2.0,4.998,,,1.525,1.388,0.0,27.5,,,,,,0.0,2026-03-18 15:55:22-07:00
41.06,1.0,7.0,2026-03-18 22:56:03,37.08154,-121.59957,336.0,0.1,344.7,-12.6,,,,,22:56:02,10.9,-0.6,3.9,0.0,196.0,0.0,-0.01,1.0,99.0,-1.0,34.0,0.0,30.06,2465.0,,,42.0,,,,,0.0,0.0,,,,,,,,,,,,,,,,,,,0.0,28.0,0.0,0.0,30.1,0.0,,0.0,28.8,,,18.4,0.0,0.0,-0.1,6.8,5.3,,,,,29.0,30.0,29.0,30.0,29.0,30.0,30.0,31.0,,,12.0,253.9,,28.8,2.0,4.998,,,1.525,1.388,0.0,27.5,,,,,,0.0,2026-03-18 15:55:22-07:00
42.06,1.0,7.0,2026-03-18 22:56:04,37.08154,-121.59957,335.0,0.0,344.7,-12.6,,,,,22:56:03,10.9,-0.5,3.9,0.0,196.0,0.0,-0.01,1.0,99.0,8.0,34.0,0.0,30.06,2465.0,,,42.0,,,,,0.0,0.0,,,,,,,,,,,,,,,,,,,0.0,28.0,0.0,0.0,30.1,0.0,,0.0,28.7,,,18.4,0.0,0.0,-0.1,6.8,5.3,,,,,29.0,30.0,29.0,30.0,29.0,30.0,30.0,31.0,,,12.0,229.7,,28.7,2.0,4.998,,,1.525,1.388,0.0,27.6,,,,,,0.0,2026-03-18 15:55:22-07:00
43.06,1.0,7.0,2026-03-18 22:56:05,37.08154,-121.59957,335.0,0.0,344.7,-12.6,,,,,22:56:04,10.9,-0.6,3.9,0.0,196.0,0.0,-0.01,1.0,99.0,40.0,34.0,0.0,30.06,2465.0,,,42.0,,,,,0.0,0.0,,,,,,,,,,,,,,,,,,,0.0,28.0,0.0,0.0,30.1,0.0,,0.0,28.6,,,18.4,0.0,0.0,-0.1,6.8,5.3,,,,,29.0,30.0,29.0,30.0,29.0,30.0,30.0,31.0,,,12.0,178.8,,28.6,2.0,4.998,,,1.525,1.388,0.0,27.6,,,,,,0.0,2026-03-18 15:55:22-07:00
44.06,1.0,7.0,2026-03-18 22:56:06,37.08154,-121.59957,334.0,0.0,344.7,-12.6,,,,,22:56:05,10.9,-0.6,3.9,0.0,196.0,-0.0,-0.01,1.0,99.0,-12.0,34.0,0.0,30.06,2474.0,,,42.0,,,,,0.0,0.0,,,,,,,,,,,,,,,,,,,0.0,28.0,0.0,0.0,30.1,0.0,,0.0,28.5,,,18.4,0.0,0.0,-0.1,6.8,5.3,,,,,29.0,30.0,29.0,30.0,29.0,30.0,30.0,31.0,,,12.0,139.2,,28.5,2.0,4.998,,,1.525,1.388,0.0,27.5,,,,,,0.0,2026-03-18 15:55:22-07:00
45.06,1.0,7.0,2026-03-18 22:56:07,37.08154,-121.59957,334.0,0.0,344.7,-12.6,,,,,22:56:06,10.9,-0.6,3.9,0.0,196.0,-0.0,-0.01,1.0,99.0,-35.0,34.0,0.0,30.06,2474.0,,,42.0,,,,,0.0,0.0,,,,,,,,,,,,,,,,,,,0.0,28.0,0.0,0.0,30.1,0.0,,0.0,28.4,,,18.4,0.0,0.0,-0.2,6.8,5.3,,,,,29.0,30.0,29.0,30.0,29.0,30.0,30.0,31.0,,,12.0,108.4,,28.4,2.0,4.998,,,1.525,1.388,0.0,27.6,,,,,,0.0,2026-03-18 15:55:22-07:00
46.06,1.0,7.0,2026-03-18 22:56:08,37.08153,-121.59957,334.0,0.1,344.7,-12.6,,,,,22:56:07,10.9,-0.7,3.9,0.0,196.0,-0.0,-0.01,1.0,99.0,-22.0,34.0,0.0,30.06,2476.0,,,42.0,,,,,0.0,0.0,,,,,,,,,,,,,,,,,,,0.0,28.0,0.0,0.0,30.1,0.0,,0.0,28.3,,,18.4,0.0,0.0,-0.2,6.8,5.3,,,,,29.0,30.0,29.0,30.0,29.0,30.0,30.0,31.0,,,12.0,84.5,,28.3,2.0,4.998,,,1.525,1.388,0.0,27.6,,,,,,0.0,2026-03-18 15:55:22-07:00
47.06,1.0,7.0,2026-03-18 22:56:09,37.08153,-121.59957,333.0,0.1,344.7,-12.6,,,,,22:56:08,10.9,-0.6,3.8,0.0,194.0,-0.0,-0.01,1.0,99.0,-72.0,34.0,0.0,30.06,2476.0,,,42.0,,,,,0.0,0.0,,,,,,,,,,,,,,,,,,,0.0,28.0,0.0,0.0,30.1,0.0,,0.0,28.1,,,18.4,0.0,0.0,-0.2,6.8,5.3,,,,,29.0,30.0,29.0,30.0,29.0,30.0,30.0,31.0,,,12.0,65.9,,28.1,2.0,4.998,,,1.525,1.388,0.0,27.6,,,,,,0.0,2026-03-18 15:55:22-07:00
48.06,1.0,7.0,2026-03-18 22:56:10,37.08153,-121.59957,333.0,0.0,344.7,-12.6,,,,,22:56:09,10.9,-0.6,3.8,0.0,194.0,0.0,-0.01,1.0,99.0,-62.0,34.0,0.0,30.06,2476.0,,,42.0,,,,,0.0,0.0,,,,,,,,,,,,,,,,,,,0.0,28.0,0.0,0.0,30.1,0.0,,0.0,28.1,,,18.4,0.0,0.0,-0.2,6.8,5.3,,,,,29.0,30.0,29.0,30.0,29.0,30.0,30.0,31.0,,,12.0,51.4,,28.1,2.0,4.998,,,1.525,1.388,0.0,27.6,,,,,,0.0,2026-03-18 15:55:22-07:00
49.06,1.0,7.0,2026-03-18 22:56:11,37.08153,-121.59957,333.0,0.0,344.7,-12.6,,,,,22:56:10,10.9,-0.7,3.8,0.0,193.0,-0.0,-0.01,1.0,99.0,-56.0,34.0,0.0,30.06,2482.0,,,42.0,,,,,0.0,0.0,,,,,,,,,,,,,,,,,,,0.0,28.0,0.0,0.0,30.1,0.0,,0.0,27.9,,,18.4,0.0,0.0,-0.2,6.8,5.3,,,,,29.0,30.0,29.0,30.0,29.0,30.0,30.0,31.0,,,12.0,40.2,,27.9,2.0,4.998,,,1.525,1.388,0.0,27.5,,,,,,0.0,2026-03-18 15:55:22-07:00
50.06,1.0,7.0,2026-03-18 22:56:12,37.08153,-121.59956,332.0,0.0,344.7,-12.6,,,,,22:56:11,10.9,-0.7,3.8,0.0,193.0,-0.0,-0.01,1.0,99.0,-55.0,34.0,0.0,30.06,2483.0,,,42.0,,,,,0.0,0.0,,,,,,,,,,,,,,,,,,,0.0,28.0,0.0,0.0,30.1,0.0,,0.0,27.9,,,18.4,0.0,0.0,-0.2,6.8,5.3,,,,,29.0,30.0,29.0,30.0,29.0,30.0,30.0,31.0,,,12.0,31.4,,27.9,2.0,4.998,,,1.525,1.388,0.0,27.5,,,,,,0.0,2026-03-18 15:55:22-07:00
51.06,1.0,7.0,2026-03-18 22:56:13,37.08153,-121.59956,332.0,0.0,344.7,-12.6,,,,,22:56:12,10.9,-0.7,3.8,0.0,191.0,0.0,-0.01,1.0,99.0,-72.0,34.0,0.0,30.06,2483.0,,,42.0,,,,,0.0,0.0,,,,,,,,,,,,,,,,,,,0.0,28.0,0.0,0.0,30.1,0.0,,0.0,27.7,,,18.4,0.0,0.0,-0.2,6.8,5.3,,,,,29.0,30.0,29.0,30.0,29.0,30.0,30.0,31.0,,,12.0,24.6,,27.7,1.0,4.998,,,1.525,1.388,0.0,27.5,,,,,,0.0,2026-03-18 15:55:22-07:00
52.06,1.0,7.0,2026-03-18 22:56:14,37.08152,-121.59956,332.0,0.1,344.7,-12.6,,,,,22:56:13,10.9,-0.6,3.9,0.0,189.0,0.0,-0.01,1.0,99.0,-73.0,34.0,0.0,30.06,2483.0,,,42.0,,,,,0.0,0.0,,,,,,,,,,,,,,,,,,,0.0,28.0,0.0,0.0,30.1,0.0,,0.0,27.6,,,18.4,0.0,0.0,-0.2,6.8,5.3,,,,,29.0,30.0,29.0,30.0,29.0,30.0,30.0,31.0,,,12.0,19.4,,27.6,2.0,4.998,,,1.525,1.388,0.0,27.6,,,,,,0.0,2026-03-18 15:55:22-07:00
53.06,1.0,7.0,2026-03-18 22:56:15,37.08152,-121.59956,332.0,0.0,344.7,-12.6,,,,,22:56:14,10.9,-0.5,3.9,0.0,189.0,0.0,-0.01,1.0,99.0,-63.0,34.0,0.0,30.06,2488.0,,,42.0,,,,,0.0,0.0,,,,,,,,,,,,,,,,,,,0.0,28.0,0.0,0.0,30.1,0.0,,0.0,27.5,,,18.4,0.0,0.0,-0.2,6.8,5.3,,,,,29.0,30.0,29.0,30.0,29.0,30.0,30.0,31.0,,,12.0,15.3,,27.5,2.0,4.998,,,1.525,1.388,0.0,27.6,,,,,,0.0,2026-03-18 15:55:22-07:00
54.06,1.0,7.0,2026-03-18 22:56:16,37.08152,-121.59956,332.0,0.0,344.7,-12.6,,,,,22:56:15,10.9,-0.5,3.9,0.0,188.0,-0.0,-0.01,1.0,99.0,-61.0,34.0,0.0,30.06,2488.0,,,42.0,,,,,0.0,0.0,,,,,,,,,,,,,,,,,,,0.0,28.0,0.0,0.0,30.1,0.0,,0.0,27.4,,,18.4,0.0,0.0,-0.2,6.8,5.3,,,,,29.0,30.0,29.0,30.0,29.0,30.0,30.0,31.0,,,12.0,12.1,,27.4,1.0,4.998,,,1.525,1.388,0.0,27.6,,,,,,0.0,2026-03-18 15:55:22-07:00
55.06,1.0,7.0,2026-03-18 22:56:17,37.08152,-121.59956,332.0,0.0,344.7,-12.6,,,,,22:56:16,10.9,-0.5,3.9,0.0,187.0,0.0,-0.01,1.0,99.0,-58.0,34.0,0.0,30.06,2489.0,,,42.0,,,,,0.0,0.0,,,,,,,,,,,,,,,,,,,0.0,28.0,0.0,0.0,30.1,0.0,,0.0,27.3,,,18.4,0.0,0.0,-0.2,6.8,5.3,,,,,29.0,30.0,29.0,30.0,29.0,30.0,30.0,31.0,,,12.0,9.6,,27.3,2.0,4.998,,,1.525,1.388,0.0,27.5,,,,,,0.0,2026-03-18 15:55:22-07:00
56.06,1.0,7.0,2026-03-18 22:56:18,37.08152,-121.59956,332.0,0.0,344.7,-12.6,,,,,22:56:17,10.9,-0.5,3.9,0.0,186.0,0.0,-0.01,1.0,99.0,-41.0,34.0,0.0,30.06,2489.0,,,42.0,,,,,0.0,0.0,,,,,,,,,,,,,,,,,,,0.0,28.0,0.0,0.0,30.1,0.0,,0.0,27.2,,,18.4,0.0,0.0,-0.2,6.8,5.3,,,,,29.0,30.0,29.0,30.0,29.0,30.0,29.0,31.0,,,12.0,7.7,,27.2,2.0,4.998,,,1.525,1.389,0.0,27.5,,,,,,0.0,2026-03-18 15:55:22-07:00
57.06,1.0,7.0,2026-03-18 22:56:19,37.08148,-121.59955,324.0,0.0,344.7,-12.6,,,,,22:56:18,10.9,-0.6,3.9,0.0,185.0,0.0,-0.01,1.0,99.0,-52.0,34.0,0.0,30.06,2489.0,,,42.0,,,,,0.0,0.0,,,,,,,,,,,,,,,,,,,0.0,28.0,0.0,0.0,30.1,0.0,,0.0,27.1,,,18.4,0.0,0.0,-0.2,6.8,5.3,,,,,29.0,30.0,29.0,30.0,29.0,30.0,30.0,31.0,,,12.0,6.2,,27.1,2.0,4.998,,,1.525,1.389,0.0,27.5,,,,,,0.0,2026-03-18 15:55:22-07:00
58.06,1.0,7.0,2026-03-18 22:56:20,37.08148,-121.59955,324.0,0.0,344.7,-12.6,,,,,22:56:19,10.9,-0.6,3.8,0.0,185.0,-0.0,-0.01,1.0,99.0,-50.0,34.0,0.0,30.06,2495.0,,,42.0,,,,,0.0,0.0,,,,,,,,,,,,,,,,,,,0.0,28.0,0.0,0.0,30.1,0.0,,0.0,27.1,,,18.4,0.0,0.0,-0.2,6.8,5.3,,,,,29.0,30.0,29.0,30.0,29.0,30.0,30.0,31.0,,,12.0,5.0,,27.1,2.0,4.998,,,1.525,1.389,0.0,27.5,,,,,,0.0,2026-03-18 15:55:22-07:00
59.06,1.0,7.0,2026-03-18 22:56:21,37.08148,-121.59955,324.0,0.0,344.7,-12.6,,,,,22:56:20,10.9,-0.7,3.9,0.0,185.0,0.0,-0.01,1.0,99.0,-49.0,34.0,0.0,30.06,2496.0,,,42.0,,,,,0.0,0.0,,,,,,,,,,,,,,,,,,,0.0,23.0,124.0,124.0,30.1,0.0,,0.0,27.1,,,18.4,0.0,0.0,-0.3,6.8,5.3,,,,,26.0,27.0,26.0,27.0,27.0,27.0,27.0,28.0,,,12.0,4.1,,27.1,1.0,4.998,,,1.523,1.388,0.0,22.9,,,,,,124.0,2026-03-18 15:55:22-07:00
60.06,1.0,7.0,2026-03-18 22:56:22,37.08148,-121.59955,325.0,0.1,344.7,-12.6,,,,,22:56:21,10.9,-0.7,3.9,0.0,184.0,0.0,-0.01,1.0,99.0,-30.0,34.0,0.0,30.06,2496.0,,,42.0,,,,,0.0,0.0,,,,,,,,,,,,,,,,,,,1.0,27.0,1117.0,1117.0,23.7,0.9,,0.9,23.6,,,18.4,0.0,0.0,-0.2,6.8,5.3,,,,,29.0,68.0,29.0,59.0,29.0,61.0,29.0,58.0,,,12.0,3.4,,23.6,-1.0,4.998,,,1.525,1.39,1.1,26.7,,,,,,1117.0,2026-03-18 15:55:22-07:00
61.06,1.0,8.0,2026-03-18 22:56:23,37.08164,-121.59961,390.0,0.1,344.7,-12.6,,,,,22:56:22,10.9,-0.6,3.8,0.0,184.0,-0.0,-0.01,0.9,99.0,50.0,34.0,0.0,30.06,2496.0,,,42.0,,,,,0.0,0.0,,,,,,,,,,,,,,,,,,,7.0,28.0,1198.0,1198.0,17.3,1.5,,1.5,24.2,,,18.4,0.0,0.0,-0.2,6.8,5.3,,,,,29.0,137.0,29.0,126.0,29.0,127.0,30.0,118.0,,,12.0,2.9,,24.2,-1.0,4.998,,,1.473,1.19,6.8,27.6,,,,,,1198.0,2026-03-18 15:55:22-07:00
62.06,1.0,8.0,2026-03-18 22:56:24,37.08164,-121.5996,390.0,0.1,344.7,-12.6,,,,,22:56:23,10.9,-0.6,3.8,0.0,184.0,-0.0,-0.01,1.0,99.0,28.0,34.0,0.0,30.06,2506.0,,,42.0,,,,,0.0,0.0,,,,,,,,,,,,,,,,,,,17.0,28.0,1011.0,1011.0,14.5,1.9,,1.9,24.6,,,18.4,0.0,0.0,-0.2,6.8,5.3,,,,,29.0,195.0,30.0,178.0,30.0,183.0,31.0,171.0,,,12.0,2.4,,24.6,5.0,4.998,,,1.519,1.425,16.6,27.6,,,,,,1011.0,2026-03-18 15:55:22-07:00
63.06,1.0,8.0,2026-03-18 22:56:25,37.08164,-121.5996,390.0,0.1,344.7,-12.6,,,,,22:56:24,10.9,-0.5,3.9,0.0,184.0,0.0,-0.01,1.0,99.0,-5.0,34.0,0.0,30.06,2506.0,,,42.0,,,,,0.0,0.0,,,,,,,,,,,,,,,,,,,30.0,28.0,1003.0,1003.0,15.4,2.0,,2.0,24.5,,,18.4,0.0,0.0,-0.2,6.8,5.3,,,,,30.0,230.0,30.0,210.0,30.0,186.0,31.0,206.0,,,12.0,2.1,,24.5,4.0,4.998,,,1.525,1.387,29.6,27.5,,,,,,1003.0,2026-03-18 15:55:22-07:00
64.06,1.0,8.0,2026-03-18 22:56:26,37.08164,-121.5996,390.0,0.1,344.7,-12.6,,,,,22:56:25,10.8,-0.5,3.9,0.0,184.0,0.0,-0.01,1.0,99.0,-4.0,34.0,0.0,30.06,2518.0,,,42.0,,,,,0.0,0.0,,,,,,,,,,,,,,,,,,,47.0,27.0,1001.0,1001.0,14.7,2.2,,2.2,24.7,,,18.4,0.0,0.0,-0.2,6.8,5.3,,,,,30.0,261.0,30.0,245.0,30.0,229.0,32.0,239.0,,,12.0,1.9,,24.7,-1.0,4.998,,,1.525,1.389,46.9,27.5,,,,,,1001.0,2026-03-18 15:55:22-07:00
65.06,1.0,8.0,2026-03-18 22:56:27,37.08164,-121.5996,390.0,0.0,344.7,-12.6,,,,,22:56:26,10.8,-0.6,3.9,0.0,184.0,-0.0,-0.01,1.0,99.0,-17.0,34.0,0.0,30.06,2518.0,,,42.0,,,,,0.0,0.0,,,,,,,,,,,,,,,,,,,61.0,27.0,998.0,998.0,14.5,2.3,,2.3,24.8,,,18.4,0.0,0.0,-0.2,6.8,5.3,,,,,31.0,288.0,31.0,274.0,31.0,262.0,32.0,270.0,,,12.0,1.7,,24.8,0.0,4.998,,,1.525,1.392,61.1,27.5,,,,,,998.0,2026-03-18 15:55:22-07:00
66.06,1.0,8.0,2026-03-18 22:56:28,37.08164,-121.5996,390.0,0.0,344.7,-12.6,,,,,22:56:27,10.9,-0.6,3.9,0.0,184.0,-0.0,-0.01,0.9,99.0,-18.0,34.0,0.0,30.06,2529.0,,,42.0,,,,,0.0,0.0,,,,,,,,,,,,,,,,,,,67.0,27.0,970.0,970.0,14.5,2.3,,2.3,24.9,,,18.4,0.0,0.0,-0.2,6.8,5.3,,,,,31.0,313.0,31.0,302.0,31.0,288.0,32.0,297.0,,,12.0,1.5,,24.9,3.0,4.998,,,1.525,1.389,67.2,27.4,,,,,,970.0,2026-03-18 15:55:22-07:00
67.06,1.0,8.0,2026-03-18 22:56:29,37.08164,-121.5996,390.0,0.0,344.7,-12.6,,,,,22:56:28,10.9,-0.6,3.9,0.0,184.0,0.0,-0.01,1.0,99.0,-12.0,34.0,0.0,30.06,2529.0,,,42.0,,,,,0.0,0.0,,,,,,,,,,,,,,,,,,,69.0,29.0,952.0,952.0,14.6,2.3,,2.3,25.1,,,18.4,0.0,0.0,6.6,6.8,5.3,,,,,32.0,335.0,32.0,329.0,32.0,313.0,34.0,321.0,,,12.0,1.4,,25.1,-1.0,4.998,,,1.525,1.39,69.0,28.8,,,,,,952.0,2026-03-18 15:55:22-07:00
68.06,1.0,8.0,2026-03-18 22:56:30,37.08164,-121.59959,390.0,0.0,344.7,-12.6,,,,,22:56:29,10.9,-0.6,3.9,0.0,184.0,-0.0,-0.01,1.0,99.0,-4.0,35.0,0.0,30.06,2540.0,,,42.0,,,,,0.0,0.0,,,,,,,,,,,,,,,,,,,68.0,29.0,910.0,910.0,15.2,2.4,,2.4,25.2,,,18.4,0.0,0.0,28.5,6.8,5.3,,,,,32.0,353.0,32.0,351.0,32.0,332.0,34.0,340.0,,,12.0,1.3,,25.2,3.0,4.998,,,1.525,1.392,68.2,28.8,,,,,,910.0,2026-03-18 15:55:22-07:00
69.06,1.0,8.0,2026-03-18 22:56:31,37.08164,-121.59959,390.0,0.0,344.7,-12.6,,,,,22:56:30,10.9,-0.7,3.9,0.0,184.0,0.0,-0.01,1.0,99.0,34.0,35.0,0.0,30.06,2540.0,,,42.0,,,,,0.0,0.0,,,,,,,,,,,,,,,,,,,68.0,29.0,905.0,905.0,15.6,2.4,,2.4,25.3,,,18.4,0.0,0.0,40.8,6.8,5.3,,,,,33.0,369.0,32.0,369.0,33.0,350.0,35.0,355.0,,,12.0,1.2,,25.3,-1.0,4.998,,,1.525,1.39,67.6,28.8,,,,,,905.0,2026-03-18 15:55:22-07:00
70.06,1.0,8.0,2026-03-18 22:56:32,37.08164,-121.59959,390.0,0.0,344.7,-12.6,,,,,22:56:31,10.9,-0.7,3.8,0.0,184.0,0.0,-0.01,1.0,99.0,35.0,35.0,0.0,30.06,2552.0,,,42.0,,,,,0.0,0.0,,,,,,,-8.0,,,53.0,,,,,,,,,67.0,29.0,886.0,886.0,16.1,2.4,,2.4,25.3,,,18.4,0.0,0.0,47.6,6.8,5.3,,,,,33.0,386.0,33.0,386.0,33.0,366.0,35.0,371.0,,,12.0,1.2,,25.3,0.0,4.998,,,1.525,1.39,66.9,28.7,,,,,,886.0,2026-03-18 15:55:22-07:00
71.06,1.0,8.0,2026-03-18 22:56:33,37.08164,-121.59959,390.0,0.0,344.7,-12.6,,,,,22:56:32,10.9,-0.6,3.8,0.0,184.0,-0.0,-0.01,1.0,99.0,63.0,35.0,0.0,30.06,2552.0,,,42.0,,,,,0.0,0.0,,,,,,,-4.0,,,27.0,,,,,,,,,67.0,29.0,887.0,887.0,16.3,2.4,,2.4,25.4,,,18.4,0.0,0.0,51.4,6.8,5.3,,,,,34.0,401.0,34.0,401.0,34.0,379.0,36.0,384.0,,,12.0,1.1,,25.4,-1.0,4.998,,,1.525,1.39,66.6,28.7,,,,,,887.0,2026-03-18 15:55:22-07:00
72.06,1.0,8.0,2026-03-18 22:56:34,37.08164,-121.59959,389.0,0.0,344.7,-12.6,,,,,22:56:33,10.9,-0.6,3.8,0.0,184.0,-0.0,-0.01,1.0,99.0,56.0,35.0,0.0,30.06,2563.0,,,42.0,,,,,0.0,0.0,,,,,,,-2.0,,,18.0,,,,,,,,,67.0,29.0,886.0,886.0,16.2,2.4,,2.4,25.5,,,18.4,0.0,0.0,54.0,6.8,5.3,,,,,34.0,414.0,34.0,414.0,34.0,392.0,36.0,398.0,,,12.0,1.1,,25.5,0.0,4.998,,,1.525,1.39,66.7,28.7,,,,,,886.0,2026-03-18 15:55:22-07:00
73.06,1.0,8.0,2026-03-18 22:56:35,37.08164,-121.59959,389.0,0.1,344.7,-12.6,,,,,22:56:34,10.8,-0.5,3.8,0.0,184.0,-0.0,-0.01,1.0,99.0,5.0,35.0,0.0,30.06,2563.0,,,42.0,,,,,0.0,0.0,,,,,,,0.0,,,13.0,,,,,3.0,0.0,0.0,1200.0,67.0,29.0,917.0,917.0,16.1,2.4,,2.4,25.6,,,18.4,0.0,0.0,55.6,6.8,5.3,,,,,35.0,426.0,35.0,425.0,35.0,403.0,36.0,410.0,,,12.0,1.1,,25.6,0.0,4.998,,,1.525,1.389,67.0,28.7,,,,,,917.0,2026-03-18 15:55:22-07:00
74.06,1.0,8.0,2026-03-18 22:56:36,37.08164,-121.59959,389.0,0.0,344.7,-12.6,,,,,22:56:35,10.9,-0.6,3.8,0.0,184.0,-0.0,-0.01,1.0,99.0,35.0,35.0,0.0,30.06,2575.0,,,42.0,,,,,0.0,0.0,,,,,,,-9.0,,,0.0,,,,,1.0,0.0,0.0,1200.0,67.0,28.0,889.0,889.0,16.1,2.4,,2.4,25.6,,,18.4,0.0,0.0,54.2,6.8,5.3,,,,,35.0,436.0,35.0,437.0,35.0,413.0,37.0,420.0,,,12.0,1.0,,25.6,0.0,4.998,,,1.525,1.39,66.9,28.5,,,,,,889.0,2026-03-18 15:55:22-07:00
75.06,1.0,8.0,2026-03-18 22:56:37,37.08164,-121.59959,391.0,0.0,344.7,-12.6,,,,,22:56:36,10.8,-0.5,3.9,0.0,184.0,0.0,-0.01,1.0,99.0,29.0,35.0,0.0,30.06,2575.0,,,42.0,,,,,0.0,0.0,,,,,,,-4.0,,,10.0,,,,,1.0,0.0,0.0,1200.0,67.0,28.0,936.0,936.0,15.9,2.4,,2.4,25.7,,,18.4,0.0,0.0,48.2,6.8,5.3,,,,,35.0,446.0,35.0,446.0,35.0,421.0,37.0,429.0,,,12.0,1.0,,25.7,0.0,4.998,,,1.525,1.39,67.4,28.3,,,,,,936.0,2026-03-18 15:55:22-07:00
76.06,1.0,8.0,2026-03-18 22:56:38,37.08164,-121.59959,390.0,0.0,344.7,-12.6,,,,,22:56:37,10.8,-0.5,3.9,0.0,184.0,0.0,-0.01,1.0,99.0,-28.0,35.0,0.0,30.06,2586.0,,,42.0,,,,,0.0,0.0,,,,,,,-3.0,,,9.0,,,,,,,,,68.0,28.0,943.0,943.0,15.7,2.4,,2.4,25.7,,,18.4,0.0,0.0,41.6,6.8,5.3,,,,,35.0,455.0,35.0,455.0,35.0,429.0,38.0,438.0,,,12.0,1.0,,25.7,0.0,4.998,,,1.525,1.39,67.8,28.1,,,,,,943.0,2026-03-18 15:55:22-07:00
77.06,1.0,8.0,2026-03-18 22:56:39,37.08164,-121.59959,390.0,0.1,344.7,-12.6,,,,,22:56:38,10.9,-0.6,3.9,0.0,184.0,-0.0,-0.01,1.0,99.0,-6.0,35.0,0.0,30.06,2586.0,,,42.0,,,,,0.0,0.0,,,,,,,-2.0,,,4.0,,,,,,,,,68.0,28.0,961.0,961.0,15.3,2.4,,2.4,25.8,,,18.4,0.0,0.0,35.4,6.8,5.3,,,,,36.0,463.0,36.0,465.0,36.0,436.0,38.0,446.0,,,12.0,1.0,,25.8,0.0,4.998,,,1.525,1.39,68.3,28.0,,,,,,961.0,2026-03-18 15:55:22-07:00
78.06,1.0,8.0,2026-03-18 22:56:40,37.08164,-121.59959,389.0,0.0,344.7,-12.6,,,,,22:56:39,10.9,-0.6,3.9,0.0,184.0,0.0,-0.01,1.0,99.0,18.0,35.0,0.0,30.06,2586.0,,,42.0,,,,,0.0,0.0,,,,,,,-1.0,,,1.0,,,,,,,,,68.0,28.0,958.0,958.0,15.3,2.4,,2.4,25.8,,,18.4,0.0,0.0,30.1,6.8,5.3,,,,,36.0,470.0,36.0,473.0,36.0,444.0,39.0,453.0,,,12.0,1.0,,25.8,0.0,4.998,,,1.525,1.389,68.4,27.9,,,,,,958.0,2026-03-18 15:55:22-07:00
79.06,1.0,8.0,2026-03-18 22:56:41,37.08164,-121.59959,389.0,0.0,344.7,-12.6,,,,,22:56:40,10.9,-0.5,4.0,0.0,184.0,0.0,-0.01,1.0,99.0,-20.0,35.0,0.0,30.06,2598.0,,,42.0,,,,,0.0,0.0,,,,,,,0.0,,,0.0,,,,,,,,,69.0,28.0,949.0,949.0,15.1,2.4,,2.4,25.9,,,18.4,0.0,0.0,25.7,6.8,5.3,,,,,36.0,476.0,36.0,480.0,37.0,450.0,39.0,460.0,,,12.0,1.0,,25.9,0.0,4.998,,,1.525,1.39,68.6,27.9,,,,,,949.0,2026-03-18 15:55:22-07:00
80.06,1.0,8.0,2026-03-18 22:56:42,37.08164,-121.59959,388.0,0.0,344.7,-12.6,,,,,22:56:41,10.9,-0.6,3.9,0.0,184.0,0.0,-0.01,1.0,99.0,17.0,35.0,0.0,30.06,2598.0,,,42.0,,,,,0.0,0.0,,,,,,,1.0,,,-1.0,,,,,,,,,68.0,28.0,947.0,947.0,15.0,2.4,,2.4,25.9,,,18.4,0.0,0.0,22.4,6.8,5.3,,,,,37.0,482.0,37.0,487.0,37.0,456.0,40.0,467.0,,,12.0,1.0,,25.9,0.0,4.998,,,1.525,1.389,68.4,27.8,,,,,,947.0,2026-03-18 15:55:22-07:00
81.06,1.0,8.0,2026-03-18 22:56:43,37.08163,-121.59959,388.0,0.0,344.7,-12.6,,,,,22:56:42,10.9,-0.6,4.0,0.0,184.0,0.0,-0.01,1.0,99.0,-2.0,35.0,0.0,30.06,2598.0,,,42.0,,,,,0.0,0.0,,,,,,,1.0,,,-2.0,,,,,,,,,69.0,28.0,1027.0,1027.0,15.0,2.3,,2.3,26.1,,,18.4,0.0,0.0,19.8,6.8,5.3,,,,,37.0,488.0,37.0,493.0,37.0,462.0,40.0,474.0,,,12.0,1.0,,26.1,0.0,4.998,,,1.525,1.39,69.0,27.8,,,,,,1027.0,2026-03-18 15:55:22-07:00
82.06,1.0,8.0,2026-03-18 22:56:44,37.08163,-121.59959,387.0,0.0,344.7,-12.6,,,,,22:56:43,10.9,-0.6,3.9,0.0,184.0,-0.0,-0.02,1.0,99.0,15.0,35.0,0.0,30.06,2609.0,,,42.0,,,,,0.0,0.0,,,,,,,1.0,,,-2.0,,,,,,,,,71.0,28.0,1047.0,1047.0,13.7,2.2,,2.2,26.2,,,18.4,0.0,0.0,17.6,6.8,5.3,,,,,37.0,494.0,37.0,497.0,38.0,471.0,41.0,482.0,,,12.0,1.0,,26.2,0.0,4.998,,,1.525,1.389,71.1,27.7,,,,,,1047.0,2026-03-18 15:55:22-07:00
83.06,1.0,8.0,2026-03-18 22:56:45,37.08163,-121.59959,387.0,0.0,344.7,-12.6,,,,,22:56:44,10.9,-0.5,3.9,0.0,184.0,-0.0,-0.01,0.9,99.0,-32.0,35.0,0.0,30.06,2609.0,,,42.0,,,,,0.0,0.0,,,,,,,2.0,,,-2.0,,,,,,,,,71.0,28.0,1033.0,1033.0,13.7,2.2,,2.2,26.2,,,18.4,0.0,0.0,15.9,6.8,5.3,,,,,38.0,501.0,38.0,503.0,38.0,480.0,41.0,491.0,,,12.0,1.0,,26.2,0.0,4.998,,,1.525,1.389,71.1,27.7,,,,,,1033.0,2026-03-18 15:55:22-07:00
84.06,1.0,8.0,2026-03-18 22:56:46,37.08163,-121.59959,386.0,0.1,344.7,-12.6,,,,,22:56:45,10.9,-0.5,3.9,0.0,184.0,-0.0,-0.01,1.0,99.0,-50.0,35.0,0.0,30.06,2609.0,,,42.0,,,,,0.0,0.0,,,,,,,2.0,,,-3.0,,,,,,,,,71.0,28.0,1057.0,1057.0,13.6,2.1,,2.1,26.2,,,18.4,0.0,0.0,14.5,6.8,5.3,,,,,38.0,505.0,39.0,509.0,39.0,489.0,42.0,500.0,,,12.0,1.0,,26.2,0.0,4.998,,,1.525,1.389,71.4,27.7,,,,,,1057.0,2026-03-18 15:55:22-07:00
85.06,1.0,8.0,2026-03-18 22:56:47,37.08163,-121.59959,384.0,0.0,344.7,-12.6,,,,,22:56:46,10.8,-0.5,4.0,0.0,184.0,-0.0,-0.01,1.0,99.0,-6.0,35.0,0.0,30.06,2621.0,,,42.0,,,,,0.0,0.0,,,,,,,2.0,,,-3.0,,,,,,,,,72.0,28.0,1052.0,1052.0,13.4,2.1,,2.1,26.2,,,18.4,0.0,0.0,13.0,6.8,5.3,,,,,39.0,508.0,39.0,515.0,39.0,498.0,43.0,506.0,,,12.0,1.0,,26.2,0.0,4.998,,,1.525,1.39,71.6,27.7,,,,,,1052.0,2026-03-18 15:55:22-07:00
86.06,1.0,8.0,2026-03-18 22:56:48,37.08163,-121.59959,384.0,0.0,344.7,-12.6,,,,,22:56:47,10.9,-0.5,3.9,0.0,184.0,-0.0,-0.01,1.0,99.0,-38.0,35.0,0.0,30.06,2621.0,,,42.0,,,,,0.0,0.0,,,,,,,2.0,,,-3.0,,,,,,,,,72.0,28.0,1078.0,1078.0,13.3,2.1,,2.1,26.3,,,18.4,0.0,0.0,11.8,6.8,5.3,,,,,39.0,513.0,39.0,520.0,40.0,506.0,43.0,514.0,,,12.0,1.0,,26.3,0.0,4.998,,,1.525,1.39,71.8,27.7,,,,,,1078.0,2026-03-18 15:55:22-07:00
87.06,1.0,9.0,2026-03-18 22:56:49,37.08166,-121.59959,403.0,0.0,344.7,-12.6,,,,,22:56:48,10.9,-0.6,3.9,0.0,184.0,-0.0,-0.01,1.0,99.0,-38.0,35.0,0.0,30.06,2632.0,,,42.0,,,,,0.0,0.0,,,,,,,2.0,,,-3.0,,,,,,,,,73.0,28.0,1089.0,1089.0,13.1,2.1,,2.1,26.3,,,18.4,0.0,0.0,10.9,6.8,5.3,,,,,39.0,516.0,40.0,524.0,41.0,512.0,44.0,521.0,,,12.0,0.0,,26.3,0.0,4.998,,,1.525,1.389,72.6,27.6,,,,,,1089.0,2026-03-18 15:55:22-07:00
88.06,1.0,9.0,2026-03-18 22:56:50,37.08165,-121.59959,396.0,0.0,344.7,-12.6,,,,,22:56:49,10.8,-0.6,3.8,0.0,184.0,-0.0,-0.01,1.0,99.0,4.0,35.0,0.0,30.06,2632.0,,,42.0,,,,,0.0,0.0,,,,,,,2.0,,,-3.0,,,,,,,,,73.0,28.0,1096.0,1096.0,13.1,2.1,,2.1,26.3,,,18.3,0.0,0.0,10.2,6.8,5.3,,,,,40.0,518.0,40.0,528.0,41.0,519.0,44.0,526.0,,,12.0,0.0,,26.3,0.0,4.998,,,1.525,1.39,72.7,27.6,,,,,,1096.0,2026-03-18 15:55:22-07:00
89.06,1.0,9.0,2026-03-18 22:56:51,37.08165,-121.59959,396.0,0.1,344.7,-12.6,,,,,22:56:50,10.8,-0.6,3.9,0.0,184.0,-0.0,-0.01,0.9,99.0,-8.0,35.0,0.0,30.06,2632.0,,,42.0,,,,,0.0,0.0,,,,,,,2.0,,,-3.0,,,,,,,,,73.0,28.0,1097.0,1097.0,13.0,2.1,,2.1,26.3,,,18.3,0.0,0.0,9.5,6.8,5.3,,,,,41.0,521.0,41.0,531.0,42.0,528.0,45.0,533.0,,,12.0,0.0,,26.3,0.0,4.998,,,1.525,1.39,72.8,27.6,,,,,,1097.0,2026-03-18 15:55:22-07:00
90.06,1.0,9.0,2026-03-18 22:56:52,37.08165,-121.59959,397.0,0.0,344.7,-12.6,,,,,22:56:51,10.8,-0.5,3.9,0.0,184.0,-0.0,-0.01,1.0,99.0,-27.0,35.0,0.0,30.06,2642.0,,,42.0,,,,,0.0,0.0,,,,,,,2.0,,,-3.0,,,,,,,,,72.0,28.0,1031.0,1031.0,12.7,2.1,,2.1,26.3,,,18.3,0.0,0.0,8.9,6.8,5.3,,,,,41.0,524.0,42.0,534.0,42.0,532.0,46.0,536.0,,,12.0,0.0,,26.3,0.0,4.998,,,1.525,1.389,72.2,27.6,,,,,,1031.0,2026-03-18 15:55:22-07:00
91.06,1.0,9.0,2026-03-18 22:56:53,37.08165,-121.59959,397.0,0.0,344.7,-12.6,,,,,22:56:52,10.8,-0.5,3.9,0.0,184.0,-0.0,-0.01,1.0,99.0,-9.0,35.0,0.0,30.06,2644.0,,,42.0,,,,,0.0,0.0,,,,,,,2.0,,,-3.0,,,,,,,,,70.0,28.0,977.0,977.0,12.8,2.0,,2.0,26.3,,,18.3,0.0,0.0,8.5,6.8,5.3,,,,,42.0,527.0,42.0,536.0,43.0,534.0,46.0,541.0,,,12.0,0.0,,26.3,0.0,4.998,,,1.525,1.39,70.1,27.6,,,,,,977.0,2026-03-18 15:55:22-07:00
92.06,1.0,9.0,2026-03-18 22:56:54,37.08165,-121.59959,398.0,0.1,344.7,-12.6,,,,,22:56:53,10.8,-0.5,3.9,0.0,184.0,0.0,-0.01,1.0,99.0,-33.0,35.0,0.0,30.06,2644.0,,,42.0,,,,,0.0,0.0,,,,,,,-3.0,,,-3.0,,,,,,,,,69.0,28.0,964.0,964.0,13.1,1.9,,1.9,26.3,,,18.3,0.0,0.0,8.2,6.8,5.3,,,,,42.0,528.0,43.0,539.0,43.0,536.0,47.0,542.0,,,12.0,0.0,,26.3,0.0,4.998,,,1.525,1.39,68.8,27.6,,,,,,964.0,2026-03-18 15:55:22-07:00
93.06,1.0,9.0,2026-03-18 22:56:55,37.08166,-121.59959,398.0,0.0,344.7,-12.6,,,,,22:56:54,10.8,-0.6,3.9,0.0,184.0,0.0,-0.01,1.0,99.0,-55.0,35.0,0.0,30.06,2644.0,,,42.0,,,,,0.0,0.0,,,,,,,-5.0,,,-4.0,,,,,,,,,68.0,28.0,962.0,962.0,13.2,1.9,,1.9,26.3,,,18.3,0.0,0.0,8.1,6.8,5.3,,,,,43.0,529.0,43.0,540.0,44.0,536.0,47.0,542.0,,,12.0,0.0,,26.3,0.0,4.998,,,1.525,1.39,68.3,27.6,,,,,,962.0,2026-03-18 15:55:22-07:00
94.06,1.0,9.0,2026-03-18 22:56:56,37.08166,-121.59959,399.0,0.0,344.7,-12.6,,,,,22:56:55,10.8,-0.7,3.9,0.0,184.0,0.0,-0.01,1.0,99.0,-17.0,36.0,0.0,30.06,2656.0,,,42.0,,,,,0.0,0.0,,,,,,,-2.0,,,-4.0,,,,,,,,,68.0,28.0,951.0,951.0,13.3,1.9,,1.9,26.3,,,18.3,0.0,0.0,8.1,6.8,5.3,,,,,43.0,530.0,44.0,542.0,44.0,537.0,48.0,545.0,,,12.0,0.0,,26.3,0.0,4.998,,,1.525,1.389,68.3,27.7,,,,,,951.0,2026-03-18 15:55:22-07:00
95.06,1.0,9.0,2026-03-18 22:56:57,37.08166,-121.59959,399.0,0.0,344.7,-12.6,,,,,22:56:56,10.8,-0.6,3.9,0.0,184.0,0.0,-0.01,1.0,99.0,-13.0,36.0,0.0,30.06,2656.0,,,42.0,,,,,0.0,0.0,,,,,,,0.0,,,-6.0,,,,,,,,,68.0,28.0,937.0,937.0,13.4,1.8,,1.8,26.3,,,18.3,0.0,0.0,8.0,6.8,5.3,,,,,44.0,532.0,44.0,543.0,45.0,538.0,48.0,545.0,,,12.0,0.0,,26.3,0.0,4.998,,,1.525,1.389,67.6,27.6,,,,,,937.0,2026-03-18 15:55:22-07:00
96.06,1.0,9.0,2026-03-18 22:56:58,37.08166,-121.5996,399.0,0.0,344.7,-12.6,,,,,22:56:57,10.9,-0.6,3.9,0.0,184.0,0.0,-0.01,1.0,99.0,-35.0,36.0,0.0,30.06,2667.0,,,42.0,,,,,0.0,0.0,,,,,,,1.0,,,-7.0,,,,,1.0,0.0,0.0,1200.0,68.0,28.0,945.0,945.0,13.6,1.8,,1.8,26.3,,,18.3,0.0,0.0,7.8,6.8,5.3,,,,,44.0,533.0,45.0,544.0,46.0,538.0,49.0,545.0,,,12.0,0.0,,26.3,0.0,4.998,,,1.525,1.39,67.7,27.6,,,,,,945.0,2026-03-18 15:55:22-07:00
97.06,1.0,9.0,2026-03-18 22:56:59,37.08166,-121.5996,399.0,0.0,344.7,-12.6,,,,,22:56:59,10.8,-0.6,3.8,0.0,184.0,-0.0,-0.01,1.0,99.0,8.0,36.0,0.0,30.06,2667.0,,,42.0,,,,,0.0,0.0,,,,,,,2.0,,,-8.0,,,,,1.0,0.0,0.0,1200.0,68.0,28.0,949.0,949.0,13.4,1.8,,1.8,26.3,,,18.3,0.0,0.0,7.7,6.8,5.3,,,,,45.0,534.0,45.0,546.0,46.0,538.0,50.0,547.0,,,12.0,0.0,,26.3,0.0,4.998,,,1.525,1.39,67.8,27.7,,,,,,949.0,2026-03-18 15:55:22-07:00
98.06,1.0,9.0,2026-03-18 22:57:00,37.08166,-121.5996,398.0,0.0,344.7,-12.6,,,,,22:56:59,10.8,-0.6,3.8,0.0,184.0,0.0,-0.01,1.0,99.0,-18.0,36.0,0.0,30.06,2667.0,,,42.0,,,,,0.0,0.0,,,,,,,2.0,,,-8.0,,,,,1.0,0.0,0.0,1200.0,68.0,28.0,942.0,942.0,13.4,1.8,,1.8,26.3,,,18.3,0.0,0.0,7.5,6.8,5.3,,,,,45.0,535.0,46.0,548.0,47.0,538.0,50.0,548.0,,,12.0,0.0,,26.3,0.0,4.998,,,1.525,1.39,67.7,27.7,,,,,,942.0,2026-03-18 15:55:22-07:00
99.06,1.0,9.0,2026-03-18 22:57:01,37.08166,-121.5996,398.0,0.0,344.7,-12.6,,,,,22:57:00,10.9,-0.6,3.8,0.0,184.0,-0.0,-0.01,1.0,99.0,-25.0,36.0,0.0,30.06,2677.0,,,42.0,,,,,0.0,0.0,,,,,,,2.0,,,-8.0,,,,,1.0,0.0,0.0,1200.0,68.0,28.0,961.0,961.0,13.3,1.8,,1.8,26.3,,,18.3,0.0,0.0,7.5,6.8,5.3,,,,,46.0,535.0,46.0,550.0,47.0,539.0,51.0,550.0,,,12.0,0.0,,26.3,0.0,4.998,,,1.525,1.39,67.8,27.7,,,,,,961.0,2026-03-18 15:55:22-07:00
100.06,1.0,9.0,2026-03-18 22:57:02,37.08167,-121.5996,398.0,0.0,344.7,-12.6,,,,,22:57:01,10.9,-0.6,3.8,0.0,184.0,-0.0,-0.01,1.0,99.0,42.0,36.0,0.0,30.06,2677.0,,,42.0,,,,,0.0,0.0,,,,,,,2.0,,,-9.0,,,,,1.0,0.0,0.0,1200.0,68.0,28.0,966.0,966.0,13.2,1.8,,1.8,26.3,,,18.3,0.0,0.0,7.3,6.8,5.3,,,,,46.0,536.0,47.0,550.0,48.0,541.0,51.0,552.0,,,12.0,0.0,,26.3,0.0,4.998,,,1.525,1.39,68.1,27.7,,,,,,966.0,2026-03-18 15:55:22-07:00
101.06,1.0,9.0,2026-03-18 22:57:03,37.08167,-121.5996,397.0,0.0,344.7,-12.6,,,,,22:57:02,10.8,-0.6,3.8,0.0,184.0,0.0,-0.01,1.0,99.0,23.0,36.0,0.0,30.06,2679.0,,,42.0,,,,,0.0,0.0,,,,,,,2.0,,,-9.0,,,,,1.0,0.0,0.0,1200.0,68.0,28.0,976.0,976.0,13.1,1.7,,1.7,26.3,,,18.3,0.0,0.0,7.2,6.8,5.3,,,,,47.0,538.0,47.0,550.0,48.0,541.0,52.0,554.0,,,12.0,0.0,,26.3,0.0,4.998,,,1.523,1.39,68.3,27.7,,,,,,976.0,2026-03-18 15:55:22-07:00
102.06,1.0,9.0,2026-03-18 22:57:04,37.08167,-121.59961,396.0,0.0,344.7,-12.6,,,,,22:57:03,10.8,-0.6,3.9,0.0,184.0,0.0,-0.01,1.0,99.0,13.0,36.0,0.0,30.06,2679.0,,,42.0,,,,,0.0,0.0,,,,,,,2.0,,,-9.0,,,,,1.0,0.0,0.0,1200.0,68.0,28.0,943.0,943.0,13.2,1.7,,1.7,26.3,,,18.3,0.0,0.0,7.1,6.8,5.3,,,,,47.0,540.0,48.0,551.0,49.0,544.0,52.0,555.0,,,12.0,0.0,,26.3,0.0,4.998,,,1.525,1.39,68.0,27.7,,,,,,943.0,2026-03-18 15:55:22-07:00
103.06,1.0,9.0,2026-03-18 22:57:05,37.08167,-121.59961,395.0,0.0,344.7,-12.6,,,,,22:57:04,10.8,-0.6,3.9,0.0,184.0,0.0,-0.01,1.0,99.0,-23.0,36.0,0.0,30.06,2679.0,,,42.0,,,,,0.0,0.0,,,,,,,-8.0,,,-9.0,,,,,1.0,0.0,0.0,1200.0,68.0,28.0,960.0,960.0,13.2,1.7,,1.7,26.3,,,18.3,0.0,0.0,7.0,6.8,5.3,,,,,48.0,541.0,48.0,552.0,49.0,546.0,53.0,556.0,,,12.0,0.0,,26.3,0.0,4.998,,,1.525,1.39,68.0,27.7,,,,,,960.0,2026-03-18 15:55:22-07:00
104.06,1.0,9.0,2026-03-18 22:57:06,37.08167,-121.59961,394.0,0.0,344.7,-12.6,,,,,22:57:05,10.7,-0.6,3.9,0.0,184.0,0.0,-0.01,1.0,99.0,9.0,36.0,0.0,30.06,2691.0,,,42.0,,,,,0.0,0.0,,,,,,,-4.0,,,-9.0,,,,,1.0,0.0,0.0,1200.0,68.0,28.0,968.0,968.0,13.1,1.7,,1.7,26.3,,,18.3,0.0,0.0,6.9,6.8,5.3,,,,,48.0,541.0,49.0,553.0,50.0,546.0,54.0,557.0,,,12.0,0.0,,26.3,0.0,4.998,,,1.525,1.39,68.2,27.7,,,,,,968.0,2026-03-18 15:55:22-07:00
105.06,1.0,9.0,2026-03-18 22:57:07,37.08167,-121.59961,393.0,0.0,344.7,-12.6,,,,,22:57:06,10.8,-0.6,3.9,0.0,184.0,0.0,-0.01,1.0,99.0,52.0,36.0,0.0,30.06,2691.0,,,42.0,,,,,0.0,0.0,,,,,,,-4.0,,,-9.0,,,,,1.0,0.0,0.0,1200.0,68.0,28.0,953.0,953.0,13.1,1.7,,1.7,26.3,,,18.3,0.0,0.0,6.8,6.8,5.3,,,,,49.0,543.0,49.0,553.0,50.0,549.0,54.0,557.0,,,12.0,0.0,,26.3,0.0,4.998,,,1.525,1.39,68.0,27.7,,,,,,953.0,2026-03-18 15:55:22-07:00
106.06,1.0,9.0,2026-03-18 22:57:08,37.08167,-121.59961,392.0,0.1,344.7,-12.6,,,,,22:57:07,10.8,-0.5,4.0,0.0,184.0,0.0,-0.01,1.0,99.0,22.0,36.0,0.0,30.06,2691.0,,,42.0,,,,,0.0,0.0,,,,,,,-3.0,,,-10.0,,,,,1.0,0.0,0.0,1200.0,68.0,28.0,954.0,954.0,13.2,1.7,,1.7,26.3,,,18.3,0.0,0.0,6.7,6.8,5.3,,,,,49.0,545.0,50.0,553.0,51.0,549.0,55.0,561.0,,,12.0,0.0,,26.3,0.0,4.998,,,1.525,1.39,68.0,27.7,,,,,,954.0,2026-03-18 15:55:22-07:00
107.06,1.0,9.0,2026-03-18 22:57:09,37.08167,-121.59961,391.0,0.0,344.7,-12.6,,,,,22:57:08,10.8,-0.5,4.0,0.0,184.0,0.0,-0.01,1.0,99.0,58.0,36.0,0.0,30.06,2701.0,,,42.0,,,,,0.0,0.0,,,,,,,-1.0,,,-10.0,,,,,1.0,0.0,0.0,1200.0,68.0,28.0,984.0,984.0,13.0,1.7,,1.7,26.3,,,18.3,0.0,0.0,6.7,6.8,5.3,,,,,50.0,547.0,51.0,554.0,52.0,550.0,55.0,562.0,,,12.0,0.0,,26.3,0.0,4.998,,,1.525,1.39,68.3,27.7,,,,,,984.0,2026-03-18 15:55:22-07:00
108.06,1.0,9.0,2026-03-18 22:57:10,37.08167,-121.59961,390.0,0.0,344.7,-12.6,,,,,22:57:09,10.8,-0.6,3.9,0.0,184.0,0.0,-0.01,0.9,99.0,29.0,36.0,0.0,30.06,2703.0,,,42.0,,,,,0.0,0.0,,,,,,,0.0,,,-10.0,,,,,1.0,0.0,0.0,1200.0,68.0,28.0,982.0,982.0,12.9,1.7,,1.7,26.3,,,18.3,0.0,0.0,6.6,6.8,5.3,,,,,50.0,547.0,51.0,554.0,52.0,551.0,56.0,562.0,,,12.0,0.0,,26.3,0.0,4.998,,,1.525,1.39,68.4,27.8,,,,,,982.0,2026-03-18 15:55:22-07:00
109.06,1.0,9.0,2026-03-18 22:57:11,37.08167,-121.59961,388.0,0.0,344.7,-12.6,,,,,22:57:10,10.9,-0.6,3.9,0.0,184.0,-0.0,-0.02,1.0,99.0,9.0,36.0,0.0,30.06,2703.0,,,42.0,,,,,0.0,0.0,,,,,,,0.0,,,-10.0,,,,,1.0,0.0,0.0,1200.0,68.0,28.0,968.0,968.0,13.0,1.7,,1.7,26.3,,,18.3,0.0,0.0,6.5,6.8,5.3,,,,,51.0,549.0,52.0,556.0,53.0,551.0,57.0,558.0,,,12.0,0.0,,26.3,0.0,4.998,,,1.525,1.39,68.1,27.8,,,,,,968.0,2026-03-18 15:55:22-07:00
110.06,1.0,9.0,2026-03-18 22:57:12,37.08167,-121.59961,387.0,0.0,344.7,-12.6,,,,,22:57:11,10.8,-0.6,3.9,0.0,184.0,-0.0,-0.01,1.0,99.0,19.0,36.0,0.0,30.06,2703.0,,,42.0,,,,,0.0,0.0,,,,,,,1.0,,,-10.0,,,,,1.0,1.0,0.0,1200.0,68.0,28.0,976.0,976.0,13.0,1.7,,1.7,26.3,,,18.3,0.0,0.0,6.5,6.8,5.3,,,,,51.0,550.0,52.0,556.0,53.0,553.0,57.0,563.0,,,12.0,0.0,,26.3,0.0,4.998,,,1.525,1.39,68.1,27.8,,,,,,976.0,2026-03-18 15:55:22-07:00
111.06,1.0,9.0,2026-03-18 22:57:13,37.08167,-121.59961,386.0,0.0,344.7,-12.6,,,,,22:57:12,10.8,-0.5,4.0,0.0,184.0,0.0,-0.01,1.0,99.0,2.0,36.0,0.0,30.06,2712.0,,,42.0,,,,,0.0,0.0,,,,,,,1.0,,,-10.0,,,,,1.0,0.0,0.0,1200.0,68.0,28.0,970.0,970.0,13.0,1.6,,1.6,26.3,,,18.3,0.0,0.0,6.4,6.8,5.3,,,,,52.0,550.0,53.0,558.0,54.0,556.0,58.0,563.0,,,12.0,0.0,,26.3,0.0,4.998,,,1.525,1.39,68.0,27.8,,,,,,970.0,2026-03-18 15:55:22-07:00
112.06,1.0,9.0,2026-03-18 22:57:14,37.08167,-121.59961,385.0,0.1,344.7,-12.6,,,,,22:57:13,10.9,-0.5,4.1,0.0,184.0,0.0,-0.01,1.0,99.0,8.0,36.0,0.0,30.06,2714.0,,,42.0,,,,,0.0,0.0,,,,,,,2.0,,,-10.0,,,,,1.0,0.0,0.0,1200.0,68.0,28.0,972.0,972.0,13.0,1.7,,1.7,26.3,,,18.3,0.0,0.0,6.3,6.8,5.3,,,,,52.0,551.0,53.0,558.0,54.0,555.0,58.0,565.0,,,12.0,0.0,,26.3,0.0,4.998,,,1.525,1.39,68.2,27.8,,,,,,972.0,2026-03-18 15:55:22-07:00
113.06,1.0,9.0,2026-03-18 22:57:15,37.08167,-121.59961,384.0,0.0,344.7,-12.6,,,,,22:57:14,10.8,-0.5,4.1,0.0,184.0,0.0,-0.01,1.0,99.0,28.0,36.0,0.0,30.06,2714.0,,,42.0,,,,,0.0,0.0,,,,,,,-8.0,,,18.0,,,,,1.0,0.0,0.0,1200.0,68.0,28.0,979.0,979.0,12.9,1.6,,1.6,26.3,,,18.3,0.0,0.0,6.2,6.8,5.3,,,,,53.0,552.0,54.0,559.0,55.0,557.0,59.0,568.0,,,12.0,0.0,,26.3,0.0,4.998,,,1.523,1.124,68.4,27.8,,,,,,979.0,2026-03-18 15:55:22-07:00
114.06,1.0,9.0,2026-03-18 22:57:16,37.08169,-121.59966,360.0,0.0,344.7,-12.6,,,,,22:57:15,10.8,-0.4,4.1,0.0,184.0,0.0,-0.01,1.0,99.0,4.0,36.0,0.0,30.06,2714.0,,,42.0,,,,,0.0,0.0,,,,,,,-7.0,,,18.0,,,,,1.0,0.0,0.0,1200.0,68.0,28.0,959.0,959.0,13.0,1.6,,1.6,26.3,,,18.3,0.0,0.0,6.2,6.8,5.3,,,,,53.0,554.0,55.0,560.0,55.0,557.0,60.0,569.0,,,6.0,0.0,,26.3,0.0,4.998,,,1.525,1.281,68.2,27.8,,,,,,959.0,2026-03-18 15:55:22-07:00
115.06,1.0,9.0,2026-03-18 22:57:17,37.08168,-121.59966,361.0,0.0,344.7,-12.6,,,,,22:57:16,10.8,-0.5,4.1,0.0,184.0,0.0,-0.01,1.0,99.0,-12.0,36.0,0.0,30.06,2724.0,,,42.0,,,,,0.0,0.0,,,,,,,-6.0,,,18.0,,,,,1.0,0.0,0.0,1200.0,68.0,28.0,980.0,980.0,13.1,1.6,,1.6,26.3,,,18.3,0.0,0.0,6.2,6.8,5.3,,,,,54.0,555.0,55.0,560.0,56.0,558.0,60.0,571.0,,,-6.0,0.0,,26.3,0.0,4.998,,,1.525,1.39,68.1,27.9,,,,,,980.0,2026-03-18 15:55:22-07:00
116.06,1.0,9.0,2026-03-18 22:57:18,37.08168,-121.59966,363.0,0.0,344.7,-12.6,,,,,22:57:17,10.8,-0.5,4.1,0.0,184.0,0.0,-0.01,1.0,99.0,9.0,36.0,0.0,30.06,2726.0,,,42.0,,,,,0.0,0.0,,,,,,,-6.0,,,18.0,,,,,1.0,0.0,0.0,1200.0,68.0,28.0,968.0,968.0,13.0,1.6,,1.6,26.2,,,18.3,0.0,0.0,6.1,6.8,5.3,,,,,55.0,557.0,55.0,560.0,56.0,556.0,61.0,570.0,,,-18.0,0.0,,26.2,0.0,4.998,,,1.525,1.39,68.0,27.9,,,,,,968.0,2026-03-18 15:55:22-07:00
117.06,1.0,9.0,2026-03-18 22:57:19,37.08168,-121.59965,363.0,0.1,344.7,-12.6,,,,,22:57:18,10.8,-0.5,4.1,0.0,184.0,0.0,-0.01,1.0,99.0,-2.0,36.0,0.0,30.06,2726.0,,,42.0,,,,,0.0,0.0,,,,,,,-6.0,,,17.0,,,,,1.0,0.0,0.0,1200.0,68.0,28.0,971.0,971.0,13.0,1.6,,1.6,26.2,,,18.3,0.0,0.0,6.1,6.8,5.3,,,,,55.0,558.0,56.0,561.0,57.0,554.0,61.0,574.0,,,-27.0,0.0,,26.2,0.0,4.998,,,1.525,1.39,68.1,27.9,,,,,,971.0,2026-03-18 15:55:22-07:00
118.06,1.0,9.0,2026-03-18 22:57:20,37.08168,-121.59965,363.0,0.1,344.7,-12.6,,,,,22:57:19,10.8,-0.6,4.0,0.0,184.0,0.0,-0.01,1.0,99.0,18.0,36.0,0.0,30.06,2726.0,,,42.0,,,,,0.0,0.0,,,,,,,-6.0,,,17.0,,,,,1.0,0.0,0.0,1200.0,68.0,28.0,976.0,976.0,12.9,1.6,,1.6,26.2,,,18.3,0.0,0.0,6.0,6.8,5.3,,,,,55.0,558.0,57.0,563.0,58.0,557.0,62.0,574.0,,,-25.0,0.0,,26.2,0.0,4.998,,,1.525,1.39,68.1,27.9,,,,,,976.0,2026-03-18 15:55:22-07:00
119.06,1.0,8.0,2026-03-18 22:57:21,37.08168,-121.59963,358.0,0.0,344.7,-12.6,,,,,22:57:20,10.8,-0.6,4.0,0.0,184.0,0.0,-0.01,0.9,99.0,-6.0,36.0,0.0,30.06,2736.0,,,42.0,,,,,0.0,0.0,,,,,,,-6.0,,,16.0,,,,,1.0,0.0,0.0,1200.0,68.0,28.0,970.0,970.0,13.0,1.6,,1.6,26.2,,,18.3,0.0,0.0,5.9,6.8,5.3,,,,,56.0,559.0,57.0,565.0,58.0,557.0,63.0,577.0,,,-25.0,0.0,,26.2,0.0,4.998,,,1.525,1.39,68.0,27.9,,,,,,970.0,2026-03-18 15:55:22-07:00
120.06,1.0,8.0,2026-03-18 22:57:22,37.08168,-121.59964,362.0,0.0,344.7,-12.6,,,,,22:57:21,10.8,-0.7,3.9,0.0,184.0,0.0,-0.01,1.0,99.0,-26.0,36.0,0.0,30.06,2736.0,,,42.0,,,,,0.0,0.0,,,,,,,-5.0,,,16.0,,,,,1.0,0.0,0.0,1200.0,68.0,28.0,985.0,985.0,13.0,1.6,,1.6,26.3,,,18.3,0.0,0.0,5.8,6.8,5.3,,,,,56.0,560.0,58.0,565.0,59.0,560.0,63.0,576.0,,,-25.0,0.0,,26.3,1.0,4.998,,,1.525,1.39,68.2,27.9,,,,,,985.0,2026-03-18 15:55:22-07:00
121.06,1.0,8.0,2026-03-18 22:57:23,37.08169,-121.59964,365.0,0.1,344.7,-12.6,,,,,22:57:22,10.7,-0.6,3.9,0.0,184.0,0.0,-0.01,1.0,99.0,-18.0,36.0,0.0,30.06,2738.0,,,42.0,,,,,0.0,0.0,,,,,,,-5.0,,,16.0,,,,,1.0,0.0,0.0,1200.0,68.0,28.0,990.0,990.0,12.9,1.6,,1.6,26.3,,,18.3,0.0,0.0,5.8,6.8,5.3,,,,,57.0,560.0,58.0,566.0,60.0,561.0,64.0,579.0,,,-25.0,0.0,,26.3,1.0,4.998,,,1.525,1.39,68.3,27.9,,,,,,990.0,2026-03-18 15:55:22-07:00
122.06,1.0,8.0,2026-03-18 22:57:24,37.0817,-121.59964,367.0,0.1,344.7,-12.6,,,,,22:57:23,10.8,-0.6,3.9,0.0,184.0,0.0,-0.01,1.0,99.0,-45.0,36.0,0.0,30.06,2738.0,,,42.0,,,,,0.0,0.0,,,,,,,-4.0,,,16.0,,,,,1.0,0.0,0.0,1200.0,68.0,28.0,956.0,956.0,12.8,1.6,,1.6,26.2,,,18.3,0.0,0.0,5.7,6.8,5.3,,,,,58.0,561.0,59.0,568.0,60.0,564.0,64.0,578.0,,,-25.0,0.0,,26.2,1.0,4.998,,,1.525,1.39,68.0,28.0,,,,,,956.0,2026-03-18 15:55:22-07:00
123.06,1.0,8.0,2026-03-18 22:57:25,37.0817,-121.59964,369.0,0.0,344.7,-12.6,,,,,22:57:24,10.8,-0.6,3.9,0.0,184.0,0.0,-0.01,1.0,99.0,-52.0,36.0,0.0,30.06,2738.0,,,42.0,,,,,0.0,0.0,,,,,,,-4.0,,,16.0,,,,,1.0,0.0,0.0,1200.0,68.0,28.0,967.0,967.0,12.8,1.6,,1.6,26.2,,,18.3,0.0,0.0,5.7,6.8,5.3,,,,,58.0,562.0,59.0,566.0,60.0,564.0,65.0,576.0,,,-25.0,0.0,,26.2,1.0,4.998,,,1.525,1.39,68.1,28.0,,,,,,967.0,2026-03-18 15:55:22-07:00
124.06,1.0,8.0,2026-03-18 22:57:26,37.0817,-121.59965,371.0,0.1,344.7,-12.6,,,,,22:57:25,10.8,-0.5,4.0,0.0,184.0,0.0,-0.01,1.0,99.0,-26.0,36.0,0.0,30.06,2748.0,,,42.0,,,,,0.0,0.0,,,,,,,-4.0,,,15.0,,,,,1.0,0.0,0.0,1200.0,68.0,28.0,972.0,972.0,12.7,1.6,,1.6,26.2,,,18.3,0.0,0.0,5.6,6.8,5.3,,,,,58.0,563.0,60.0,567.0,61.0,564.0,65.0,576.0,,,-25.0,0.0,,26.2,0.0,4.998,,,1.525,1.39,68.1,28.0,,,,,,972.0,2026-03-18 15:55:22-07:00
125.06,1.0,8.0,2026-03-18 22:57:27,37.08171,-121.59965,372.0,0.0,344.7,-12.6,,,,,22:57:26,10.8,-0.5,4.0,0.0,184.0,0.0,-0.01,1.0,99.0,-9.0,36.0,0.0,30.06,2748.0,,,42.0,,,,,0.0,0.0,,,,,,,-4.0,,,15.0,,,,,1.0,0.0,0.0,1200.0,68.0,28.0,966.0,966.0,12.9,1.6,,1.6,26.2,,,18.3,0.0,0.0,5.6,6.8,5.3,,,,,59.0,564.0,61.0,567.0,62.0,567.0,66.0,575.0,,,-25.0,0.0,,26.2,1.0,4.998,,,1.525,1.39,67.6,28.0,,,,,,966.0,2026-03-18 15:55:22-07:00
126.06,1.0,8.0,2026-03-18 22:57:28,37.08171,-121.59965,374.0,0.0,344.7,-12.6,,,,,22:57:27,10.8,-0.5,4.0,0.0,184.0,0.0,-0.01,1.0,99.0,-24.0,36.0,0.0,30.06,2750.0,,,42.0,,,,,0.0,0.0,,,,,,,-4.0,,,15.0,,,,,1.0,0.0,0.0,1200.0,67.0,28.0,971.0,971.0,12.8,1.5,,1.5,26.2,,,18.3,0.0,0.0,5.5,6.8,5.3,,,,,60.0,565.0,61.0,568.0,62.0,566.0,67.0,573.0,,,-25.0,0.0,,26.2,1.0,4.998,,,1.525,1.39,67.5,28.0,,,,,,971.0,2026-03-18 15:55:22-07:00
127.06,1.0,8.0,2026-03-18 22:57:29,37.08171,-121.59965,375.0,0.1,344.7,-12.6,,,,,22:57:28,10.8,-0.5,4.0,0.0,184.0,0.0,-0.01,1.0,99.0,-62.0,36.0,0.0,30.06,2750.0,,,42.0,,,,,0.0,0.0,,,,,,,-4.0,,,15.0,,,,,1.0,0.0,0.0,1200.0,68.0,28.0,947.0,947.0,12.8,1.5,,1.5,26.2,,,18.3,0.0,0.0,5.5,6.8,5.3,,,,,60.0,567.0,62.0,568.0,63.0,570.0,67.0,575.0,,,-25.0,0.0,,26.2,1.0,4.998,,,1.525,1.39,67.5,28.0,,,,,,947.0,2026-03-18 15:55:22-07:00
128.06,1.0,7.0,2026-03-18 22:57:30,37.08156,-121.59959,314.0,0.0,344.7,-12.6,,,,,22:57:29,10.8,-0.5,4.1,0.0,184.0,0.0,-0.01,1.0,99.0,-38.0,36.0,0.0,30.06,2750.0,,,42.0,,,,,0.0,0.0,,,,,,,-4.0,,,15.0,,,,,1.0,0.0,0.0,1200.0,68.0,28.0,968.0,968.0,12.8,1.5,,1.5,26.2,,,18.3,0.0,0.0,5.5,6.8,5.3,,,,,61.0,568.0,62.0,568.0,63.0,570.0,68.0,574.0,,,-25.0,0.0,,26.2,1.0,4.998,,,1.525,1.39,67.6,28.1,,,,,,968.0,2026-03-18 15:55:22-07:00
129.06,1.0,7.0,2026-03-18 22:57:31,37.08156,-121.59959,314.0,0.0,344.7,-12.6,,,,,22:57:30,10.8,-0.5,4.1,0.0,183.0,0.0,-0.01,1.0,99.0,-75.0,36.0,0.0,30.06,2760.0,,,42.0,,,,,0.0,0.0,,,,,,,-4.0,,,15.0,,,,,1.0,0.0,0.0,1200.0,68.0,28.0,971.0,971.0,12.6,1.5,,1.5,26.2,,,18.3,0.0,0.0,5.4,6.9,5.3,,,,,61.0,568.0,62.0,569.0,64.0,573.0,68.0,574.0,,,-25.0,0.0,,26.2,1.0,4.998,,,1.525,1.39,67.7,28.1,,,,,,971.0,2026-03-18 15:55:22-07:00
130.06,1.0,7.0,2026-03-18 22:57:32,37.08156,-121.59959,313.0,0.0,344.7,-12.6,,,,,22:57:31,10.8,-0.5,4.1,0.0,182.0,0.0,-0.01,1.0,99.0,-73.0,36.0,0.0,30.06,2760.0,,,42.0,,,,,0.0,0.0,,,,,,,-4.0,,,13.0,,,,,1.0,0.0,0.0,1200.0,68.0,28.0,963.0,963.0,12.6,1.5,,1.5,26.2,,,18.3,0.0,0.0,5.3,6.9,5.3,,,,,62.0,568.0,63.0,570.0,64.0,572.0,69.0,571.0,,,-25.0,0.0,,26.2,1.0,4.998,,,1.525,1.39,67.7,28.1,,,,,,963.0,2026-03-18 15:55:22-07:00
131.06,1.0,7.0,2026-03-18 22:57:33,37.08156,-121.59959,313.0,0.0,344.7,-12.6,,,,,22:57:32,10.8,-0.5,4.0,0.0,182.0,0.0,-0.01,1.0,99.0,-45.0,36.0,0.0,30.06,2760.0,,,42.0,,,,,0.0,0.0,,,,,,,-3.0,,,12.0,,,,,1.0,0.0,0.0,1200.0,67.0,28.0,957.0,957.0,12.6,1.5,,1.5,26.2,,,18.3,0.0,0.0,5.4,6.9,5.3,,,,,62.0,570.0,64.0,571.0,65.0,572.0,70.0,573.0,,,-25.0,0.0,,26.2,1.0,4.998,,,1.525,1.392,67.5,28.1,,,,,,957.0,2026-03-18 15:55:22-07:00
132.06,1.0,7.0,2026-03-18 22:57:34,37.08156,-121.59959,313.0,0.0,344.7,-12.6,,,,,22:57:33,10.8,-0.5,3.9,0.0,181.0,0.0,-0.01,0.9,99.0,-32.0,36.0,0.0,30.06,2766.0,,,42.0,,,,,0.0,0.0,,,,,,,-1.0,,,10.0,,,,,1.0,0.0,0.0,1200.0,68.0,28.0,983.0,983.0,12.6,1.5,,1.5,26.2,,,18.3,0.0,0.0,5.3,6.9,5.3,,,,,63.0,571.0,65.0,571.0,66.0,572.0,70.0,573.0,,,-25.0,0.0,,26.2,1.0,4.998,,,1.525,1.39,67.8,28.1,,,,,,983.0,2026-03-18 15:55:22-07:00
133.06,2.0,8.0,2026-03-18 22:57:35,37.08168,-121.59964,364.0,0.0,344.7,-12.6,,,,,22:57:34,10.8,-0.6,3.9,0.0,181.0,-0.0,-0.01,1.0,99.0,-4.0,36.0,0.0,30.06,2766.0,,,42.0,,,,,0.0,0.0,,,,,,,-1.0,,,9.0,,,,,1.0,0.0,0.0,1200.0,67.0,28.0,951.0,951.0,12.6,1.5,,1.5,26.2,,,18.3,0.0,0.0,5.3,6.9,5.3,,,,,63.0,571.0,65.0,571.0,66.0,569.0,71.0,574.0,,,-25.0,0.0,,26.2,1.0,4.998,,,1.525,1.392,67.4,28.2,,,,,,951.0,2026-03-18 15:55:22-07:00
134.06,2.0,8.0,2026-03-18 22:57:36,37.08168,-121.59964,363.0,0.0,344.7,-12.6,,,,,22:57:35,10.8,-0.5,3.9,0.0,181.0,0.0,-0.01,0.9,99.0,4.0,36.0,0.0,30.06,2766.0,,,42.0,,,,,0.0,0.0,,,,,,,-1.0,,,44.0,,,,,1.0,0.0,0.0,1200.0,67.0,28.0,966.0,966.0,12.6,1.5,,1.5,26.2,,,18.3,0.0,0.0,5.2,6.9,5.3,,,,,64.0,571.0,65.0,571.0,66.0,569.0,71.0,570.0,,,-25.0,0.0,,26.2,1.0,4.998,,,1.525,1.39,67.3,28.2,,,,,,966.0,2026-03-18 15:55:22-07:00
135.06,2.0,9.0,2026-03-18 22:57:37,37.08163,-121.59959,334.0,0.0,344.7,-12.6,,,,,22:57:36,10.8,-0.6,3.9,0.0,181.0,-0.0,-0.01,0.9,99.0,2.0,36.0,0.0,30.06,2768.0,,,42.0,,,,,0.0,0.0,,,,,,,-1.0,,,25.0,,,,,1.0,0.0,0.0,1200.0,67.0,28.0,967.0,967.0,12.7,1.5,,1.5,26.2,,,18.3,0.0,0.0,5.2,6.9,5.3,,,,,64.0,571.0,66.0,572.0,67.0,574.0,72.0,571.0,,,-25.0,0.0,,26.2,1.0,4.998,,,1.525,1.39,67.2,28.2,,,,,,967.0,2026-03-18 15:55:22-07:00
136.06,2.0,9.0,2026-03-18 22:57:38,37.08164,-121.59959,335.0,0.0,344.7,-12.6,,,,,22:57:37,10.8,-0.7,3.9,0.0,181.0,-0.0,-0.01,1.0,99.0,15.0,37.0,0.0,30.01,2771.0,,,42.0,,,,,0.0,0.0,,,,,,,-1.0,,,25.0,,,,,1.0,0.0,0.0,1200.0,67.0,28.0,951.0,951.0,12.7,1.5,,1.5,26.2,,,18.3,0.0,0.0,5.2,6.9,5.3,,,,,65.0,571.0,67.0,573.0,68.0,573.0,73.0,572.0,,,-25.0,0.0,,26.2,1.0,4.998,,,1.525,1.39,67.2,28.2,,,,,,951.0,2026-03-18 15:55:22-07:00
137.06,2.0,9.0,2026-03-18 22:57:39,37.08164,-121.59959,336.0,0.0,344.7,-12.6,,,,,22:57:38,10.8,-0.6,3.9,0.0,181.0,-0.0,-0.01,1.0,99.0,39.0,37.0,0.0,30.01,2771.0,,,42.0,,,,,0.0,0.0,,,,,,,-1.0,,,24.0,,,,,1.0,0.0,0.0,1200.0,67.0,28.0,970.0,970.0,12.7,1.5,,1.5,26.2,,,18.3,0.0,0.0,5.1,6.9,5.3,,,,,65.0,570.0,67.0,575.0,68.0,573.0,73.0,570.0,,,-25.0,0.0,,26.2,1.0,4.998,,,1.525,1.39,67.3,28.2,,,,,,970.0,2026-03-18 15:55:22-07:00
138.06,2.0,9.0,2026-03-18 22:57:40,37.08164,-121.59959,336.0,0.0,344.7,-12.6,,,,,22:57:39,10.8,-0.6,3.9,0.0,181.0,-0.0,-0.01,1.0,99.0,-5.0,37.0,0.0,30.01,2771.0,,,42.0,,,,,0.0,0.0,,,,,,,-1.0,,,24.0,,,,,1.0,0.0,0.0,1200.0,68.0,28.0,973.0,973.0,12.6,1.5,,1.5,26.2,,,18.3,0.0,0.0,5.1,6.9,5.3,,,,,66.0,570.0,68.0,576.0,69.0,573.0,74.0,570.0,,,-25.0,0.0,,26.2,1.0,4.998,,,1.525,1.392,67.6,28.3,,,,,,973.0,2026-03-18 15:55:22-07:00
139.06,1.0,9.0,2026-03-18 22:57:41,37.08163,-121.59959,339.0,0.1,344.7,-12.6,,,,,22:57:40,10.8,-0.6,3.9,0.0,181.0,-0.0,-0.01,1.0,99.0,14.0,37.0,0.0,30.01,2780.0,,,42.0,,,,,0.0,0.0,,,,,,,-1.0,,,23.0,,,,,1.0,0.0,0.0,1200.0,67.0,28.0,975.0,975.0,12.5,1.5,,1.5,26.2,,,18.3,0.0,0.0,5.1,6.9,5.3,,,,,66.0,571.0,68.0,577.0,69.0,570.0,74.0,572.0,,,-25.0,0.0,,26.2,1.0,4.998,,,1.525,1.39,67.4,28.3,,,,,,975.0,2026-03-18 15:55:22-07:00
140.06,1.0,9.0,2026-03-18 22:57:42,37.08163,-121.59959,340.0,0.0,344.7,-12.6,,,,,22:57:41,10.8,-0.5,3.9,0.0,181.0,-0.0,-0.01,1.0,99.0,15.0,37.0,0.0,30.01,2780.0,,,42.0,,,,,0.0,0.0,,,,,,,-1.0,,,23.0,,,,,1.0,0.0,0.0,1200.0,68.0,28.0,971.0,971.0,12.5,1.5,,1.5,26.2,,,18.3,0.0,0.0,5.1,6.9,5.3,,,,,67.0,572.0,69.0,576.0,70.0,570.0,75.0,573.0,,,-25.0,0.0,,26.2,1.0,4.998,,,1.525,1.392,67.6,28.3,,,,,,971.0,2026-03-18 15:55:22-07:00
141.06,1.0,9.0,2026-03-18 22:57:43,37.08163,-121.59959,336.0,0.0,344.7,-12.6,,,,,22:57:42,10.8,-0.5,3.9,0.0,181.0,-0.0,-0.01,1.0,99.0,16.0,37.0,0.0,30.01,2780.0,,,42.0,,,,,0.0,0.0,,,,,,,-1.0,,,22.0,,,,,1.0,0.0,0.0,1200.0,67.0,28.0,962.0,962.0,12.5,1.5,,1.5,26.2,,,18.3,0.0,0.0,5.0,6.9,5.3,,,,,67.0,573.0,69.0,577.0,70.0,575.0,75.0,572.0,,,-25.0,0.0,,26.2,1.0,4.998,,,1.525,1.392,67.1,28.3,,,,,,962.0,2026-03-18 15:55:22-07:00
142.06,1.0,9.0,2026-03-18 22:57:44,37.08163,-121.59959,337.0,0.0,344.7,-12.6,,,,,22:57:43,10.8,-0.5,4.0,0.0,181.0,0.0,-0.01,1.0,99.0,2.0,37.0,0.0,30.01,2780.0,,,42.0,,,,,0.0,0.0,,,,,,,-1.0,,,22.0,,,,,1.0,0.0,0.0,1200.0,67.0,28.0,973.0,973.0,12.6,1.5,,1.5,26.2,,,18.3,0.0,0.0,5.0,6.9,5.3,,,,,68.0,573.0,70.0,577.0,71.0,574.0,76.0,572.0,,,-25.0,0.0,,26.2,1.0,4.998,,,1.525,1.392,67.5,28.4,,,,,,973.0,2026-03-18 15:55:22-07:00
