Session Time,GPS Fix Quality,Number of Satellites,GPS Date & Time,Latitude (deg),Longitude (deg),GPS Altitude (feet),Ground Speed (knots),Ground Track (deg),Mag Var (deg),Cross Track Error (NM),Destination Waypoint ID,Range to Destination (NM),Bearing to Destination (deg),System Time,Pitch (deg),Roll (deg),Magnetic Heading (deg),Indicated Airspeed (knots),Pressure Altitude (ft),Turn Rate (deg/s),Lateral Accel (g),Vertical Accel(g),Angle of Attack (%),Vertical Speed (ft/min),OAT (deg C),True Airspeed (knots),Barometer Setting (inHg),Density Altitude (ft),Wind Direction (deg),Wind Speed (knots),Heading Bug (deg),Altitude Bug (ft),Airspeed Bug (knots),Vertical Speed Bug (ft/min),Course (deg),CDI Source Type,CDI Source Port,CDI Scale (NM),CDI Deflection (%),Glideslope (%),AP Engaged,AP Roll Mode,AP Roll Force,AP Roll Position (steps),AP Roll Slip (bool),AP Pitch Force,AP Pitch Position (steps),AP Pitch Slip (bool),AP Yaw Force,AP Yaw Position,AP Yaw Slip (bool),Transponder Status,Transponder Reply (bool),Transponder Identing (bool),Transponder Code (octal),Oil Pressure (PSI),Oil Temp (deg C),RPM L,RPM R,Manifold Pressure (inHg),Fuel Flow 1 (gal/hr),Fuel Flow 2 (gal/hr),Total Fuel Flow (gal/hr),Fuel Pressure (PSI),Fuel Level L (gal),Fuel Level R (gal),Fuel Remaining (gal),Volts 1,Volts 2,Amps,Hobbs Time,Tach Time,Thermocouple 1 (deg C),Thermocouple 2 (deg C),Thermocouple 3 (deg C),Thermocouple 4 (deg C),CHT 4 (deg C),EGT 4 (deg C),CHT 3 (deg C),EGT 3 (deg C),CHT 2 (deg C),EGT 2 (deg C),CHT 1 (deg C),EGT 1 (deg C),Thermocouple 13 (deg C),Thermocouple 14 (deg C),ELEV POSITION (%),CO PPM PRESSURE (PSI),GP Input 3,FUEL PRESSURE (PSI),AILERN POSITION (%),CANOPY CONTACT (V),GP Input 7,GP Input 8,LEFT LEVEL (Sensor V),RIGHT LEVEL (Sensor V),OIL PRESSURE (PSI),OIL TEMPERATURE (deg C),GP Input 13,Contacts,Percent Power,EGT Leaning State,Unnamed: 103,RPM,AVG_CHT (deg C),CHT_Delta_T (deg C),OIL_Delta_T (deg C),OAT (deg F),Oil Temp (deg F),Thermocouple 1 (deg F),Thermocouple 2 (deg F),Thermocouple 3 (deg F),Thermocouple 4 (deg F),CHT 4 (deg F),EGT 4 (deg F),CHT 3 (deg F),EGT 3 (deg F),CHT 2 (deg F),EGT 2 (deg F),CHT 1 (deg F),EGT 1 (deg F),Thermocouple 13 (deg F),Thermocouple 14 (deg F),OIL TEMPERATURE (deg F),AVG_CHT (deg F),CHT_Delta_T (deg F),OIL_Delta_T (deg F),Fuel Flow Integral,Distance Traveled,MPG,Max CHT,Flight ID
6.06,1.0,9.0,2026-01-03 22:45:42,37.08166,-121.59954,316.0,0.1,171.1,-12.6,0.0,,0.0,0.0,0.0,11.4,0.6,229.5,0.0,328.0,-0.0,0.01,1.0,0.0,-43.0,17.0,0.0,29.88,651.0,0.0,0.0,325.0,0.0,0.0,0.0,0.0,0.0,0.0,0.0,0.0,0.0,0.0,0.0,0.0,0.0,0.0,0.0,0.0,0.0,0.0,0.0,0.0,0.0,0.0,0.0,0.0,0.0,15.0,0.0,0.0,30.0,0.0,0.0,0.0,0.0,0.0,0.0,38.7,0.0,0.0,-0.5,0.3,0.1,0.0,0.0,0.0,0.0,16.0,16.0,16.0,16.0,16.0,16.0,16.0,16.0,0.0,0.0,-2.0,254.4,0.0,0.0,2.0,4.998,0.0,0.0,0.659,0.907,0.0,15.3,0.0,0.0,0.0,,0.0,0.0,16.0,-1.0,-1.6999999999999993,62.6,59.0,32.0,32.0,32.0,32.0,60.8,60.8,60.8,60.8,60.8,60.8,60.8,60.8,32.0,32.0,59.540000000000006,60.8,30.2,28.94,0.0,0.0,0.0,285.8,2026-01-03 14:45:42-08:00
7.06,1.0,9.0,2026-01-03 22:45:43,37.08165,-121.59956,309.0,0.0,171.1,-12.6,0.0,,0.0,0.0,0.0,11.4,0.6,229.5,0.0,326.0,-0.0,0.01,1.0,0.0,-55.0,17.0,0.0,29.88,651.0,0.0,0.0,325.0,0.0,0.0,0.0,0.0,0.0,0.0,0.0,0.0,0.0,0.0,0.0,0.0,0.0,0.0,0.0,0.0,0.0,0.0,0.0,0.0,0.0,0.0,0.0,0.0,0.0,15.0,0.0,0.0,30.0,0.0,0.0,0.0,0.0,0.0,0.0,38.7,0.0,0.0,-0.5,0.3,0.1,0.0,0.0,0.0,0.0,16.0,16.0,16.0,16.0,16.0,16.0,16.0,16.0,0.0,0.0,-2.0,254.4,0.0,0.0,2.0,4.998,0.0,0.0,0.659,0.907,0.0,15.3,0.0,0.0,0.0,,0.0,0.0,16.0,-1.0,-1.6999999999999993,62.6,59.0,32.0,32.0,32.0,32.0,60.8,60.8,60.8,60.8,60.8,60.8,60.8,60.8,32.0,32.0,59.540000000000006,60.8,30.2,28.94,0.0,0.08433333333333333,0.0,285.8,2026-01-03 14:45:42-08:00
8.06,1.0,9.0,2026-01-03 22:45:44,37.08165,-121.59956,312.0,0.0,171.1,-12.6,0.0,,0.0,0.0,0.0,11.4,0.6,229.5,0.0,326.0,-0.0,0.01,1.0,0.0,-27.0,17.0,0.0,29.88,651.0,0.0,0.0,325.0,0.0,0.0,0.0,0.0,0.0,0.0,0.0,0.0,0.0,0.0,0.0,0.0,0.0,0.0,0.0,0.0,0.0,0.0,0.0,0.0,0.0,0.0,0.0,0.0,0.0,15.0,0.0,0.0,30.0,0.0,0.0,0.0,0.0,0.0,0.0,38.7,0.0,0.0,-0.5,0.3,0.1,0.0,0.0,0.0,0.0,16.0,16.0,16.0,16.0,16.0,16.0,16.0,16.0,0.0,0.0,-2.0,254.4,0.0,0.0,2.0,4.998,0.0,0.0,0.659,0.906,0.0,15.3,0.0,0.0,0.0,,0.0,0.0,16.0,-1.0,-1.6999999999999993,62.6,59.0,32.0,32.0,32.0,32.0,60.8,60.8,60.8,60.8,60.8,60.8,60.8,60.8,32.0,32.0,59.540000000000006,60.8,30.2,28.94,0.0,0.08433333333333333,0.0,285.8,2026-01-03 14:45:42-08:00
9.06,1.0,9.0,2026-01-03 22:45:45,37.08165,-121.59957,314.0,0.0,171.1,-12.6,0.0,,0.0,0.0,0.0,11.4,0.6,229.6,0.0,326.0,-0.0,0.01,1.0,0.0,-33.0,17.0,0.0,29.88,651.0,0.0,0.0,325.0,0.0,0.0,0.0,0.0,0.0,0.0,0.0,0.0,0.0,0.0,0.0,0.0,0.0,0.0,0.0,0.0,0.0,0.0,0.0,0.0,0.0,0.0,0.0,0.0,0.0,15.0,0.0,0.0,30.0,0.0,0.0,0.0,0.0,0.0,0.0,38.7,0.0,0.0,-0.5,0.3,0.1,0.0,0.0,0.0,0.0,16.0,16.0,16.0,16.0,16.0,16.0,16.0,16.0,0.0,0.0,-2.0,254.4,0.0,0.0,2.0,4.998,0.0,0.0,0.659,0.907,0.0,15.3,0.0,0.0,0.0,,0.0,0.0,16.0,-1.0,-1.6999999999999993,62.6,59.0,32.0,32.0,32.0,32.0,60.8,60.8,60.8,60.8,60.8,60.8,60.8,60.8,32.0,32.0,59.540000000000006,60.8,30.2,28.94,0.0,0.08433333333333333,0.0,285.8,2026-01-03 14:45:42-08:00
10.06,1.0,9.0,2026-01-03 22:45:46,37.08165,-121.59957,316.0,0.0,171.1,-12.6,0.0,,0.0,0.0,0.0,11.4,0.6,229.6,0.0,326.0,-0.0,0.01,1.0,0.0,-10.0,17.0,0.0,29.88,648.0,0.0,0.0,325.0,0.0,0.0,0.0,0.0,0.0,0.0,0.0,0.0,0.0,0.0,0.0,0.0,0.0,0.0,0.0,0.0,0.0,0.0,0.0,0.0,0.0,0.0,0.0,0.0,0.0,15.0,0.0,0.0,30.0,0.0,0.0,0.0,0.0,0.0,0.0,38.7,0.0,0.0,-0.5,0.3,0.1,0.0,0.0,0.0,0.0,16.0,16.0,16.0,16.0,16.0,16.0,16.0,16.0,0.0,0.0,-2.0,254.4,0.0,0.0,2.0,4.998,0.0,0.0,0.659,0.907,0.0,15.3,0.0,0.0,0.0,,0.0,0.0,16.0,-1.0,-1.6999999999999993,62.6,59.0,32.0,32.0,32.0,32.0,60.8,60.8,60.8,60.8,60.8,60.8,60.8,60.8,32.0,32.0,59.540000000000006,60.8,30.2,28.94,0.0,0.08433333333333333,0.0,285.8,2026-01-03 14:45:42-08:00
11.06,1.0,9.0,2026-01-03 22:45:47,37.08165,-121.59957,319.0,0.0,171.1,-12.6,0.0,,0.0,0.0,0.0,11.4,0.6,229.6,0.0,324.0,-0.0,0.01,1.0,0.0,-64.0,17.0,0.0,29.88,648.0,0.0,0.0,325.0,0.0,0.0,0.0,0.0,0.0,0.0,0.0,0.0,0.0,0.0,0.0,0.0,0.0,0.0,0.0,0.0,0.0,0.0,0.0,0.0,0.0,0.0,0.0,0.0,0.0,15.0,0.0,0.0,30.0,0.0,0.0,0.0,0.0,0.0,0.0,38.7,0.0,0.0,-0.6,0.3,0.1,0.0,0.0,0.0,0.0,16.0,16.0,16.0,16.0,16.0,16.0,16.0,16.0,0.0,0.0,-2.0,254.4,0.0,0.0,2.0,4.998,0.0,0.0,0.659,0.906,0.0,15.3,0.0,0.0,0.0,,0.0,0.0,16.0,-1.0,-1.6999999999999993,62.6,59.0,32.0,32.0,32.0,32.0,60.8,60.8,60.8,60.8,60.8,60.8,60.8,60.8,32.0,32.0,59.540000000000006,60.8,30.2,28.94,0.0,0.08433333333333333,0.0,285.8,2026-01-03 14:45:42-08:00
12.06,1.0,9.0,2026-01-03 22:45:48,37.08165,-121.59957,321.0,0.0,171.1,-12.6,0.0,,0.0,0.0,0.0,11.4,0.6,229.6,0.0,322.0,0.0,0.01,1.0,0.0,-87.0,17.0,0.0,29.88,648.0,0.0,0.0,325.0,0.0,0.0,0.0,0.0,0.0,0.0,0.0,0.0,0.0,0.0,0.0,0.0,0.0,0.0,0.0,0.0,0.0,0.0,0.0,0.0,0.0,0.0,0.0,0.0,0.0,15.0,0.0,0.0,30.0,0.0,0.0,0.0,0.0,0.0,0.0,38.7,0.0,0.0,-0.6,0.3,0.1,0.0,0.0,0.0,0.0,16.0,16.0,16.0,16.0,16.0,16.0,16.0,16.0,0.0,0.0,-2.0,254.4,0.0,0.0,2.0,4.998,0.0,0.0,0.659,0.907,0.0,15.3,0.0,0.0,0.0,,0.0,0.0,16.0,-1.0,-1.6999999999999993,62.6,59.0,32.0,32.0,32.0,32.0,60.8,60.8,60.8,60.8,60.8,60.8,60.8,60.8,32.0,32.0,59.540000000000006,60.8,30.2,28.94,0.0,0.08433333333333333,0.0,285.8,2026-01-03 14:45:42-08:00
13.06,1.0,9.0,2026-01-03 22:45:49,37.08165,-121.59957,323.0,0.0,171.1,-12.6,0.0,,0.0,0.0,0.0,11.4,0.6,229.6,0.0,322.0,0.0,0.01,1.0,0.0,-64.0,17.0,0.0,29.88,651.0,0.0,0.0,325.0,0.0,0.0,0.0,0.0,0.0,0.0,0.0,0.0,0.0,0.0,0.0,0.0,0.0,0.0,0.0,0.0,0.0,0.0,0.0,0.0,0.0,0.0,0.0,0.0,0.0,15.0,0.0,0.0,30.0,0.0,0.0,0.0,0.0,0.0,0.0,38.7,0.0,0.0,-0.6,0.3,0.1,0.0,0.0,0.0,0.0,16.0,16.0,16.0,16.0,16.0,16.0,16.0,16.0,0.0,0.0,-2.0,254.4,0.0,0.0,2.0,4.998,0.0,0.0,0.659,0.907,0.0,15.3,0.0,0.0,0.0,,0.0,0.0,16.0,-1.0,-1.6999999999999993,62.6,59.0,32.0,32.0,32.0,32.0,60.8,60.8,60.8,60.8,60.8,60.8,60.8,60.8,32.0,32.0,59.540000000000006,60.8,30.2,28.94,0.0,0.08433333333333333,0.0,285.8,2026-01-03 14:45:42-08:00
14.06,1.0,9.0,2026-01-03 22:45:50,37.08165,-121.59957,324.0,0.0,171.1,-12.6,0.0,,0.0,0.0,0.0,11.4,0.6,229.6,0.0,322.0,-0.0,0.01,1.0,0.0,-55.0,17.0,0.0,29.88,651.0,0.0,0.0,325.0,0.0,0.0,0.0,0.0,0.0,0.0,0.0,0.0,0.0,0.0,0.0,0.0,0.0,0.0,0.0,0.0,0.0,0.0,0.0,0.0,0.0,0.0,0.0,0.0,0.0,15.0,0.0,0.0,30.0,0.0,0.0,0.0,0.0,0.0,0.0,38.7,0.0,0.0,-0.6,0.3,0.1,0.0,0.0,0.0,0.0,16.0,16.0,16.0,16.0,16.0,16.0,16.0,16.0,0.0,0.0,-2.0,254.4,0.0,0.0,2.0,4.998,0.0,0.0,0.659,0.906,0.0,15.3,0.0,0.0,0.0,,0.0,0.0,16.0,-1.0,-1.6999999999999993,62.6,59.0,32.0,32.0,32.0,32.0,60.8,60.8,60.8,60.8,60.8,60.8,60.8,60.8,32.0,32.0,59.540000000000006,60.8,30.2,28.94,0.0,0.08433333333333333,0.0,285.8,2026-01-03 14:45:42-08:00
15.06,1.0,9.0,2026-01-03 22:45:51,37.08165,-121.59958,325.0,0.0,171.1,-12.6,0.0,,0.0,0.0,0.0,11.4,0.6,229.7,0.0,321.0,0.0,0.01,1.0,0.0,-45.0,17.0,0.0,29.88,650.0,0.0,0.0,325.0,0.0,0.0,0.0,0.0,0.0,0.0,0.0,0.0,0.0,0.0,0.0,0.0,0.0,0.0,0.0,0.0,0.0,0.0,0.0,0.0,0.0,0.0,0.0,0.0,0.0,15.0,0.0,0.0,30.0,0.0,0.0,0.0,0.0,0.0,0.0,38.7,0.0,0.0,-0.6,0.3,0.1,0.0,0.0,0.0,0.0,16.0,16.0,16.0,16.0,16.0,16.0,16.0,16.0,0.0,0.0,-2.0,254.4,0.0,0.0,2.0,4.998,0.0,0.0,0.659,0.905,0.0,15.3,0.0,0.0,0.0,,0.0,0.0,16.0,-1.0,-1.6999999999999993,62.6,59.0,32.0,32.0,32.0,32.0,60.8,60.8,60.8,60.8,60.8,60.8,60.8,60.8,32.0,32.0,59.540000000000006,60.8,30.2,28.94,0.0,0.08433333333333333,0.0,285.8,2026-01-03 14:45:42-08:00
16.06,1.0,9.0,2026-01-03 22:45:52,37.08165,-121.59958,326.0,0.0,171.1,-12.6,0.0,,0.0,0.0,0.0,11.4,0.6,229.6,0.0,321.0,-0.0,0.01,1.0,0.0,-19.0,17.0,0.0,29.88,650.0,0.0,0.0,325.0,0.0,0.0,0.0,0.0,0.0,0.0,0.0,0.0,0.0,0.0,0.0,0.0,0.0,0.0,0.0,0.0,0.0,0.0,0.0,0.0,0.0,0.0,0.0,0.0,0.0,15.0,0.0,0.0,30.0,0.0,0.0,0.0,0.0,0.0,0.0,38.7,0.0,0.0,-0.6,0.3,0.1,0.0,0.0,0.0,0.0,16.0,16.0,16.0,16.0,16.0,16.0,16.0,16.0,0.0,0.0,-2.0,254.4,0.0,0.0,2.0,4.998,0.0,0.0,0.659,0.905,0.0,15.3,0.0,0.0,0.0,,0.0,0.0,16.0,-1.0,-1.6999999999999993,62.6,59.0,32.0,32.0,32.0,32.0,60.8,60.8,60.8,60.8,60.8,60.8,60.8,60.8,32.0,32.0,59.540000000000006,60.8,30.2,28.94,0.0,0.08433333333333333,0.0,285.8,2026-01-03 14:45:42-08:00
17.06,1.0,9.0,2026-01-03 22:45:53,37.08165,-121.59958,327.0,0.0,171.1,-12.6,0.0,,0.0,0.0,0.0,11.3,0.6,229.6,0.0,321.0,-0.0,0.01,1.0,0.0,-3.0,17.0,0.0,29.88,650.0,0.0,0.0,325.0,0.0,0.0,0.0,0.0,0.0,0.0,0.0,0.0,0.0,0.0,0.0,0.0,0.0,0.0,0.0,0.0,0.0,0.0,0.0,0.0,0.0,0.0,0.0,0.0,0.0,15.0,0.0,0.0,30.0,0.0,0.0,0.0,0.0,0.0,0.0,38.7,0.0,0.0,-0.6,0.3,0.1,0.0,0.0,0.0,0.0,16.0,16.0,16.0,16.0,16.0,16.0,16.0,16.0,0.0,0.0,-2.0,254.4,0.0,0.0,2.0,4.998,0.0,0.0,0.659,0.905,0.0,15.3,0.0,0.0,0.0,,0.0,0.0,16.0,-1.0,-1.6999999999999993,62.6,59.0,32.0,32.0,32.0,32.0,60.8,60.8,60.8,60.8,60.8,60.8,60.8,60.8,32.0,32.0,59.540000000000006,60.8,30.2,28.94,0.0,0.08433333333333333,0.0,285.8,2026-01-03 14:45:42-08:00
18.06,1.0,9.0,2026-01-03 22:45:54,37.08165,-121.59958,329.0,0.0,171.1,-12.6,0.0,,0.0,0.0,0.0,11.3,0.6,229.6,0.0,321.0,0.0,0.01,1.0,0.0,6.0,17.0,0.0,29.88,651.0,0.0,0.0,325.0,0.0,0.0,0.0,0.0,0.0,0.0,0.0,0.0,0.0,0.0,0.0,0.0,0.0,0.0,0.0,0.0,0.0,0.0,0.0,0.0,0.0,0.0,0.0,0.0,0.0,15.0,0.0,0.0,30.0,0.0,0.0,0.0,0.0,0.0,0.0,38.7,0.0,0.0,-0.6,0.3,0.1,0.0,0.0,0.0,0.0,16.0,16.0,16.0,16.0,16.0,16.0,16.0,16.0,0.0,0.0,-2.0,254.4,0.0,0.0,2.0,4.998,0.0,0.0,0.659,0.905,0.0,15.3,0.0,0.0,0.0,,0.0,0.0,16.0,-1.0,-1.6999999999999993,62.6,59.0,32.0,32.0,32.0,32.0,60.8,60.8,60.8,60.8,60.8,60.8,60.8,60.8,32.0,32.0,59.540000000000006,60.8,30.2,28.94,0.0,0.08433333333333333,0.0,285.8,2026-01-03 14:45:42-08:00
19.06,1.0,9.0,2026-01-03 22:45:55,37.08165,-121.59958,331.0,0.0,171.1,-12.6,0.0,,0.0,0.0,0.0,11.3,0.6,229.6,0.0,321.0,0.0,0.01,1.0,0.0,-10.0,17.0,0.0,29.88,650.0,0.0,0.0,325.0,0.0,0.0,0.0,0.0,0.0,0.0,0.0,0.0,0.0,0.0,0.0,0.0,0.0,0.0,0.0,0.0,0.0,0.0,0.0,0.0,0.0,0.0,0.0,0.0,0.0,15.0,0.0,0.0,30.0,0.0,0.0,0.0,0.0,0.0,0.0,38.7,0.0,0.0,-0.6,0.3,0.1,0.0,0.0,0.0,0.0,16.0,16.0,16.0,16.0,16.0,16.0,16.0,16.0,0.0,0.0,-2.0,254.4,0.0,0.0,2.0,4.998,0.0,0.0,0.659,0.905,0.0,15.3,0.0,0.0,0.0,,0.0,0.0,16.0,-1.0,-1.6999999999999993,62.6,59.0,32.0,32.0,32.0,32.0,60.8,60.8,60.8,60.8,60.8,60.8,60.8,60.8,32.0,32.0,59.540000000000006,60.8,30.2,28.94,0.0,0.08433333333333333,0.0,285.8,2026-01-03 14:45:42-08:00
20.06,1.0,9.0,2026-01-03 22:45:56,37.08165,-121.59958,333.0,0.0,171.1,-12.6,0.0,,0.0,0.0,0.0,11.3,0.6,229.6,0.0,321.0,-0.0,0.01,1.0,0.0,24.0,17.0,0.0,29.88,650.0,0.0,0.0,325.0,0.0,0.0,0.0,0.0,0.0,0.0,0.0,0.0,0.0,0.0,0.0,0.0,0.0,0.0,0.0,0.0,0.0,0.0,0.0,0.0,0.0,0.0,0.0,0.0,0.0,15.0,0.0,0.0,30.0,0.0,0.0,0.0,0.0,0.0,0.0,38.7,0.0,0.0,-0.6,0.3,0.1,0.0,0.0,0.0,0.0,16.0,16.0,16.0,16.0,16.0,16.0,16.0,16.0,0.0,0.0,-2.0,254.4,0.0,0.0,2.0,4.998,0.0,0.0,0.659,0.902,0.0,15.3,0.0,0.0,0.0,,0.0,0.0,16.0,-1.0,-1.6999999999999993,62.6,59.0,32.0,32.0,32.0,32.0,60.8,60.8,60.8,60.8,60.8,60.8,60.8,60.8,32.0,32.0,59.540000000000006,60.8,30.2,28.94,0.0,0.08433333333333333,0.0,285.8,2026-01-03 14:45:42-08:00
21.06,1.0,9.0,2026-01-03 22:45:57,37.08165,-121.59959,334.0,0.0,171.1,-12.6,0.0,,0.0,0.0,0.0,11.3,0.6,229.6,0.0,321.0,-0.0,0.01,1.0,0.0,26.0,17.0,0.0,29.88,650.0,0.0,0.0,325.0,0.0,0.0,0.0,0.0,0.0,0.0,0.0,0.0,0.0,0.0,0.0,0.0,0.0,0.0,0.0,0.0,0.0,0.0,0.0,0.0,0.0,0.0,0.0,0.0,0.0,15.0,0.0,0.0,30.0,0.0,0.0,0.0,0.0,0.0,0.0,38.7,0.0,0.0,-0.6,0.3,0.1,0.0,0.0,0.0,0.0,16.0,16.0,16.0,16.0,16.0,16.0,16.0,16.0,0.0,0.0,-2.0,254.4,0.0,0.0,2.0,4.998,0.0,0.0,0.659,0.9,0.0,15.3,0.0,0.0,0.0,,0.0,0.0,16.0,-1.0,-1.6999999999999993,62.6,59.0,32.0,32.0,32.0,32.0,60.8,60.8,60.8,60.8,60.8,60.8,60.8,60.8,32.0,32.0,59.540000000000006,60.8,30.2,28.94,0.0,0.08433333333333333,0.0,285.8,2026-01-03 14:45:42-08:00
22.06,1.0,9.0,2026-01-03 22:45:58,37.08165,-121.59959,335.0,0.0,171.1,-12.6,0.0,,0.0,0.0,0.0,11.3,0.6,229.6,0.0,321.0,-0.0,0.01,1.0,0.0,-18.0,17.0,0.0,29.88,650.0,0.0,0.0,325.0,0.0,0.0,0.0,0.0,0.0,0.0,0.0,0.0,0.0,0.0,0.0,0.0,0.0,0.0,0.0,0.0,0.0,0.0,0.0,0.0,0.0,0.0,0.0,0.0,0.0,15.0,0.0,0.0,30.0,0.0,0.0,0.0,0.0,0.0,0.0,38.7,0.0,0.0,-0.6,0.3,0.1,0.0,0.0,0.0,0.0,16.0,17.0,16.0,17.0,16.0,17.0,16.0,17.0,0.0,0.0,-2.0,254.4,0.0,0.0,2.0,4.998,0.0,0.0,0.659,0.902,0.0,15.3,0.0,0.0,0.0,,0.0,0.0,16.0,-1.0,-1.6999999999999993,62.6,59.0,32.0,32.0,32.0,32.0,60.8,62.6,60.8,62.6,60.8,62.6,60.8,62.6,32.0,32.0,59.540000000000006,60.8,30.2,28.94,0.0,0.08433333333333333,0.0,285.8,2026-01-03 14:45:42-08:00
23.06,1.0,9.0,2026-01-03 22:45:59,37.08165,-121.59959,336.0,0.0,171.1,-12.6,0.0,,0.0,0.0,0.0,11.3,0.6,229.6,0.0,321.0,0.0,0.01,1.0,0.0,20.0,17.0,0.0,29.88,650.0,0.0,0.0,325.0,0.0,0.0,0.0,0.0,0.0,0.0,0.0,0.0,0.0,0.0,0.0,0.0,0.0,0.0,0.0,0.0,0.0,0.0,0.0,0.0,0.0,0.0,0.0,0.0,0.0,15.0,0.0,0.0,30.0,0.0,0.0,0.0,0.0,0.0,0.0,38.7,0.0,0.0,-0.6,0.3,0.1,0.0,0.0,0.0,0.0,16.0,17.0,16.0,17.0,16.0,17.0,16.0,17.0,0.0,0.0,-2.0,254.4,0.0,0.0,2.0,4.998,0.0,0.0,0.659,0.901,0.0,15.3,0.0,0.0,0.0,,0.0,0.0,16.0,-1.0,-1.6999999999999993,62.6,59.0,32.0,32.0,32.0,32.0,60.8,62.6,60.8,62.6,60.8,62.6,60.8,62.6,32.0,32.0,59.540000000000006,60.8,30.2,28.94,0.0,0.08433333333333333,0.0,285.8,2026-01-03 14:45:42-08:00
24.06,1.0,9.0,2026-01-03 22:46:00,37.08165,-121.59959,337.0,0.0,171.1,-12.6,0.0,,0.0,0.0,0.0,11.3,0.6,229.5,0.0,321.0,-0.0,0.01,1.0,0.0,12.0,17.0,0.0,29.88,650.0,0.0,0.0,325.0,0.0,0.0,0.0,0.0,0.0,0.0,0.0,0.0,0.0,0.0,0.0,0.0,0.0,0.0,0.0,0.0,0.0,0.0,0.0,0.0,0.0,0.0,0.0,0.0,0.0,15.0,0.0,0.0,30.0,0.0,0.0,0.0,0.0,0.0,0.0,38.7,0.0,0.0,-0.6,0.3,0.1,0.0,0.0,0.0,0.0,16.0,17.0,16.0,17.0,16.0,17.0,16.0,17.0,0.0,0.0,-2.0,254.4,0.0,0.0,2.0,4.998,0.0,0.0,0.659,0.901,0.0,15.3,0.0,0.0,0.0,,0.0,0.0,16.0,-1.0,-1.6999999999999993,62.6,59.0,32.0,32.0,32.0,32.0,60.8,62.6,60.8,62.6,60.8,62.6,60.8,62.6,32.0,32.0,59.540000000000006,60.8,30.2,28.94,0.0,0.08433333333333333,0.0,285.8,2026-01-03 14:45:42-08:00
25.06,1.0,9.0,2026-01-03 22:46:01,37.08165,-121.59959,338.0,0.0,171.1,-12.6,0.0,,0.0,0.0,0.0,11.4,0.6,229.6,0.0,321.0,0.0,0.01,1.0,0.0,-22.0,17.0,0.0,29.88,650.0,0.0,0.0,325.0,0.0,0.0,0.0,0.0,0.0,0.0,0.0,0.0,0.0,0.0,0.0,0.0,0.0,0.0,0.0,0.0,0.0,0.0,0.0,0.0,0.0,0.0,0.0,0.0,0.0,15.0,0.0,0.0,30.0,0.0,0.0,0.0,0.0,0.0,0.0,38.7,0.0,0.0,-0.6,0.3,0.1,0.0,0.0,0.0,0.0,16.0,17.0,16.0,17.0,16.0,17.0,16.0,17.0,0.0,0.0,-2.0,254.4,0.0,0.0,2.0,4.998,0.0,0.0,0.659,0.901,0.0,15.3,0.0,0.0,0.0,,0.0,0.0,16.0,-1.0,-1.6999999999999993,62.6,59.0,32.0,32.0,32.0,32.0,60.8,62.6,60.8,62.6,60.8,62.6,60.8,62.6,32.0,32.0,59.540000000000006,60.8,30.2,28.94,0.0,0.08433333333333333,0.0,285.8,2026-01-03 14:45:42-08:00
26.06,1.0,9.0,2026-01-03 22:46:02,37.08165,-121.59959,339.0,0.0,171.1,-12.6,0.0,,0.0,0.0,0.0,11.4,0.6,229.6,0.0,320.0,0.0,0.01,1.0,0.0,-53.0,17.0,0.0,29.88,649.0,0.0,0.0,325.0,0.0,0.0,0.0,0.0,0.0,0.0,0.0,0.0,0.0,0.0,0.0,0.0,0.0,0.0,0.0,0.0,0.0,0.0,0.0,0.0,0.0,0.0,0.0,0.0,0.0,15.0,0.0,0.0,30.0,0.0,0.0,0.0,0.0,0.0,0.0,38.7,0.0,0.0,-0.6,0.3,0.1,0.0,0.0,0.0,0.0,16.0,17.0,16.0,17.0,16.0,17.0,16.0,17.0,0.0,0.0,-2.0,254.4,0.0,0.0,2.0,4.998,0.0,0.0,0.659,0.9,0.0,15.3,0.0,0.0,0.0,,0.0,0.0,16.0,-1.0,-1.6999999999999993,62.6,59.0,32.0,32.0,32.0,32.0,60.8,62.6,60.8,62.6,60.8,62.6,60.8,62.6,32.0,32.0,59.540000000000006,60.8,30.2,28.94,0.0,0.08433333333333333,0.0,285.8,2026-01-03 14:45:42-08:00
27.06,1.0,9.0,2026-01-03 22:46:03,37.08165,-121.59959,339.0,0.0,171.1,-12.6,0.0,,0.0,0.0,0.0,11.4,0.5,229.7,0.0,319.0,-0.0,0.01,1.0,0.0,-41.0,17.0,0.0,29.88,649.0,0.0,0.0,325.0,0.0,0.0,0.0,0.0,0.0,0.0,0.0,0.0,0.0,0.0,0.0,0.0,0.0,0.0,0.0,0.0,0.0,0.0,0.0,0.0,0.0,0.0,0.0,0.0,0.0,15.0,0.0,0.0,30.0,0.0,0.0,0.0,0.0,0.0,0.0,38.7,0.0,0.0,-0.6,0.3,0.1,0.0,0.0,0.0,0.0,16.0,17.0,16.0,17.0,16.0,17.0,16.0,17.0,0.0,0.0,-2.0,254.4,0.0,0.0,2.0,4.998,0.0,0.0,0.659,0.9,0.0,15.3,0.0,0.0,0.0,,0.0,0.0,16.0,-1.0,-1.6999999999999993,62.6,59.0,32.0,32.0,32.0,32.0,60.8,62.6,60.8,62.6,60.8,62.6,60.8,62.6,32.0,32.0,59.540000000000006,60.8,30.2,28.94,0.0,0.08433333333333333,0.0,285.8,2026-01-03 14:45:42-08:00
28.06,1.0,9.0,2026-01-03 22:46:04,37.08165,-121.59959,340.0,0.0,171.1,-12.6,0.0,,0.0,0.0,0.0,11.4,0.5,229.7,0.0,319.0,0.0,0.01,1.0,0.0,-35.0,17.0,0.0,29.88,649.0,0.0,0.0,325.0,0.0,0.0,0.0,0.0,0.0,0.0,0.0,0.0,0.0,0.0,0.0,0.0,0.0,0.0,0.0,0.0,0.0,0.0,0.0,0.0,0.0,0.0,0.0,0.0,0.0,15.0,0.0,0.0,30.0,0.0,0.0,0.0,0.0,0.0,0.0,38.7,0.0,0.0,-0.6,0.3,0.1,0.0,0.0,0.0,0.0,16.0,17.0,16.0,17.0,16.0,17.0,16.0,17.0,0.0,0.0,-2.0,254.4,0.0,0.0,2.0,4.998,0.0,0.0,0.659,0.9,0.0,15.3,0.0,0.0,0.0,,0.0,0.0,16.0,-1.0,-1.6999999999999993,62.6,59.0,32.0,32.0,32.0,32.0,60.8,62.6,60.8,62.6,60.8,62.6,60.8,62.6,32.0,32.0,59.540000000000006,60.8,30.2,28.94,0.0,0.08433333333333333,0.0,285.8,2026-01-03 14:45:42-08:00
29.06,1.0,9.0,2026-01-03 22:46:05,37.08165,-121.59959,340.0,0.0,171.1,-12.6,0.0,,0.0,0.0,0.0,11.4,0.6,229.7,0.0,319.0,-0.0,0.01,1.0,0.0,-17.0,17.0,0.0,29.88,648.0,0.0,0.0,325.0,0.0,0.0,0.0,0.0,0.0,0.0,0.0,0.0,0.0,0.0,0.0,0.0,0.0,0.0,0.0,0.0,0.0,0.0,0.0,0.0,0.0,0.0,0.0,0.0,0.0,15.0,0.0,0.0,30.0,0.0,0.0,0.0,0.0,0.0,0.0,38.7,0.0,0.0,-0.6,0.3,0.1,0.0,0.0,0.0,0.0,16.0,17.0,16.0,17.0,16.0,17.0,16.0,17.0,0.0,0.0,-2.0,254.4,0.0,0.0,2.0,4.998,0.0,0.0,0.659,0.898,0.0,15.3,0.0,0.0,0.0,,0.0,0.0,16.0,-1.0,-1.6999999999999993,62.6,59.0,32.0,32.0,32.0,32.0,60.8,62.6,60.8,62.6,60.8,62.6,60.8,62.6,32.0,32.0,59.540000000000006,60.8,30.2,28.94,0.0,0.08433333333333333,0.0,285.8,2026-01-03 14:45:42-08:00
30.06,1.0,9.0,2026-01-03 22:46:06,37.08165,-121.59959,340.0,0.0,171.1,-12.6,0.0,,0.0,0.0,0.0,11.4,0.6,229.7,0.0,317.0,0.0,0.01,1.0,0.0,-54.0,17.0,0.0,29.88,648.0,0.0,0.0,325.0,0.0,0.0,0.0,0.0,0.0,0.0,0.0,0.0,0.0,0.0,0.0,0.0,0.0,0.0,0.0,0.0,0.0,0.0,0.0,0.0,0.0,0.0,0.0,0.0,0.0,15.0,0.0,0.0,30.0,0.0,0.0,0.0,0.0,0.0,0.0,38.7,0.0,0.0,-0.6,0.3,0.1,0.0,0.0,0.0,0.0,16.0,17.0,16.0,17.0,16.0,17.0,16.0,17.0,0.0,0.0,-2.0,254.4,0.0,0.0,2.0,4.998,0.0,0.0,0.659,0.898,0.0,15.3,0.0,0.0,0.0,,0.0,0.0,16.0,-1.0,-1.6999999999999993,62.6,59.0,32.0,32.0,32.0,32.0,60.8,62.6,60.8,62.6,60.8,62.6,60.8,62.6,32.0,32.0,59.540000000000006,60.8,30.2,28.94,0.0,0.08433333333333333,0.0,285.8,2026-01-03 14:45:42-08:00
31.06,1.0,9.0,2026-01-03 22:46:07,37.08165,-121.59959,341.0,0.0,171.1,-12.6,0.0,,0.0,0.0,0.0,11.4,0.6,229.7,0.0,317.0,-0.0,0.01,1.0,0.0,-32.0,17.0,0.0,29.88,648.0,0.0,0.0,325.0,0.0,0.0,0.0,0.0,0.0,0.0,0.0,0.0,0.0,0.0,0.0,0.0,0.0,0.0,0.0,0.0,0.0,0.0,0.0,0.0,0.0,0.0,0.0,0.0,0.0,15.0,0.0,0.0,30.0,0.0,0.0,0.0,0.0,0.0,0.0,38.7,0.0,0.0,-0.6,0.3,0.1,0.0,0.0,0.0,0.0,16.0,17.0,16.0,17.0,16.0,17.0,16.0,17.0,0.0,0.0,-2.0,254.3,0.0,0.0,2.0,4.998,0.0,0.0,0.659,0.898,0.0,15.3,0.0,0.0,0.0,,0.0,0.0,16.0,-1.0,-1.6999999999999993,62.6,59.0,32.0,32.0,32.0,32.0,60.8,62.6,60.8,62.6,60.8,62.6,60.8,62.6,32.0,32.0,59.540000000000006,60.8,30.2,28.94,0.0,0.08433333333333333,0.0,285.8,2026-01-03 14:45:42-08:00
32.06,1.0,9.0,2026-01-03 22:46:08,37.08165,-121.59959,340.0,0.0,171.1,-12.6,0.0,,0.0,0.0,0.0,11.4,0.6,229.8,0.0,315.0,0.0,0.01,1.0,0.0,-68.0,17.0,0.0,29.88,647.0,0.0,0.0,325.0,0.0,0.0,0.0,0.0,0.0,0.0,0.0,0.0,0.0,0.0,0.0,0.0,0.0,0.0,0.0,0.0,0.0,0.0,0.0,0.0,0.0,0.0,0.0,0.0,0.0,15.0,0.0,0.0,30.0,0.0,0.0,0.0,0.0,0.0,0.0,38.7,0.0,0.0,-0.6,0.3,0.1,0.0,0.0,0.0,0.0,16.0,17.0,16.0,17.0,16.0,17.0,16.0,17.0,0.0,0.0,-2.0,254.3,0.0,0.0,2.0,4.998,0.0,0.0,0.659,0.898,0.0,15.3,0.0,0.0,0.0,,0.0,0.0,16.0,-1.0,-1.6999999999999993,62.6,59.0,32.0,32.0,32.0,32.0,60.8,62.6,60.8,62.6,60.8,62.6,60.8,62.6,32.0,32.0,59.540000000000006,60.8,30.2,28.94,0.0,0.08433333333333333,0.0,285.8,2026-01-03 14:45:42-08:00
33.06,1.0,9.0,2026-01-03 22:46:09,37.08165,-121.59959,340.0,0.0,171.1,-12.6,0.0,,0.0,0.0,0.0,11.4,0.5,229.7,0.0,314.0,0.0,0.01,1.0,0.0,-68.0,17.0,0.0,29.88,647.0,0.0,0.0,325.0,0.0,0.0,0.0,0.0,0.0,0.0,0.0,0.0,0.0,0.0,0.0,0.0,0.0,0.0,0.0,0.0,0.0,0.0,0.0,0.0,0.0,0.0,0.0,0.0,0.0,15.0,0.0,0.0,30.0,0.0,0.0,0.0,0.0,0.0,0.0,38.7,0.0,0.0,-0.6,0.3,0.1,0.0,0.0,0.0,0.0,16.0,17.0,16.0,17.0,16.0,17.0,16.0,17.0,0.0,0.0,-2.0,254.3,0.0,0.0,2.0,4.998,0.0,0.0,0.659,0.9,0.0,15.3,0.0,0.0,0.0,,0.0,0.0,16.0,-1.0,-1.6999999999999993,62.6,59.0,32.0,32.0,32.0,32.0,60.8,62.6,60.8,62.6,60.8,62.6,60.8,62.6,32.0,32.0,59.540000000000006,60.8,30.2,28.94,0.0,0.08433333333333333,0.0,285.8,2026-01-03 14:45:42-08:00
34.06,1.0,9.0,2026-01-03 22:46:10,37.08165,-121.59959,341.0,0.0,171.1,-12.6,0.0,,0.0,0.0,0.0,11.4,0.5,229.7,0.0,313.0,-0.0,0.01,1.0,0.0,-66.0,17.0,0.0,29.88,647.0,0.0,0.0,325.0,0.0,0.0,0.0,0.0,0.0,0.0,0.0,0.0,0.0,0.0,0.0,0.0,0.0,0.0,0.0,0.0,0.0,0.0,0.0,0.0,0.0,0.0,0.0,0.0,0.0,15.0,0.0,0.0,30.0,0.0,0.0,0.0,0.0,0.0,0.0,38.7,0.0,0.0,-0.6,0.3,0.1,0.0,0.0,0.0,0.0,16.0,17.0,16.0,17.0,16.0,17.0,16.0,17.0,0.0,0.0,-2.0,254.3,0.0,0.0,2.0,4.998,0.0,0.0,0.659,0.902,0.0,15.3,0.0,0.0,0.0,,0.0,0.0,16.0,-1.0,-1.6999999999999993,62.6,59.0,32.0,32.0,32.0,32.0,60.8,62.6,60.8,62.6,60.8,62.6,60.8,62.6,32.0,32.0,59.540000000000006,60.8,30.2,28.94,0.0,0.08433333333333333,0.0,285.8,2026-01-03 14:45:42-08:00
35.06,1.0,9.0,2026-01-03 22:46:11,37.08165,-121.59959,340.0,0.1,171.1,-12.6,0.0,,0.0,0.0,0.0,11.4,0.5,229.7,0.0,312.0,-0.0,0.01,1.0,0.0,-80.0,17.0,0.0,29.88,642.0,0.0,0.0,325.0,0.0,0.0,0.0,0.0,0.0,0.0,0.0,0.0,0.0,0.0,0.0,0.0,0.0,0.0,0.0,0.0,0.0,0.0,0.0,0.0,0.0,0.0,0.0,0.0,0.0,15.0,0.0,0.0,30.0,0.0,0.0,0.0,0.0,0.0,0.0,38.7,0.0,0.0,-0.6,0.3,0.1,0.0,0.0,0.0,0.0,16.0,17.0,16.0,17.0,16.0,17.0,16.0,17.0,0.0,0.0,-2.0,254.3,0.0,0.0,2.0,4.998,0.0,0.0,0.659,0.902,0.0,15.3,0.0,0.0,0.0,,0.0,0.0,16.0,-1.0,-1.6999999999999993,62.6,59.0,32.0,32.0,32.0,32.0,60.8,62.6,60.8,62.6,60.8,62.6,60.8,62.6,32.0,32.0,59.540000000000006,60.8,30.2,28.94,0.0,0.16866666666666666,0.0,285.8,2026-01-03 14:45:42-08:00
36.06,1.0,9.0,2026-01-03 22:46:12,37.08165,-121.59959,340.0,0.0,171.1,-12.6,0.0,,0.0,0.0,0.0,11.4,0.6,229.7,0.0,309.0,-0.0,0.01,1.0,0.0,-105.0,17.0,0.0,29.88,642.0,0.0,0.0,325.0,0.0,0.0,0.0,0.0,0.0,0.0,0.0,0.0,0.0,0.0,0.0,0.0,0.0,0.0,0.0,0.0,0.0,0.0,0.0,0.0,0.0,0.0,0.0,0.0,0.0,15.0,0.0,0.0,30.0,0.0,0.0,0.0,0.0,0.0,0.0,38.7,0.0,0.0,-0.6,0.3,0.1,0.0,0.0,0.0,0.0,16.0,17.0,16.0,17.0,16.0,17.0,16.0,17.0,0.0,0.0,-2.0,254.3,0.0,0.0,2.0,4.998,0.0,0.0,0.659,0.902,0.0,15.3,0.0,0.0,0.0,,0.0,0.0,16.0,-1.0,-1.6999999999999993,62.6,59.0,32.0,32.0,32.0,32.0,60.8,62.6,60.8,62.6,60.8,62.6,60.8,62.6,32.0,32.0,59.540000000000006,60.8,30.2,28.94,0.0,0.253,0.0,285.8,2026-01-03 14:45:42-08:00
37.06,1.0,9.0,2026-01-03 22:46:13,37.08165,-121.59959,340.0,0.0,171.1,-12.6,0.0,,0.0,0.0,0.0,11.4,0.5,229.7,0.0,307.0,-0.0,0.01,1.0,0.0,-98.0,17.0,0.0,29.88,642.0,0.0,0.0,325.0,0.0,0.0,0.0,0.0,0.0,0.0,0.0,0.0,0.0,0.0,0.0,0.0,0.0,0.0,0.0,0.0,0.0,0.0,0.0,0.0,0.0,0.0,0.0,0.0,0.0,15.0,0.0,0.0,30.0,0.0,0.0,0.0,0.0,0.0,0.0,38.7,0.0,0.0,-0.6,0.3,0.1,0.0,0.0,0.0,0.0,16.0,17.0,16.0,17.0,16.0,17.0,16.0,17.0,0.0,0.0,-2.0,254.3,0.0,0.0,2.0,4.998,0.0,0.0,0.659,0.902,0.0,15.3,0.0,0.0,0.0,,0.0,0.0,16.0,-1.0,-1.6999999999999993,62.6,59.0,32.0,32.0,32.0,32.0,60.8,62.6,60.8,62.6,60.8,62.6,60.8,62.6,32.0,32.0,59.540000000000006,60.8,30.2,28.94,0.0,0.253,0.0,285.8,2026-01-03 14:45:42-08:00
38.06,1.0,9.0,2026-01-03 22:46:14,37.08165,-121.59959,339.0,0.1,171.1,-12.6,0.0,,0.0,0.0,0.0,11.4,0.5,229.7,0.0,306.0,-0.0,0.01,1.0,0.0,-105.0,17.0,0.0,29.88,634.0,0.0,0.0,325.0,0.0,0.0,0.0,0.0,0.0,0.0,0.0,0.0,0.0,0.0,0.0,0.0,0.0,0.0,0.0,0.0,0.0,0.0,0.0,0.0,0.0,0.0,0.0,0.0,0.0,15.0,0.0,0.0,30.0,0.0,0.0,0.0,0.0,0.0,0.0,38.7,0.0,0.0,-0.6,0.3,0.1,0.0,0.0,0.0,0.0,16.0,17.0,16.0,17.0,16.0,17.0,16.0,17.0,0.0,0.0,-2.0,254.3,0.0,0.0,2.0,4.998,0.0,0.0,0.659,0.902,0.0,15.3,0.0,0.0,0.0,,0.0,0.0,16.0,-1.0,-1.6999999999999993,62.6,59.0,32.0,32.0,32.0,32.0,60.8,62.6,60.8,62.6,60.8,62.6,60.8,62.6,32.0,32.0,59.540000000000006,60.8,30.2,28.94,0.0,0.3373333333333333,0.0,285.8,2026-01-03 14:45:42-08:00
39.06,1.0,9.0,2026-01-03 22:46:15,37.08166,-121.59959,339.0,0.1,171.1,-12.6,0.0,,0.0,0.0,0.0,11.5,0.5,229.8,0.0,305.0,0.0,0.01,1.0,0.0,-77.0,17.0,0.0,29.88,634.0,0.0,0.0,325.0,0.0,0.0,0.0,0.0,0.0,0.0,0.0,0.0,0.0,0.0,0.0,0.0,0.0,0.0,0.0,0.0,0.0,0.0,0.0,0.0,0.0,0.0,0.0,0.0,0.0,15.0,0.0,0.0,30.0,0.0,0.0,0.0,0.0,0.0,0.0,38.7,0.0,0.0,-0.6,0.3,0.1,0.0,0.0,0.0,0.0,16.0,17.0,16.0,17.0,16.0,17.0,16.0,17.0,0.0,0.0,-2.0,254.3,0.0,0.0,2.0,4.998,0.0,0.0,0.659,0.903,0.0,15.3,0.0,0.0,0.0,,0.0,0.0,16.0,-1.0,-1.6999999999999993,62.6,59.0,32.0,32.0,32.0,32.0,60.8,62.6,60.8,62.6,60.8,62.6,60.8,62.6,32.0,32.0,59.540000000000006,60.8,30.2,28.94,0.0,0.506,0.0,285.8,2026-01-03 14:45:42-08:00
40.06,1.0,9.0,2026-01-03 22:46:16,37.08166,-121.59959,338.0,0.0,171.1,-12.6,0.0,,0.0,0.0,0.0,11.4,0.5,229.8,0.0,303.0,0.0,0.01,1.0,0.0,-72.0,17.0,0.0,29.88,634.0,0.0,0.0,325.0,0.0,0.0,0.0,0.0,0.0,0.0,0.0,0.0,0.0,0.0,0.0,0.0,0.0,0.0,0.0,0.0,0.0,0.0,0.0,0.0,0.0,0.0,0.0,0.0,0.0,15.0,0.0,0.0,30.0,0.0,0.0,0.0,0.0,0.0,0.0,38.7,0.0,0.0,-0.6,0.3,0.1,0.0,0.0,0.0,0.0,16.0,17.0,16.0,17.0,16.0,17.0,16.0,17.0,0.0,0.0,-2.0,254.3,0.0,0.0,2.0,4.998,0.0,0.0,0.659,0.905,0.0,15.3,0.0,0.0,0.0,,0.0,0.0,16.0,-1.0,-1.6999999999999993,62.6,59.0,32.0,32.0,32.0,32.0,60.8,62.6,60.8,62.6,60.8,62.6,60.8,62.6,32.0,32.0,59.540000000000006,60.8,30.2,28.94,0.0,0.5903333333333333,0.0,285.8,2026-01-03 14:45:42-08:00
41.06,1.0,9.0,2026-01-03 22:46:17,37.08166,-121.59959,338.0,0.0,171.1,-12.6,0.0,,0.0,0.0,0.0,11.5,0.5,229.8,0.0,303.0,-0.0,0.01,1.0,0.0,-59.0,17.0,0.0,29.88,630.0,0.0,0.0,325.0,0.0,0.0,0.0,0.0,0.0,0.0,0.0,0.0,0.0,0.0,0.0,0.0,0.0,0.0,0.0,0.0,0.0,0.0,0.0,0.0,0.0,0.0,0.0,0.0,0.0,15.0,0.0,0.0,30.0,0.0,0.0,0.0,0.0,0.0,0.0,38.7,0.0,0.0,-0.6,0.3,0.1,0.0,0.0,0.0,0.0,16.0,17.0,16.0,17.0,16.0,17.0,16.0,17.0,0.0,0.0,-2.0,254.3,0.0,0.0,2.0,4.998,0.0,0.0,0.659,0.908,0.0,15.3,0.0,0.0,0.0,,0.0,0.0,16.0,-1.0,-1.6999999999999993,62.6,59.0,32.0,32.0,32.0,32.0,60.8,62.6,60.8,62.6,60.8,62.6,60.8,62.6,32.0,32.0,59.540000000000006,60.8,30.2,28.94,0.0,0.5903333333333333,0.0,285.8,2026-01-03 14:45:42-08:00
42.06,1.0,9.0,2026-01-03 22:46:18,37.08166,-121.59959,338.0,0.0,171.1,-12.6,0.0,,0.0,0.0,0.0,11.5,0.5,229.8,0.0,303.0,-0.0,0.01,1.0,0.0,-21.0,17.0,0.0,29.88,630.0,0.0,0.0,325.0,0.0,0.0,0.0,0.0,0.0,0.0,0.0,0.0,0.0,0.0,0.0,0.0,0.0,0.0,0.0,0.0,0.0,0.0,0.0,0.0,0.0,0.0,0.0,0.0,0.0,15.0,0.0,0.0,30.0,0.0,0.0,0.0,0.0,0.0,0.0,38.7,0.0,0.0,-0.6,0.3,0.1,0.0,0.0,0.0,0.0,16.0,17.0,16.0,17.0,16.0,17.0,16.0,17.0,0.0,0.0,-2.0,236.7,0.0,0.0,2.0,4.998,0.0,0.0,0.659,0.907,0.0,15.3,0.0,0.0,0.0,,0.0,0.0,16.0,-1.0,-1.6999999999999993,62.6,59.0,32.0,32.0,32.0,32.0,60.8,62.6,60.8,62.6,60.8,62.6,60.8,62.6,32.0,32.0,59.540000000000006,60.8,30.2,28.94,0.0,0.5903333333333333,0.0,285.8,2026-01-03 14:45:42-08:00
43.06,1.0,9.0,2026-01-03 22:46:19,37.08166,-121.59959,337.0,0.0,171.1,-12.6,0.0,,0.0,0.0,0.0,11.4,0.5,229.8,0.0,303.0,-0.0,0.01,1.0,0.0,-28.0,17.0,0.0,29.88,630.0,0.0,0.0,325.0,0.0,0.0,0.0,0.0,0.0,0.0,0.0,0.0,0.0,0.0,0.0,0.0,0.0,0.0,0.0,0.0,0.0,0.0,0.0,0.0,0.0,0.0,0.0,0.0,0.0,15.0,0.0,0.0,30.0,0.0,0.0,0.0,0.0,0.0,0.0,38.7,0.0,0.0,-0.6,0.3,0.1,0.0,0.0,0.0,0.0,16.0,17.0,16.0,17.0,16.0,17.0,16.0,17.0,0.0,0.0,-2.0,184.2,0.0,0.0,2.0,4.998,0.0,0.0,0.659,0.906,0.0,15.3,0.0,0.0,0.0,,0.0,0.0,16.0,-1.0,-1.6999999999999993,62.6,59.0,32.0,32.0,32.0,32.0,60.8,62.6,60.8,62.6,60.8,62.6,60.8,62.6,32.0,32.0,59.540000000000006,60.8,30.2,28.94,0.0,0.5903333333333333,0.0,285.8,2026-01-03 14:45:42-08:00
44.06,1.0,9.0,2026-01-03 22:46:20,37.08166,-121.59959,337.0,0.0,171.1,-12.6,0.0,,0.0,0.0,0.0,11.4,0.5,229.8,0.0,303.0,-0.0,0.01,1.0,0.0,-15.0,17.0,0.0,29.88,630.0,0.0,0.0,325.0,0.0,0.0,0.0,0.0,0.0,0.0,0.0,0.0,0.0,0.0,0.0,0.0,0.0,0.0,0.0,0.0,0.0,0.0,0.0,0.0,0.0,0.0,0.0,0.0,0.0,15.0,0.0,0.0,30.0,0.0,0.0,0.0,0.0,0.0,0.0,38.7,0.0,0.0,-0.6,0.3,0.1,0.0,0.0,0.0,0.0,16.0,17.0,16.0,17.0,16.0,17.0,16.0,17.0,0.0,0.0,-2.0,143.4,0.0,0.0,2.0,4.998,0.0,0.0,0.659,0.906,0.0,15.3,0.0,0.0,0.0,,0.0,0.0,16.0,-1.0,-1.6999999999999993,62.6,59.0,32.0,32.0,32.0,32.0,60.8,62.6,60.8,62.6,60.8,62.6,60.8,62.6,32.0,32.0,59.540000000000006,60.8,30.2,28.94,0.0,0.5903333333333333,0.0,285.8,2026-01-03 14:45:42-08:00
45.06,1.0,9.0,2026-01-03 22:46:21,37.08165,-121.59959,336.0,0.0,171.1,-12.6,0.0,,0.0,0.0,0.0,11.4,0.6,229.7,0.0,302.0,-0.0,0.01,1.0,0.0,-30.0,17.0,0.0,29.88,630.0,0.0,0.0,325.0,0.0,0.0,0.0,0.0,0.0,0.0,0.0,0.0,0.0,0.0,0.0,0.0,0.0,0.0,0.0,0.0,0.0,0.0,0.0,0.0,0.0,0.0,0.0,0.0,0.0,15.0,0.0,0.0,30.0,0.0,0.0,0.0,0.0,0.0,0.0,38.7,0.0,0.0,-0.6,0.3,0.1,0.0,0.0,0.0,0.0,16.0,17.0,16.0,17.0,16.0,17.0,16.0,17.0,0.0,0.0,-2.0,111.7,0.0,0.0,2.0,4.998,0.0,0.0,0.659,0.906,0.0,15.3,0.0,0.0,0.0,,0.0,0.0,16.0,-1.0,-1.6999999999999993,62.6,59.0,32.0,32.0,32.0,32.0,60.8,62.6,60.8,62.6,60.8,62.6,60.8,62.6,32.0,32.0,59.540000000000006,60.8,30.2,28.94,0.0,0.5903333333333333,0.0,285.8,2026-01-03 14:45:42-08:00
46.06,1.0,9.0,2026-01-03 22:46:22,37.08165,-121.59959,335.0,0.0,171.1,-12.6,0.0,,0.0,0.0,0.0,11.4,0.5,229.8,0.0,300.0,-0.0,0.01,1.0,0.0,-68.0,17.0,0.0,29.88,630.0,0.0,0.0,325.0,0.0,0.0,0.0,0.0,0.0,0.0,0.0,0.0,0.0,0.0,0.0,0.0,0.0,0.0,0.0,0.0,0.0,0.0,0.0,0.0,0.0,0.0,0.0,0.0,0.0,15.0,0.0,0.0,30.0,0.0,0.0,0.0,0.0,0.0,0.0,38.7,0.0,0.0,-0.6,0.3,0.1,0.0,0.0,0.0,0.0,16.0,17.0,16.0,17.0,16.0,17.0,16.0,17.0,0.0,0.0,-2.0,87.0,0.0,0.0,2.0,4.998,0.0,0.0,0.659,0.906,0.0,15.3,0.0,0.0,0.0,,0.0,0.0,16.0,-1.0,-1.6999999999999993,62.6,59.0,32.0,32.0,32.0,32.0,60.8,62.6,60.8,62.6,60.8,62.6,60.8,62.6,32.0,32.0,59.540000000000006,60.8,30.2,28.94,0.0,0.5903333333333333,0.0,285.8,2026-01-03 14:45:42-08:00
47.06,1.0,9.0,2026-01-03 22:46:23,37.08165,-121.59959,335.0,0.0,171.1,-12.6,0.0,,0.0,0.0,0.0,11.4,0.5,229.8,0.0,300.0,-0.0,0.01,1.0,0.0,-46.0,17.0,0.0,29.88,626.0,0.0,0.0,325.0,0.0,0.0,0.0,0.0,0.0,0.0,0.0,0.0,0.0,0.0,0.0,0.0,0.0,0.0,0.0,0.0,0.0,0.0,0.0,0.0,0.0,0.0,0.0,0.0,0.0,15.0,0.0,0.0,30.0,0.0,0.0,0.0,0.0,0.0,0.0,38.7,0.0,0.0,-0.6,0.3,0.1,0.0,0.0,0.0,0.0,16.0,17.0,16.0,17.0,16.0,17.0,16.0,17.0,0.0,0.0,-2.0,67.8,0.0,0.0,2.0,4.998,0.0,0.0,0.659,0.903,0.0,15.3,0.0,0.0,0.0,,0.0,0.0,16.0,-1.0,-1.6999999999999993,62.6,59.0,32.0,32.0,32.0,32.0,60.8,62.6,60.8,62.6,60.8,62.6,60.8,62.6,32.0,32.0,59.540000000000006,60.8,30.2,28.94,0.0,0.5903333333333333,0.0,285.8,2026-01-03 14:45:42-08:00
48.06,1.0,9.0,2026-01-03 22:46:24,37.08165,-121.59958,334.0,0.0,171.1,-12.6,0.0,,0.0,0.0,0.0,11.4,0.6,229.7,0.0,300.0,-0.0,0.01,1.0,0.0,-44.0,17.0,0.0,29.88,626.0,0.0,0.0,325.0,0.0,0.0,0.0,0.0,0.0,0.0,0.0,0.0,0.0,0.0,0.0,0.0,0.0,0.0,0.0,0.0,0.0,0.0,0.0,0.0,0.0,0.0,0.0,0.0,0.0,15.0,0.0,0.0,30.0,0.0,0.0,0.0,0.0,0.0,0.0,38.7,0.0,0.0,-0.6,0.3,0.1,0.0,0.0,0.0,0.0,16.0,17.0,16.0,17.0,16.0,17.0,16.0,17.0,0.0,0.0,-2.0,52.9,0.0,0.0,2.0,4.998,0.0,0.0,0.659,0.897,0.0,15.3,0.0,0.0,0.0,,0.0,0.0,16.0,-1.0,-1.6999999999999993,62.6,59.0,32.0,32.0,32.0,32.0,60.8,62.6,60.8,62.6,60.8,62.6,60.8,62.6,32.0,32.0,59.540000000000006,60.8,30.2,28.94,0.0,0.5903333333333333,0.0,285.8,2026-01-03 14:45:42-08:00
49.06,1.0,9.0,2026-01-03 22:46:25,37.08165,-121.59958,334.0,0.0,171.1,-12.6,0.0,,0.0,0.0,0.0,11.5,0.6,229.8,0.0,299.0,0.0,0.01,1.0,0.0,-31.0,17.0,0.0,29.88,626.0,0.0,0.0,325.0,0.0,0.0,0.0,0.0,0.0,0.0,0.0,0.0,0.0,0.0,0.0,0.0,0.0,0.0,0.0,0.0,0.0,0.0,0.0,0.0,0.0,0.0,0.0,0.0,0.0,15.0,0.0,0.0,30.0,0.0,0.0,0.0,0.0,0.0,0.0,38.7,0.0,0.0,-0.6,0.3,0.1,0.0,0.0,0.0,0.0,16.0,17.0,16.0,17.0,16.0,17.0,16.0,17.0,0.0,0.0,-2.0,41.4,0.0,0.0,2.0,4.998,0.0,0.0,0.659,0.897,0.0,15.3,0.0,0.0,0.0,,0.0,0.0,16.0,-1.0,-1.6999999999999993,62.6,59.0,32.0,32.0,32.0,32.0,60.8,62.6,60.8,62.6,60.8,62.6,60.8,62.6,32.0,32.0,59.540000000000006,60.8,30.2,28.94,0.0,0.5903333333333333,0.0,285.8,2026-01-03 14:45:42-08:00
50.06,1.0,9.0,2026-01-03 22:46:26,37.08165,-121.59958,333.0,0.0,171.1,-12.6,0.0,,0.0,0.0,0.0,11.5,0.6,229.8,0.0,299.0,0.0,0.01,1.0,0.0,-9.0,17.0,0.0,29.88,625.0,0.0,0.0,325.0,0.0,0.0,0.0,0.0,0.0,0.0,0.0,0.0,0.0,0.0,0.0,0.0,0.0,0.0,0.0,0.0,0.0,0.0,0.0,0.0,0.0,0.0,0.0,0.0,0.0,15.0,0.0,0.0,30.0,0.0,0.0,0.0,0.0,0.0,0.0,38.7,0.0,0.0,-0.6,0.3,0.1,0.0,0.0,0.0,0.0,16.0,17.0,16.0,17.0,16.0,17.0,16.0,17.0,0.0,0.0,-2.0,32.4,0.0,0.0,2.0,4.998,0.0,0.0,0.659,0.897,0.0,15.3,0.0,0.0,0.0,,0.0,0.0,16.0,-1.0,-1.6999999999999993,62.6,59.0,32.0,32.0,32.0,32.0,60.8,62.6,60.8,62.6,60.8,62.6,60.8,62.6,32.0,32.0,59.540000000000006,60.8,30.2,28.94,0.0,0.5903333333333333,0.0,285.8,2026-01-03 14:45:42-08:00
51.06,1.0,9.0,2026-01-03 22:46:27,37.08165,-121.59958,332.0,0.0,171.1,-12.6,0.0,,0.0,0.0,0.0,11.5,0.6,229.8,0.0,299.0,0.0,0.01,1.0,0.0,16.0,17.0,0.0,29.88,625.0,0.0,0.0,325.0,0.0,0.0,0.0,0.0,0.0,0.0,0.0,0.0,0.0,0.0,0.0,0.0,0.0,0.0,0.0,0.0,0.0,0.0,0.0,0.0,0.0,0.0,0.0,0.0,0.0,15.0,0.0,0.0,30.0,0.0,0.0,0.0,0.0,0.0,0.0,38.7,0.0,0.0,-0.6,0.3,0.1,0.0,0.0,0.0,0.0,16.0,17.0,16.0,17.0,16.0,17.0,16.0,17.0,0.0,0.0,-2.0,25.4,0.0,0.0,2.0,4.998,0.0,0.0,0.659,0.898,0.0,15.3,0.0,0.0,0.0,,0.0,0.0,16.0,-1.0,-1.6999999999999993,62.6,59.0,32.0,32.0,32.0,32.0,60.8,62.6,60.8,62.6,60.8,62.6,60.8,62.6,32.0,32.0,59.540000000000006,60.8,30.2,28.94,0.0,0.5903333333333333,0.0,285.8,2026-01-03 14:45:42-08:00
52.06,1.0,9.0,2026-01-03 22:46:28,37.08165,-121.59958,332.0,0.0,171.1,-12.6,0.0,,0.0,0.0,0.0,11.5,0.5,229.8,0.0,299.0,0.0,0.01,1.0,0.0,41.0,17.0,0.0,29.88,626.0,0.0,0.0,325.0,0.0,0.0,0.0,0.0,0.0,0.0,0.0,0.0,0.0,0.0,0.0,0.0,0.0,0.0,0.0,0.0,0.0,0.0,0.0,0.0,0.0,0.0,0.0,0.0,0.0,15.0,0.0,0.0,30.0,0.0,0.0,0.0,0.0,0.0,0.0,38.7,0.0,0.0,-0.6,0.3,0.1,0.0,0.0,0.0,0.0,16.0,17.0,16.0,17.0,16.0,17.0,16.0,17.0,0.0,0.0,-2.0,19.9,0.0,0.0,2.0,4.998,0.0,0.0,0.659,0.898,0.0,15.3,0.0,0.0,0.0,,0.0,0.0,16.0,-1.0,-1.6999999999999993,62.6,59.0,32.0,32.0,32.0,32.0,60.8,62.6,60.8,62.6,60.8,62.6,60.8,62.6,32.0,32.0,59.540000000000006,60.8,30.2,28.94,0.0,0.5903333333333333,0.0,285.8,2026-01-03 14:45:42-08:00
53.06,1.0,9.0,2026-01-03 22:46:29,37.08165,-121.59958,331.0,0.0,171.1,-12.6,0.0,,0.0,0.0,0.0,11.5,0.6,229.8,0.0,299.0,0.0,0.01,1.0,0.0,34.0,17.0,0.0,29.88,626.0,0.0,0.0,325.0,0.0,0.0,0.0,0.0,0.0,0.0,0.0,0.0,0.0,0.0,0.0,0.0,0.0,0.0,0.0,0.0,0.0,0.0,0.0,0.0,0.0,0.0,0.0,0.0,0.0,15.0,0.0,0.0,30.0,0.0,0.0,0.0,0.0,0.0,0.0,38.7,0.0,0.0,-0.6,0.3,0.1,0.0,0.0,0.0,0.0,16.0,17.0,16.0,17.0,16.0,17.0,16.0,17.0,0.0,0.0,-2.0,15.7,0.0,0.0,2.0,4.998,0.0,0.0,0.659,0.898,0.0,15.3,0.0,0.0,0.0,,0.0,0.0,16.0,-1.0,-1.6999999999999993,62.6,59.0,32.0,32.0,32.0,32.0,60.8,62.6,60.8,62.6,60.8,62.6,60.8,62.6,32.0,32.0,59.540000000000006,60.8,30.2,28.94,0.0,0.5903333333333333,0.0,285.8,2026-01-03 14:45:42-08:00
54.06,1.0,9.0,2026-01-03 22:46:30,37.08165,-121.59958,330.0,0.0,171.1,-12.6,0.0,,0.0,0.0,0.0,11.5,0.6,229.8,0.0,299.0,0.0,0.01,1.0,0.0,40.0,17.0,0.0,29.88,626.0,0.0,0.0,325.0,0.0,0.0,0.0,0.0,0.0,0.0,0.0,0.0,0.0,0.0,0.0,0.0,0.0,0.0,0.0,0.0,0.0,0.0,0.0,0.0,0.0,0.0,0.0,0.0,0.0,15.0,0.0,0.0,30.0,0.0,0.0,0.0,0.0,0.0,0.0,38.7,0.0,0.0,-0.6,0.3,0.1,0.0,0.0,0.0,0.0,16.0,17.0,16.0,17.0,16.0,17.0,16.0,17.0,0.0,0.0,-2.0,12.4,0.0,0.0,2.0,4.998,0.0,0.0,0.659,0.898,0.0,15.3,0.0,0.0,0.0,,0.0,0.0,16.0,-1.0,-1.6999999999999993,62.6,59.0,32.0,32.0,32.0,32.0,60.8,62.6,60.8,62.6,60.8,62.6,60.8,62.6,32.0,32.0,59.540000000000006,60.8,30.2,28.94,0.0,0.5903333333333333,0.0,285.8,2026-01-03 14:45:42-08:00
55.06,1.0,9.0,2026-01-03 22:46:31,37.08165,-121.59958,330.0,0.0,171.1,-12.6,0.0,,0.0,0.0,0.0,11.5,0.6,229.8,0.0,299.0,0.0,0.01,1.0,0.0,46.0,17.0,0.0,29.88,625.0,0.0,0.0,325.0,0.0,0.0,0.0,0.0,0.0,0.0,0.0,0.0,0.0,0.0,0.0,0.0,0.0,0.0,0.0,0.0,0.0,0.0,0.0,0.0,0.0,0.0,0.0,0.0,0.0,15.0,0.0,0.0,30.0,0.0,0.0,0.0,0.0,0.0,0.0,38.7,0.0,0.0,-0.6,0.3,0.1,0.0,0.0,0.0,0.0,16.0,17.0,16.0,17.0,16.0,17.0,16.0,17.0,0.0,0.0,-2.0,9.9,0.0,0.0,2.0,4.998,0.0,0.0,0.659,0.9,0.0,15.3,0.0,0.0,0.0,,0.0,0.0,16.0,-1.0,-1.6999999999999993,62.6,59.0,32.0,32.0,32.0,32.0,60.8,62.6,60.8,62.6,60.8,62.6,60.8,62.6,32.0,32.0,59.540000000000006,60.8,30.2,28.94,0.0,0.5903333333333333,0.0,285.8,2026-01-03 14:45:42-08:00
56.06,1.0,9.0,2026-01-03 22:46:32,37.08165,-121.59958,329.0,0.0,171.1,-12.6,0.0,,0.0,0.0,0.0,11.5,0.6,229.8,0.0,299.0,0.0,0.01,1.0,0.0,55.0,17.0,0.0,29.88,626.0,0.0,0.0,325.0,0.0,0.0,0.0,0.0,0.0,0.0,0.0,0.0,0.0,0.0,0.0,0.0,0.0,0.0,0.0,0.0,0.0,0.0,0.0,0.0,0.0,0.0,0.0,0.0,0.0,15.0,0.0,0.0,30.0,0.0,0.0,0.0,0.0,0.0,0.0,38.7,0.0,0.0,-0.6,0.3,0.1,0.0,0.0,0.0,0.0,16.0,17.0,16.0,17.0,16.0,17.0,16.0,17.0,0.0,0.0,-2.0,7.9,0.0,0.0,2.0,4.998,0.0,0.0,0.659,0.9,0.0,15.3,0.0,0.0,0.0,,0.0,0.0,16.0,-1.0,-1.6999999999999993,62.6,59.0,32.0,32.0,32.0,32.0,60.8,62.6,60.8,62.6,60.8,62.6,60.8,62.6,32.0,32.0,59.540000000000006,60.8,30.2,28.94,0.0,0.5903333333333333,0.0,285.8,2026-01-03 14:45:42-08:00
57.06,1.0,9.0,2026-01-03 22:46:33,37.08165,-121.59958,329.0,0.0,171.1,-12.6,0.0,,0.0,0.0,0.0,11.4,0.5,229.8,0.0,299.0,0.0,0.01,1.0,0.0,22.0,17.0,0.0,29.88,626.0,0.0,0.0,325.0,0.0,0.0,0.0,0.0,0.0,0.0,0.0,0.0,0.0,0.0,0.0,0.0,0.0,0.0,0.0,0.0,0.0,0.0,0.0,0.0,0.0,0.0,0.0,0.0,0.0,15.0,0.0,0.0,30.0,0.0,0.0,0.0,0.0,0.0,0.0,38.7,0.0,0.0,-0.6,0.3,0.1,0.0,0.0,0.0,0.0,16.0,17.0,16.0,17.0,16.0,17.0,16.0,17.0,0.0,0.0,-2.0,6.3,0.0,0.0,2.0,4.998,0.0,0.0,0.659,0.898,0.0,15.3,0.0,0.0,0.0,,0.0,0.0,16.0,-1.0,-1.6999999999999993,62.6,59.0,32.0,32.0,32.0,32.0,60.8,62.6,60.8,62.6,60.8,62.6,60.8,62.6,32.0,32.0,59.540000000000006,60.8,30.2,28.94,0.0,0.5903333333333333,0.0,285.8,2026-01-03 14:45:42-08:00
58.06,1.0,9.0,2026-01-03 22:46:34,37.08165,-121.59957,328.0,0.0,171.1,-12.6,0.0,,0.0,0.0,0.0,11.5,0.5,229.8,0.0,299.0,0.0,0.01,1.0,0.0,38.0,17.0,0.0,29.88,626.0,0.0,0.0,325.0,0.0,0.0,0.0,0.0,0.0,0.0,0.0,0.0,0.0,0.0,0.0,0.0,0.0,0.0,0.0,0.0,0.0,0.0,0.0,0.0,0.0,0.0,0.0,0.0,0.0,15.0,0.0,0.0,30.0,0.0,0.0,0.0,0.0,0.0,0.0,38.7,0.0,0.0,-0.6,0.3,0.1,0.0,0.0,0.0,0.0,16.0,17.0,16.0,17.0,16.0,17.0,16.0,17.0,0.0,0.0,-2.0,5.1,0.0,0.0,2.0,4.998,0.0,0.0,0.659,0.901,0.0,15.3,0.0,0.0,0.0,,0.0,0.0,16.0,-1.0,-1.6999999999999993,62.6,59.0,32.0,32.0,32.0,32.0,60.8,62.6,60.8,62.6,60.8,62.6,60.8,62.6,32.0,32.0,59.540000000000006,60.8,30.2,28.94,0.0,0.5903333333333333,0.0,285.8,2026-01-03 14:45:42-08:00
59.06,1.0,9.0,2026-01-03 22:46:35,37.08165,-121.59957,328.0,0.0,171.1,-12.6,0.0,,0.0,0.0,0.0,11.5,0.5,229.8,0.0,299.0,0.0,0.01,1.0,0.0,53.0,17.0,0.0,29.88,634.0,0.0,0.0,325.0,0.0,0.0,0.0,0.0,0.0,0.0,0.0,0.0,0.0,0.0,0.0,0.0,0.0,0.0,0.0,0.0,0.0,0.0,0.0,0.0,0.0,0.0,0.0,0.0,0.0,15.0,0.0,0.0,30.0,0.0,0.0,0.0,0.0,0.0,0.0,38.7,0.0,0.0,-0.6,0.3,0.1,0.0,0.0,0.0,0.0,16.0,17.0,16.0,17.0,16.0,17.0,16.0,17.0,0.0,0.0,-2.0,4.2,0.0,0.0,2.0,4.998,0.0,0.0,0.659,0.9,0.0,15.3,0.0,0.0,0.0,,0.0,0.0,16.0,-1.0,-1.6999999999999993,62.6,59.0,32.0,32.0,32.0,32.0,60.8,62.6,60.8,62.6,60.8,62.6,60.8,62.6,32.0,32.0,59.540000000000006,60.8,30.2,28.94,0.0,0.5903333333333333,0.0,285.8,2026-01-03 14:45:42-08:00
60.06,1.0,9.0,2026-01-03 22:46:36,37.08165,-121.59957,327.0,0.0,171.1,-12.6,0.0,,0.0,0.0,0.0,11.5,0.5,229.8,0.0,299.0,0.0,0.01,1.0,0.0,14.0,17.0,0.0,29.88,634.0,0.0,0.0,325.0,0.0,0.0,0.0,0.0,0.0,0.0,0.0,0.0,0.0,0.0,0.0,0.0,0.0,0.0,0.0,0.0,0.0,0.0,0.0,0.0,0.0,0.0,0.0,0.0,0.0,15.0,0.0,0.0,30.0,0.0,0.0,0.0,0.0,0.0,0.0,38.7,0.0,0.0,-0.6,0.3,0.1,0.0,0.0,0.0,0.0,16.0,17.0,16.0,17.0,16.0,17.0,16.0,17.0,0.0,0.0,-2.0,3.5,0.0,0.0,2.0,4.998,0.0,0.0,0.659,0.901,0.0,15.3,0.0,0.0,0.0,,0.0,0.0,16.0,-1.0,-1.6999999999999993,62.6,59.0,32.0,32.0,32.0,32.0,60.8,62.6,60.8,62.6,60.8,62.6,60.8,62.6,32.0,32.0,59.540000000000006,60.8,30.2,28.94,0.0,0.5903333333333333,0.0,285.8,2026-01-03 14:45:42-08:00
61.06,1.0,9.0,2026-01-03 22:46:37,37.08165,-121.59957,327.0,0.0,171.1,-12.6,0.0,,0.0,0.0,0.0,11.5,0.5,229.8,0.0,299.0,0.0,0.01,1.0,0.0,22.0,17.0,0.0,29.88,634.0,0.0,0.0,325.0,0.0,0.0,0.0,0.0,0.0,0.0,0.0,0.0,0.0,0.0,0.0,0.0,0.0,0.0,0.0,0.0,0.0,0.0,0.0,0.0,0.0,0.0,0.0,0.0,0.0,15.0,0.0,0.0,30.0,0.0,0.0,0.0,0.0,0.0,0.0,38.7,0.0,0.0,-0.6,0.3,0.1,0.0,0.0,0.0,0.0,16.0,17.0,16.0,17.0,16.0,17.0,16.0,17.0,0.0,0.0,-2.0,2.9,0.0,0.0,2.0,4.998,0.0,0.0,0.659,0.901,0.0,15.3,0.0,0.0,0.0,,0.0,0.0,16.0,-1.0,-1.6999999999999993,62.6,59.0,32.0,32.0,32.0,32.0,60.8,62.6,60.8,62.6,60.8,62.6,60.8,62.6,32.0,32.0,59.540000000000006,60.8,30.2,28.94,0.0,0.5903333333333333,0.0,285.8,2026-01-03 14:45:42-08:00
62.06,1.0,9.0,2026-01-03 22:46:38,37.08165,-121.59957,326.0,0.0,171.1,-12.6,0.0,,0.0,0.0,0.0,11.4,0.6,229.8,0.0,299.0,0.0,0.01,1.0,0.0,29.0,17.0,0.0,29.88,634.0,0.0,0.0,325.0,0.0,0.0,0.0,0.0,0.0,0.0,0.0,0.0,0.0,0.0,0.0,0.0,0.0,0.0,0.0,0.0,0.0,0.0,0.0,0.0,0.0,0.0,0.0,0.0,0.0,15.0,0.0,0.0,30.0,0.0,0.0,0.0,0.0,0.0,0.0,38.7,0.0,0.0,-0.6,0.3,0.1,0.0,0.0,0.0,0.0,16.0,17.0,16.0,17.0,16.0,17.0,16.0,17.0,0.0,0.0,-2.0,2.5,0.0,0.0,2.0,4.998,0.0,0.0,0.659,0.901,0.0,15.3,0.0,0.0,0.0,,0.0,0.0,16.0,-1.0,-1.6999999999999993,62.6,59.0,32.0,32.0,32.0,32.0,60.8,62.6,60.8,62.6,60.8,62.6,60.8,62.6,32.0,32.0,59.540000000000006,60.8,30.2,28.94,0.0,0.5903333333333333,0.0,285.8,2026-01-03 14:45:42-08:00
63.06,1.0,9.0,2026-01-03 22:46:39,37.08165,-121.59957,326.0,0.0,171.1,-12.6,0.0,,0.0,0.0,0.0,11.5,0.6,229.8,0.0,299.0,-0.0,0.01,1.0,0.0,-5.0,17.0,0.0,29.88,634.0,0.0,0.0,325.0,0.0,0.0,0.0,0.0,0.0,0.0,0.0,0.0,0.0,0.0,0.0,0.0,0.0,0.0,0.0,0.0,0.0,0.0,0.0,0.0,0.0,0.0,0.0,0.0,0.0,15.0,0.0,0.0,30.0,0.0,0.0,0.0,0.0,0.0,0.0,38.7,0.0,0.0,-0.6,0.3,0.1,0.0,0.0,0.0,0.0,16.0,17.0,16.0,17.0,16.0,17.0,16.0,17.0,0.0,0.0,-2.0,2.2,0.0,0.0,2.0,4.998,0.0,0.0,0.659,0.901,0.0,15.3,0.0,0.0,0.0,,0.0,0.0,16.0,-1.0,-1.6999999999999993,62.6,59.0,32.0,32.0,32.0,32.0,60.8,62.6,60.8,62.6,60.8,62.6,60.8,62.6,32.0,32.0,59.540000000000006,60.8,30.2,28.94,0.0,0.5903333333333333,0.0,285.8,2026-01-03 14:45:42-08:00
64.06,1.0,9.0,2026-01-03 22:46:40,37.08165,-121.59957,325.0,0.0,171.1,-12.6,0.0,,0.0,0.0,0.0,11.5,0.6,229.8,0.0,299.0,0.0,0.01,1.0,0.0,3.0,17.0,0.0,29.88,634.0,0.0,0.0,325.0,0.0,0.0,0.0,0.0,0.0,0.0,0.0,0.0,0.0,0.0,0.0,0.0,0.0,0.0,0.0,0.0,0.0,0.0,0.0,0.0,0.0,0.0,0.0,0.0,0.0,15.0,0.0,0.0,30.0,0.0,0.0,0.0,0.0,0.0,0.0,38.7,0.0,0.0,-0.6,0.3,0.1,0.0,0.0,0.0,0.0,16.0,17.0,16.0,17.0,16.0,17.0,16.0,17.0,0.0,0.0,-2.0,1.9,0.0,0.0,2.0,4.998,0.0,0.0,0.659,0.902,0.0,15.3,0.0,0.0,0.0,,0.0,0.0,16.0,-1.0,-1.6999999999999993,62.6,59.0,32.0,32.0,32.0,32.0,60.8,62.6,60.8,62.6,60.8,62.6,60.8,62.6,32.0,32.0,59.540000000000006,60.8,30.2,28.94,0.0,0.5903333333333333,0.0,285.8,2026-01-03 14:45:42-08:00
65.06,1.0,9.0,2026-01-03 22:46:41,37.08165,-121.59957,325.0,0.0,171.1,-12.6,0.0,,0.0,0.0,0.0,11.5,0.5,229.8,0.0,299.0,0.0,0.01,1.0,0.0,-20.0,17.0,0.0,29.88,634.0,0.0,0.0,325.0,0.0,0.0,0.0,0.0,0.0,0.0,0.0,0.0,0.0,0.0,0.0,0.0,0.0,0.0,0.0,0.0,0.0,0.0,0.0,0.0,0.0,0.0,0.0,0.0,0.0,15.0,0.0,0.0,30.0,0.0,0.0,0.0,0.0,0.0,0.0,38.7,0.0,0.0,-0.6,0.3,0.1,0.0,0.0,0.0,0.0,16.0,17.0,16.0,17.0,16.0,17.0,16.0,17.0,0.0,0.0,-2.0,1.7,0.0,0.0,2.0,0.0,0.0,0.0,0.659,0.902,0.0,15.3,0.0,0.0,0.0,,0.0,0.0,16.0,-1.0,-1.6999999999999993,62.6,59.0,32.0,32.0,32.0,32.0,60.8,62.6,60.8,62.6,60.8,62.6,60.8,62.6,32.0,32.0,59.540000000000006,60.8,30.2,28.94,0.0,0.5903333333333333,0.0,285.8,2026-01-03 14:45:42-08:00
66.06,1.0,9.0,2026-01-03 22:46:42,37.08165,-121.59957,325.0,0.0,171.1,-12.6,0.0,,0.0,0.0,0.0,11.5,0.5,229.8,0.0,299.0,0.0,0.01,1.0,0.0,-18.0,17.0,0.0,29.88,634.0,0.0,0.0,325.0,0.0,0.0,0.0,0.0,0.0,0.0,0.0,0.0,0.0,0.0,0.0,0.0,0.0,0.0,0.0,0.0,0.0,0.0,0.0,0.0,0.0,0.0,0.0,0.0,0.0,15.0,0.0,0.0,30.0,0.0,0.0,0.0,0.0,0.0,0.0,38.7,0.0,0.0,-0.6,0.3,0.1,0.0,0.0,0.0,0.0,16.0,17.0,16.0,17.0,16.0,17.0,16.0,17.0,0.0,0.0,-2.0,1.5,0.0,0.0,2.0,0.0,0.0,0.0,0.659,0.902,0.0,15.3,0.0,0.0,0.0,,0.0,0.0,16.0,-1.0,-1.6999999999999993,62.6,59.0,32.0,32.0,32.0,32.0,60.8,62.6,60.8,62.6,60.8,62.6,60.8,62.6,32.0,32.0,59.540000000000006,60.8,30.2,28.94,0.0,0.5903333333333333,0.0,285.8,2026-01-03 14:45:42-08:00
67.06,1.0,9.0,2026-01-03 22:46:43,37.08165,-121.59956,311.0,0.0,171.1,-12.6,0.0,,0.0,0.0,0.0,11.5,0.5,229.9,0.0,299.0,-0.0,0.01,1.0,0.0,-18.0,17.0,0.0,29.88,634.0,0.0,0.0,325.0,0.0,0.0,0.0,0.0,0.0,0.0,0.0,0.0,0.0,0.0,0.0,0.0,0.0,0.0,0.0,0.0,0.0,0.0,0.0,0.0,0.0,0.0,0.0,0.0,0.0,15.0,0.0,0.0,30.0,0.0,0.0,0.0,0.0,0.0,0.0,38.7,0.0,0.0,-0.6,0.3,0.1,0.0,0.0,0.0,0.0,16.0,17.0,16.0,17.0,16.0,17.0,16.0,17.0,0.0,0.0,-2.0,1.4,0.0,0.0,2.0,0.0,0.0,0.0,0.659,0.903,0.0,15.3,0.0,0.0,0.0,,0.0,0.0,16.0,-1.0,-1.6999999999999993,62.6,59.0,32.0,32.0,32.0,32.0,60.8,62.6,60.8,62.6,60.8,62.6,60.8,62.6,32.0,32.0,59.540000000000006,60.8,30.2,28.94,0.0,0.5903333333333333,0.0,285.8,2026-01-03 14:45:42-08:00
68.06,1.0,9.0,2026-01-03 22:46:44,37.08165,-121.59956,312.0,0.0,171.1,-12.6,0.0,,0.0,0.0,0.0,11.5,0.5,229.9,0.0,299.0,0.0,0.01,1.0,0.0,-28.0,17.0,0.0,29.88,636.0,0.0,0.0,325.0,0.0,0.0,0.0,0.0,0.0,0.0,0.0,0.0,0.0,0.0,0.0,0.0,0.0,0.0,0.0,0.0,0.0,0.0,0.0,0.0,0.0,0.0,0.0,0.0,0.0,15.0,0.0,0.0,30.0,0.0,0.0,0.0,0.0,0.0,0.0,38.7,0.0,0.0,-0.6,0.3,0.1,0.0,0.0,0.0,0.0,16.0,17.0,16.0,17.0,16.0,17.0,16.0,17.0,0.0,0.0,-2.0,1.3,0.0,0.0,2.0,0.0,0.0,0.0,0.659,0.903,0.0,15.3,0.0,0.0,0.0,,0.0,0.0,16.0,-1.0,-1.6999999999999993,62.6,59.0,32.0,32.0,32.0,32.0,60.8,62.6,60.8,62.6,60.8,62.6,60.8,62.6,32.0,32.0,59.540000000000006,60.8,30.2,28.94,0.0,0.5903333333333333,0.0,285.8,2026-01-03 14:45:42-08:00
69.06,1.0,9.0,2026-01-03 22:46:45,37.08165,-121.59956,313.0,0.0,171.1,-12.6,0.0,,0.0,0.0,0.0,11.5,0.6,229.9,0.0,299.0,-0.0,0.01,1.0,0.0,-31.0,17.0,0.0,29.88,634.0,0.0,0.0,325.0,0.0,0.0,0.0,0.0,0.0,0.0,0.0,0.0,0.0,0.0,0.0,0.0,0.0,0.0,0.0,0.0,0.0,0.0,0.0,0.0,0.0,0.0,0.0,0.0,0.0,15.0,0.0,0.0,30.0,0.0,0.0,0.0,0.0,0.0,0.0,38.7,0.0,0.0,-0.6,0.3,0.1,0.0,0.0,0.0,0.0,16.0,17.0,16.0,17.0,16.0,17.0,16.0,17.0,0.0,0.0,-2.0,1.2,0.0,0.0,2.0,0.0,0.0,0.0,0.659,0.905,0.0,15.3,0.0,0.0,0.0,,0.0,0.0,16.0,-1.0,-1.6999999999999993,62.6,59.0,32.0,32.0,32.0,32.0,60.8,62.6,60.8,62.6,60.8,62.6,60.8,62.6,32.0,32.0,59.540000000000006,60.8,30.2,28.94,0.0,0.5903333333333333,0.0,285.8,2026-01-03 14:45:42-08:00
70.06,1.0,9.0,2026-01-03 22:46:46,37.08165,-121.59956,314.0,0.0,171.1,-12.6,0.0,,0.0,0.0,0.0,11.5,0.6,229.8,0.0,299.0,-0.0,0.01,1.0,0.0,-11.0,17.0,0.0,29.88,634.0,0.0,0.0,325.0,0.0,0.0,0.0,0.0,0.0,0.0,0.0,0.0,0.0,0.0,0.0,0.0,0.0,0.0,0.0,0.0,0.0,0.0,0.0,0.0,0.0,0.0,0.0,0.0,0.0,15.0,0.0,0.0,30.0,0.0,0.0,0.0,0.0,0.0,0.0,38.7,0.0,0.0,-0.6,0.3,0.1,0.0,0.0,0.0,0.0,16.0,17.0,16.0,17.0,16.0,17.0,16.0,17.0,0.0,0.0,-2.0,1.2,0.0,0.0,2.0,0.0,0.0,0.0,0.659,0.905,0.0,15.3,0.0,0.0,0.0,,0.0,0.0,16.0,-1.0,-1.6999999999999993,62.6,59.0,32.0,32.0,32.0,32.0,60.8,62.6,60.8,62.6,60.8,62.6,60.8,62.6,32.0,32.0,59.540000000000006,60.8,30.2,28.94,0.0,0.5903333333333333,0.0,285.8,2026-01-03 14:45:42-08:00
71.06,1.0,9.0,2026-01-03 22:46:47,37.08165,-121.59956,315.0,0.0,171.1,-12.6,0.0,,0.0,0.0,0.0,11.5,0.6,229.9,0.0,299.0,-0.0,0.01,1.0,0.0,-42.0,17.0,0.0,29.88,634.0,0.0,0.0,325.0,0.0,0.0,0.0,0.0,0.0,0.0,0.0,0.0,0.0,0.0,0.0,0.0,0.0,0.0,0.0,0.0,0.0,0.0,0.0,0.0,0.0,0.0,0.0,0.0,0.0,15.0,0.0,0.0,30.0,0.0,0.0,0.0,0.0,0.0,0.0,38.7,0.0,0.0,-0.6,0.3,0.1,0.0,0.0,0.0,0.0,16.0,17.0,16.0,17.0,16.0,17.0,16.0,17.0,0.0,0.0,-2.0,1.1,0.0,0.0,2.0,0.0,0.0,0.0,0.659,0.907,0.0,15.3,0.0,0.0,0.0,,0.0,0.0,16.0,-1.0,-1.6999999999999993,62.6,59.0,32.0,32.0,32.0,32.0,60.8,62.6,60.8,62.6,60.8,62.6,60.8,62.6,32.0,32.0,59.540000000000006,60.8,30.2,28.94,0.0,0.5903333333333333,0.0,285.8,2026-01-03 14:45:42-08:00
72.06,1.0,9.0,2026-01-03 22:46:48,37.08165,-121.59956,317.0,0.0,171.1,-12.6,0.0,,0.0,0.0,0.0,11.5,0.5,229.9,0.0,299.0,-0.0,0.01,1.0,0.0,-34.0,17.0,0.0,29.88,636.0,0.0,0.0,325.0,0.0,0.0,0.0,0.0,0.0,0.0,0.0,0.0,0.0,0.0,0.0,0.0,0.0,0.0,0.0,0.0,0.0,0.0,0.0,0.0,0.0,0.0,0.0,0.0,0.0,15.0,0.0,0.0,30.0,0.0,0.0,0.0,0.0,0.0,0.0,38.7,0.0,0.0,-0.6,0.3,0.1,0.0,0.0,0.0,0.0,16.0,17.0,16.0,17.0,16.0,17.0,16.0,17.0,0.0,0.0,-2.0,1.1,0.0,0.0,2.0,0.0,0.0,0.0,0.659,0.907,0.0,15.3,0.0,0.0,0.0,,0.0,0.0,16.0,-1.0,-1.6999999999999993,62.6,59.0,32.0,32.0,32.0,32.0,60.8,62.6,60.8,62.6,60.8,62.6,60.8,62.6,32.0,32.0,59.540000000000006,60.8,30.2,28.94,0.0,0.5903333333333333,0.0,285.8,2026-01-03 14:45:42-08:00
73.06,1.0,9.0,2026-01-03 22:46:49,37.08165,-121.59956,319.0,0.0,171.1,-12.6,0.0,,0.0,0.0,0.0,11.5,0.5,229.8,0.0,299.0,-0.0,0.01,1.0,0.0,-49.0,17.0,0.0,29.88,636.0,0.0,0.0,325.0,0.0,0.0,0.0,0.0,0.0,0.0,0.0,0.0,0.0,0.0,0.0,0.0,0.0,0.0,0.0,0.0,0.0,0.0,0.0,0.0,0.0,0.0,0.0,0.0,0.0,15.0,0.0,0.0,30.0,0.0,0.0,0.0,0.0,0.0,0.0,38.7,0.0,0.0,-0.6,0.3,0.1,0.0,0.0,0.0,0.0,16.0,17.0,16.0,17.0,16.0,17.0,16.0,17.0,0.0,0.0,-2.0,1.1,0.0,0.0,2.0,0.0,0.0,0.0,0.659,0.908,0.0,15.3,0.0,0.0,0.0,,0.0,0.0,16.0,-1.0,-1.6999999999999993,62.6,59.0,32.0,32.0,32.0,32.0,60.8,62.6,60.8,62.6,60.8,62.6,60.8,62.6,32.0,32.0,59.540000000000006,60.8,30.2,28.94,0.0,0.5903333333333333,0.0,285.8,2026-01-03 14:45:42-08:00
74.06,1.0,9.0,2026-01-03 22:46:50,37.08165,-121.59956,320.0,0.0,171.1,-12.6,0.0,,0.0,0.0,0.0,11.5,0.5,229.9,0.0,299.0,0.0,0.01,1.0,0.0,-27.0,17.0,0.0,29.88,634.0,0.0,0.0,325.0,0.0,0.0,0.0,0.0,0.0,0.0,0.0,0.0,0.0,0.0,0.0,0.0,0.0,0.0,0.0,0.0,0.0,0.0,0.0,0.0,0.0,0.0,0.0,0.0,0.0,15.0,0.0,0.0,30.0,0.0,0.0,0.0,0.0,0.0,0.0,38.7,0.0,0.0,-0.6,0.3,0.1,0.0,0.0,0.0,0.0,16.0,17.0,16.0,17.0,16.0,17.0,16.0,17.0,0.0,0.0,-2.0,1.0,0.0,0.0,2.0,0.0,0.0,0.0,0.659,0.909,0.0,15.3,0.0,0.0,0.0,,0.0,0.0,16.0,-1.0,-1.6999999999999993,62.6,59.0,32.0,32.0,32.0,32.0,60.8,62.6,60.8,62.6,60.8,62.6,60.8,62.6,32.0,32.0,59.540000000000006,60.8,30.2,28.94,0.0,0.5903333333333333,0.0,285.8,2026-01-03 14:45:42-08:00
75.06,1.0,9.0,2026-01-03 22:46:51,37.08165,-121.59957,321.0,0.1,171.1,-12.6,0.0,,0.0,0.0,0.0,11.4,0.5,229.8,0.0,299.0,-0.0,0.01,1.0,0.0,-21.0,17.0,0.0,29.88,634.0,0.0,0.0,325.0,0.0,0.0,0.0,0.0,0.0,0.0,0.0,0.0,0.0,0.0,0.0,0.0,0.0,0.0,0.0,0.0,0.0,0.0,0.0,0.0,0.0,0.0,0.0,0.0,0.0,15.0,0.0,0.0,30.0,0.0,0.0,0.0,0.0,0.0,0.0,38.7,0.0,0.0,-0.6,0.3,0.1,0.0,0.0,0.0,0.0,16.0,17.0,16.0,17.0,16.0,17.0,16.0,17.0,0.0,0.0,-2.0,1.0,0.0,0.0,2.0,0.0,0.0,0.0,0.658,0.912,0.0,15.3,0.0,0.0,0.0,,0.0,0.0,16.0,-1.0,-1.6999999999999993,62.6,59.0,32.0,32.0,32.0,32.0,60.8,62.6,60.8,62.6,60.8,62.6,60.8,62.6,32.0,32.0,59.540000000000006,60.8,30.2,28.94,0.0,0.6746666666666666,0.0,285.8,2026-01-03 14:45:42-08:00
76.06,1.0,9.0,2026-01-03 22:46:52,37.08165,-121.59957,323.0,0.0,171.1,-12.6,0.0,,0.0,0.0,0.0,11.5,0.6,229.8,0.0,299.0,-0.0,0.01,1.0,0.0,-22.0,17.0,0.0,29.88,634.0,0.0,0.0,325.0,0.0,0.0,0.0,0.0,0.0,0.0,0.0,0.0,0.0,0.0,0.0,0.0,0.0,0.0,0.0,0.0,0.0,0.0,0.0,0.0,0.0,0.0,0.0,0.0,0.0,15.0,0.0,0.0,30.0,0.0,0.0,0.0,0.0,0.0,0.0,38.7,0.0,0.0,-0.6,0.3,0.1,0.0,0.0,0.0,0.0,16.0,17.0,16.0,17.0,16.0,17.0,16.0,17.0,0.0,0.0,-2.0,1.0,0.0,0.0,2.0,0.0,0.0,0.0,0.659,0.913,0.0,15.3,0.0,0.0,0.0,,0.0,0.0,16.0,-1.0,-1.6999999999999993,62.6,59.0,32.0,32.0,32.0,32.0,60.8,62.6,60.8,62.6,60.8,62.6,60.8,62.6,32.0,32.0,59.540000000000006,60.8,30.2,28.94,0.0,0.759,0.0,285.8,2026-01-03 14:45:42-08:00
77.06,1.0,9.0,2026-01-03 22:46:53,37.08165,-121.59957,324.0,0.0,171.1,-12.6,0.0,,0.0,0.0,0.0,11.5,0.6,229.8,0.0,299.0,-0.0,0.01,1.0,0.0,-38.0,17.0,0.0,29.88,636.0,0.0,0.0,325.0,0.0,0.0,0.0,0.0,0.0,0.0,0.0,0.0,0.0,0.0,0.0,0.0,0.0,0.0,0.0,0.0,0.0,0.0,0.0,0.0,0.0,0.0,0.0,0.0,0.0,15.0,0.0,0.0,30.0,0.0,0.0,0.0,0.0,0.0,0.0,38.7,0.0,0.0,-0.6,0.3,0.1,0.0,0.0,0.0,0.0,16.0,17.0,16.0,17.0,16.0,17.0,16.0,17.0,0.0,0.0,-2.0,1.0,0.0,0.0,2.0,0.0,0.0,0.0,0.659,0.914,0.0,15.3,0.0,0.0,0.0,,0.0,0.0,16.0,-1.0,-1.6999999999999993,62.6,59.0,32.0,32.0,32.0,32.0,60.8,62.6,60.8,62.6,60.8,62.6,60.8,62.6,32.0,32.0,59.540000000000006,60.8,30.2,28.94,0.0,0.759,0.0,285.8,2026-01-03 14:45:42-08:00
78.06,1.0,9.0,2026-01-03 22:46:54,37.08165,-121.59957,325.0,0.0,171.1,-12.6,0.0,,0.0,0.0,0.0,11.5,0.6,229.7,0.0,299.0,-0.0,0.01,1.0,0.0,-65.0,17.0,0.0,29.88,636.0,0.0,0.0,325.0,0.0,0.0,0.0,0.0,0.0,0.0,0.0,0.0,0.0,0.0,0.0,0.0,0.0,0.0,0.0,0.0,0.0,0.0,0.0,0.0,0.0,0.0,0.0,0.0,0.0,15.0,0.0,0.0,30.0,0.0,0.0,0.0,0.0,0.0,0.0,38.7,0.0,0.0,-0.6,0.3,0.1,0.0,0.0,0.0,0.0,16.0,17.0,16.0,17.0,16.0,17.0,16.0,17.0,0.0,0.0,-2.0,1.0,0.0,0.0,2.0,0.0,0.0,0.0,0.659,0.916,0.0,15.3,0.0,0.0,0.0,,0.0,0.0,16.0,-1.0,-1.6999999999999993,62.6,59.0,32.0,32.0,32.0,32.0,60.8,62.6,60.8,62.6,60.8,62.6,60.8,62.6,32.0,32.0,59.540000000000006,60.8,30.2,28.94,0.0,0.759,0.0,285.8,2026-01-03 14:45:42-08:00
79.06,1.0,9.0,2026-01-03 22:46:55,37.08165,-121.59958,326.0,0.0,171.1,-12.6,0.0,,0.0,0.0,0.0,11.5,0.6,229.8,0.0,298.0,-0.0,0.01,1.0,0.0,-41.0,17.0,0.0,29.88,636.0,0.0,0.0,325.0,0.0,0.0,0.0,0.0,0.0,0.0,0.0,0.0,0.0,0.0,0.0,0.0,0.0,0.0,0.0,0.0,0.0,0.0,0.0,0.0,0.0,0.0,0.0,0.0,0.0,15.0,0.0,0.0,30.0,0.0,0.0,0.0,0.0,0.0,0.0,38.7,0.0,0.0,-0.6,0.3,0.1,0.0,0.0,0.0,0.0,16.0,17.0,16.0,17.0,16.0,17.0,16.0,17.0,0.0,0.0,-2.0,1.0,0.0,0.0,2.0,0.0,0.0,0.0,0.659,0.918,0.0,15.3,0.0,0.0,0.0,,0.0,0.0,16.0,-1.0,-1.6999999999999993,62.6,59.0,32.0,32.0,32.0,32.0,60.8,62.6,60.8,62.6,60.8,62.6,60.8,62.6,32.0,32.0,59.540000000000006,60.8,30.2,28.94,0.0,0.759,0.0,285.8,2026-01-03 14:45:42-08:00
80.06,1.0,9.0,2026-01-03 22:46:56,37.08165,-121.59958,327.0,0.0,171.1,-12.6,0.0,,0.0,0.0,0.0,11.5,0.6,229.7,0.0,298.0,-0.0,0.01,1.0,0.0,-50.0,17.0,0.0,29.88,633.0,0.0,0.0,325.0,0.0,0.0,0.0,0.0,0.0,0.0,0.0,0.0,0.0,0.0,0.0,0.0,0.0,0.0,0.0,0.0,0.0,0.0,0.0,0.0,0.0,0.0,0.0,0.0,0.0,15.0,0.0,0.0,30.0,0.0,0.0,0.0,0.0,0.0,0.0,38.7,0.0,0.0,-0.6,0.3,0.1,0.0,0.0,0.0,0.0,16.0,17.0,16.0,17.0,16.0,17.0,16.0,17.0,0.0,0.0,-2.0,1.0,0.0,0.0,2.0,0.0,0.0,0.0,0.658,0.919,0.0,15.3,0.0,0.0,0.0,,0.0,0.0,16.0,-1.0,-1.6999999999999993,62.6,59.0,32.0,32.0,32.0,32.0,60.8,62.6,60.8,62.6,60.8,62.6,60.8,62.6,32.0,32.0,59.540000000000006,60.8,30.2,28.94,0.0,0.759,0.0,285.8,2026-01-03 14:45:42-08:00
81.06,1.0,9.0,2026-01-03 22:46:57,37.08165,-121.59958,327.0,0.0,171.1,-12.6,0.0,,0.0,0.0,0.0,11.5,0.6,229.8,0.0,297.0,-0.0,0.01,1.0,0.0,-38.0,17.0,0.0,29.88,633.0,0.0,0.0,325.0,0.0,0.0,0.0,0.0,0.0,0.0,0.0,0.0,0.0,0.0,0.0,0.0,0.0,0.0,0.0,0.0,0.0,0.0,0.0,0.0,0.0,0.0,0.0,0.0,0.0,15.0,0.0,0.0,30.0,0.0,0.0,0.0,0.0,0.0,0.0,38.7,0.0,0.0,-0.6,0.3,0.1,0.0,0.0,0.0,0.0,16.0,17.0,16.0,17.0,16.0,17.0,16.0,17.0,0.0,0.0,-2.0,1.0,0.0,0.0,2.0,0.0,0.0,0.0,0.658,0.919,0.0,15.3,0.0,0.0,0.0,,0.0,0.0,16.0,-1.0,-1.6999999999999993,62.6,59.0,32.0,32.0,32.0,32.0,60.8,62.6,60.8,62.6,60.8,62.6,60.8,62.6,32.0,32.0,59.540000000000006,60.8,30.2,28.94,0.0,0.759,0.0,285.8,2026-01-03 14:45:42-08:00
82.06,1.0,9.0,2026-01-03 22:46:58,37.08165,-121.59962,360.0,0.0,171.1,-12.6,0.0,,0.0,0.0,0.0,11.5,0.6,229.8,0.0,297.0,0.0,0.01,1.0,0.0,-22.0,17.0,0.0,29.88,633.0,0.0,0.0,325.0,0.0,0.0,0.0,0.0,0.0,0.0,0.0,0.0,0.0,0.0,0.0,0.0,0.0,0.0,0.0,0.0,0.0,0.0,0.0,0.0,0.0,0.0,0.0,0.0,0.0,15.0,0.0,0.0,30.0,0.0,0.0,0.0,0.0,0.0,0.0,38.7,0.0,0.0,-0.6,0.3,0.1,0.0,0.0,0.0,0.0,16.0,17.0,16.0,17.0,16.0,17.0,16.0,17.0,0.0,0.0,-2.0,1.0,0.0,0.0,2.0,0.0,0.0,0.0,0.658,0.922,0.0,15.3,0.0,0.0,0.0,,0.0,0.0,16.0,-1.0,-1.6999999999999993,62.6,59.0,32.0,32.0,32.0,32.0,60.8,62.6,60.8,62.6,60.8,62.6,60.8,62.6,32.0,32.0,59.540000000000006,60.8,30.2,28.94,0.0,0.759,0.0,285.8,2026-01-03 14:45:42-08:00
83.06,1.0,9.0,2026-01-03 22:46:59,37.08165,-121.59962,359.0,0.0,171.1,-12.6,0.0,,0.0,0.0,0.0,11.5,0.6,229.8,0.0,297.0,0.0,0.01,1.0,0.0,-12.0,17.0,0.0,29.88,632.0,0.0,0.0,325.0,0.0,0.0,0.0,0.0,0.0,0.0,0.0,0.0,0.0,0.0,0.0,0.0,0.0,0.0,0.0,0.0,0.0,0.0,0.0,0.0,0.0,0.0,0.0,0.0,0.0,15.0,0.0,0.0,30.0,0.0,0.0,0.0,0.0,0.0,0.0,38.7,0.0,0.0,-0.6,0.3,0.1,0.0,0.0,0.0,0.0,16.0,17.0,16.0,17.0,16.0,17.0,16.0,17.0,0.0,0.0,-2.0,1.0,0.0,0.0,2.0,0.0,0.0,0.0,0.659,0.925,0.0,15.3,0.0,0.0,0.0,,0.0,0.0,16.0,-1.0,-1.6999999999999993,62.6,59.0,32.0,32.0,32.0,32.0,60.8,62.6,60.8,62.6,60.8,62.6,60.8,62.6,32.0,32.0,59.540000000000006,60.8,30.2,28.94,0.0,0.759,0.0,285.8,2026-01-03 14:45:42-08:00
84.06,1.0,9.0,2026-01-03 22:47:00,37.08165,-121.59962,357.0,0.0,171.1,-12.6,0.0,,0.0,0.0,0.0,11.5,0.6,229.8,0.0,297.0,-0.0,0.01,1.0,0.0,-8.0,17.0,0.0,29.88,632.0,0.0,0.0,325.0,0.0,0.0,0.0,0.0,0.0,0.0,0.0,0.0,0.0,0.0,0.0,0.0,0.0,0.0,0.0,0.0,0.0,0.0,0.0,0.0,0.0,0.0,0.0,0.0,0.0,15.0,0.0,0.0,30.0,0.0,0.0,0.0,0.0,0.0,0.0,38.7,0.0,0.0,-0.6,0.3,0.1,0.0,0.0,0.0,0.0,16.0,17.0,16.0,17.0,16.0,17.0,16.0,17.0,0.0,0.0,-2.0,1.0,0.0,0.0,2.0,0.0,0.0,0.0,0.659,0.928,0.0,15.3,0.0,0.0,0.0,,0.0,0.0,16.0,-1.0,-1.6999999999999993,62.6,59.0,32.0,32.0,32.0,32.0,60.8,62.6,60.8,62.6,60.8,62.6,60.8,62.6,32.0,32.0,59.540000000000006,60.8,30.2,28.94,0.0,0.759,0.0,285.8,2026-01-03 14:45:42-08:00
85.06,1.0,9.0,2026-01-03 22:47:01,37.08165,-121.59962,355.0,0.0,171.1,-12.6,0.0,,0.0,0.0,0.0,11.5,0.6,229.8,0.0,297.0,0.0,0.01,1.0,0.0,5.0,17.0,0.0,29.88,632.0,0.0,0.0,325.0,0.0,0.0,0.0,0.0,0.0,0.0,0.0,0.0,0.0,0.0,0.0,0.0,0.0,0.0,0.0,0.0,0.0,0.0,0.0,0.0,0.0,0.0,0.0,0.0,0.0,15.0,0.0,0.0,30.0,0.0,0.0,0.0,0.0,0.0,0.0,38.7,0.0,0.0,-0.6,0.3,0.1,0.0,0.0,0.0,0.0,16.0,17.0,16.0,17.0,16.0,17.0,16.0,17.0,0.0,0.0,-2.0,1.0,0.0,0.0,2.0,0.0,0.0,0.0,0.659,0.928,0.0,15.3,0.0,0.0,0.0,,0.0,0.0,16.0,-1.0,-1.6999999999999993,62.6,59.0,32.0,32.0,32.0,32.0,60.8,62.6,60.8,62.6,60.8,62.6,60.8,62.6,32.0,32.0,59.540000000000006,60.8,30.2,28.94,0.0,0.759,0.0,285.8,2026-01-03 14:45:42-08:00
86.06,1.0,9.0,2026-01-03 22:47:02,37.08165,-121.59962,353.0,0.0,171.1,-12.6,0.0,,0.0,0.0,0.0,11.5,0.6,229.9,0.0,297.0,0.0,0.01,1.0,0.0,25.0,17.0,0.0,29.88,632.0,0.0,0.0,325.0,0.0,0.0,0.0,0.0,0.0,0.0,0.0,0.0,0.0,0.0,0.0,0.0,0.0,0.0,0.0,0.0,0.0,0.0,0.0,0.0,0.0,0.0,0.0,0.0,0.0,15.0,0.0,0.0,30.0,0.0,0.0,0.0,0.0,0.0,0.0,38.7,0.0,0.0,-0.6,0.3,0.1,0.0,0.0,0.0,0.0,16.0,17.0,16.0,17.0,16.0,17.0,16.0,17.0,0.0,0.0,-2.0,1.0,0.0,0.0,2.0,0.0,0.0,0.0,0.658,0.931,0.0,15.3,0.0,0.0,0.0,,0.0,0.0,16.0,-1.0,-1.6999999999999993,62.6,59.0,32.0,32.0,32.0,32.0,60.8,62.6,60.8,62.6,60.8,62.6,60.8,62.6,32.0,32.0,59.540000000000006,60.8,30.2,28.94,0.0,0.759,0.0,285.8,2026-01-03 14:45:42-08:00
87.06,1.0,9.0,2026-01-03 22:47:03,37.08165,-121.59961,351.0,0.0,171.1,-12.6,0.0,,0.0,0.0,0.0,11.5,0.6,229.8,0.0,297.0,0.0,0.01,1.0,0.0,33.0,17.0,0.0,29.88,632.0,0.0,0.0,325.0,0.0,0.0,0.0,0.0,0.0,0.0,0.0,0.0,0.0,0.0,0.0,0.0,0.0,0.0,0.0,0.0,0.0,0.0,0.0,0.0,0.0,0.0,0.0,0.0,0.0,15.0,0.0,0.0,30.0,0.0,0.0,0.0,0.0,0.0,0.0,38.7,0.0,0.0,-0.6,0.3,0.1,0.0,0.0,0.0,0.0,16.0,17.0,16.0,17.0,16.0,17.0,16.0,17.0,0.0,0.0,-2.0,0.0,0.0,0.0,2.0,0.0,0.0,0.0,0.659,0.933,0.0,15.3,0.0,0.0,0.0,,0.0,0.0,16.0,-1.0,-1.6999999999999993,62.6,59.0,32.0,32.0,32.0,32.0,60.8,62.6,60.8,62.6,60.8,62.6,60.8,62.6,32.0,32.0,59.540000000000006,60.8,30.2,28.94,0.0,0.759,0.0,285.8,2026-01-03 14:45:42-08:00
88.06,1.0,9.0,2026-01-03 22:47:04,37.08165,-121.59961,349.0,0.0,171.1,-12.6,0.0,,0.0,0.0,0.0,11.5,0.6,229.8,0.0,297.0,-0.0,0.01,1.0,0.0,33.0,17.0,0.0,29.88,632.0,0.0,0.0,325.0,0.0,0.0,0.0,0.0,0.0,0.0,0.0,0.0,0.0,0.0,0.0,0.0,0.0,0.0,0.0,0.0,0.0,0.0,0.0,0.0,0.0,0.0,0.0,0.0,0.0,15.0,0.0,0.0,30.0,0.0,0.0,0.0,0.0,0.0,0.0,38.7,0.0,0.0,-0.6,0.3,0.1,0.0,0.0,0.0,0.0,16.0,17.0,16.0,17.0,16.0,17.0,16.0,17.0,0.0,0.0,-2.0,0.0,0.0,0.0,2.0,0.0,0.0,0.0,0.658,0.935,0.0,15.3,0.0,0.0,0.0,,0.0,0.0,16.0,-1.0,-1.6999999999999993,62.6,59.0,32.0,32.0,32.0,32.0,60.8,62.6,60.8,62.6,60.8,62.6,60.8,62.6,32.0,32.0,59.540000000000006,60.8,30.2,28.94,0.0,0.759,0.0,285.8,2026-01-03 14:45:42-08:00
