Session Time,GPS Fix Quality,Number of Satellites,GPS Date & Time,Latitude (deg),Longitude (deg),GPS Altitude (feet),Ground Speed (knots),Ground Track (deg),Mag Var (deg),Cross Track Error (NM),Destination Waypoint ID,Range to Destination (NM),Bearing to Destination (deg),System Time,Pitch (deg),Roll (deg),Magnetic Heading (deg),Indicated Airspeed (knots),Pressure Altitude (ft),Turn Rate (deg/s),Lateral Accel (g),Vertical Accel(g),Angle of Attack (%),Vertical Speed (ft/min),OAT (deg C),True Airspeed (knots),Barometer Setting (inHg),Density Altitude (ft),Wind Direction (deg),Wind Speed (knots),Heading Bug (deg),Altitude Bug (ft),Airspeed Bug (knots),Vertical Speed Bug (ft/min),Course (deg),CDI Source Type,CDI Source Port,CDI Scale (NM),CDI Deflection (%),Glideslope (%),AP Engaged,AP Roll Mode,AP Roll Force,AP Roll Position (steps),AP Roll Slip (bool),AP Pitch Force,AP Pitch Position (steps),AP Pitch Slip (bool),AP Yaw Force,AP Yaw Position,AP Yaw Slip (bool),Transponder Status,Transponder Reply (bool),Transponder Identing (bool),Transponder Code (octal),Oil Pressure (PSI),Oil Temp (deg C),RPM L,RPM R,Manifold Pressure (inHg),Fuel Flow 1 (gal/hr),Fuel Flow 2 (gal/hr),Total Fuel Flow (gal/hr),Fuel Pressure (PSI),Fuel Level L (gal),Fuel Level R (gal),Fuel Remaining (gal),Volts 1,Volts 2,Amps,Hobbs Time,Tach Time,Thermocouple 1 (deg C),Thermocouple 2 (deg C),Thermocouple 3 (deg C),Thermocouple 4 (deg C),CHT 4 (deg C),EGT 4 (deg C),CHT 3 (deg C),EGT 3 (deg C),CHT 2 (deg C),EGT 2 (deg C),CHT 1 (deg C),EGT 1 (deg C),Thermocouple 13 (deg C),Thermocouple 14 (deg C),ELEV POSITION (%),CO PPM PRESSURE (PSI),GP Input 3,FUEL PRESSURE (PSI),AILERN POSITION (%),CANOPY CONTACT (V),GP Input 7,GP Input 8,LEFT LEVEL (Sensor V),RIGHT LEVEL (Sensor V),OIL PRESSURE (PSI),OIL TEMPERATURE (deg C),GP Input 13,Contacts,Percent Power,EGT Leaning State,Unnamed: 103,RPM,Flight ID
5.06,1.0,5.0,2026-04-14 00:09:03,37.08118,-121.59937,239.0,0.1,153.6,-12.6,,,,,00:09:03,10.7,-0.7,11.8,0.0,153.0,0.1,-0.01,1.0,99.0,-89.0,24.0,0.0,29.93,1209.0,,,307.0,,,,,0.0,0.0,,,,,,,,,,,,,,,,,,,0.0,19.0,0.0,0.0,30.2,0.0,,0.0,0.1,,,16.3,0.0,0.0,-0.7,10.0,8.1,,,,,19.0,20.0,20.0,20.0,19.0,20.0,20.0,20.0,,,9.0,254.5,,0.1,2.0,0.0,,,1.576,1.584,+0.0,18.9,,,,,,0.0,2026-04-13 17:09:03-07:00
6.06,1.0,6.0,2026-04-14 00:09:04,37.08156,-121.59961,335.0,0.0,153.6,-12.6,,,,,00:09:04,10.7,-0.7,11.8,0.0,152.0,0.1,-0.01,1.0,99.0,-87.0,24.0,0.0,29.93,1209.0,,,307.0,,,,,0.0,0.0,,,,,,,,,,,,,,,,,,,0.0,19.0,0.0,0.0,30.2,0.0,,0.0,0.1,,,16.3,0.0,0.0,-0.7,10.0,8.1,,,,,19.0,20.0,20.0,20.0,19.0,20.0,20.0,20.0,,,9.0,254.5,,0.1,2.0,0.0,,,1.576,1.586,+0.0,18.8,,,,,,0.0,2026-04-13 17:09:03-07:00
7.06,1.0,7.0,2026-04-14 00:09:05,37.08154,-121.5996,324.0,0.0,153.6,-12.6,,,,,00:09:05,10.7,-0.7,11.8,0.0,152.0,0.1,-0.01,1.0,99.0,-71.0,24.0,0.0,29.93,1215.0,,,307.0,,,,,0.0,0.0,,,,,,,,,,,,,,,,,,,0.0,19.0,0.0,0.0,30.2,0.0,,0.0,0.1,,,16.3,0.0,0.0,-0.7,10.0,8.1,,,,,19.0,20.0,20.0,20.0,19.0,20.0,20.0,20.0,,,9.0,254.5,,0.1,2.0,0.0,,,1.576,1.584,+0.0,18.8,,,,,,0.0,2026-04-13 17:09:03-07:00
8.06,1.0,7.0,2026-04-14 00:09:06,37.08154,-121.5996,324.0,0.0,153.6,-12.6,,,,,00:09:06,10.7,-0.7,11.8,0.0,151.0,0.1,-0.01,1.0,99.0,-41.0,24.0,0.0,29.93,1215.0,,,307.0,,,,,0.0,0.0,,,,,,,,,,,,,,,,,,,0.0,19.0,0.0,0.0,30.2,0.0,,0.0,0.1,,,16.3,0.0,0.0,-0.7,10.0,8.1,,,,,19.0,20.0,20.0,20.0,19.0,20.0,20.0,20.0,,,9.0,254.5,,0.1,2.0,0.0,,,1.576,1.584,+0.0,18.8,,,,,,0.0,2026-04-13 17:09:03-07:00
9.06,1.0,7.0,2026-04-14 00:09:07,37.08154,-121.5996,322.0,0.1,153.6,-12.6,,,,,00:09:07,10.7,-0.7,11.8,0.0,150.0,0.1,-0.01,1.0,99.0,-54.0,24.0,0.0,29.93,1215.0,,,307.0,,,,,0.0,0.0,,,,,,,,,,,,,,,,,,,0.0,19.0,0.0,0.0,30.2,0.0,,0.0,0.1,,,16.3,0.0,0.0,-0.7,10.0,8.1,,,,,19.0,20.0,20.0,20.0,19.0,20.0,20.0,20.0,,,9.0,254.5,,0.1,2.0,0.0,,,1.576,1.584,+0.0,18.8,,,,,,0.0,2026-04-13 17:09:03-07:00
10.06,1.0,7.0,2026-04-14 00:09:08,37.08154,-121.59961,320.0,0.1,153.6,-12.6,,,,,00:09:08,10.7,-0.7,11.8,0.0,149.0,0.1,-0.01,1.0,99.0,-54.0,24.0,0.0,29.93,1212.0,,,307.0,,,,,0.0,0.0,,,,,,,,,,,,,,,,,,,0.0,19.0,0.0,0.0,30.2,0.0,,0.0,0.1,,,16.3,0.0,0.0,-0.7,10.0,8.1,,,,,19.0,20.0,19.0,20.0,19.0,20.0,20.0,20.0,,,9.0,254.5,,0.1,2.0,0.0,,,1.576,1.584,+0.0,18.8,,,,,,0.0,2026-04-13 17:09:03-07:00
11.06,1.0,7.0,2026-04-14 00:09:09,37.08154,-121.59961,318.0,0.1,153.6,-12.6,,,,,00:09:09,10.7,-0.7,11.7,0.0,149.0,0.1,-0.01,1.0,99.0,-42.0,24.0,0.0,29.93,1212.0,,,307.0,,,,,0.0,0.0,,,,,,,,,,,,,,,,,,,0.0,19.0,0.0,0.0,30.2,0.0,,0.0,0.1,,,16.3,0.0,0.0,-0.7,10.0,8.1,,,,,20.0,20.0,20.0,20.0,20.0,20.0,20.0,20.0,,,9.0,254.4,,0.1,2.0,0.0,,,1.576,1.584,+0.0,18.7,,,,,,0.0,2026-04-13 17:09:03-07:00
12.06,1.0,7.0,2026-04-14 00:09:10,37.08154,-121.59961,317.0,0.1,153.6,-12.6,,,,,00:09:10,10.7,-0.8,11.7,0.0,148.0,0.1,-0.02,1.0,99.0,-31.0,24.0,0.0,29.93,1212.0,,,307.0,,,,,0.0,0.0,,,,,,,,,,,,,,,,,,,0.0,19.0,0.0,0.0,30.2,0.0,,0.0,0.1,,,16.3,0.0,0.0,-0.7,10.0,8.1,,,,,20.0,20.0,20.0,20.0,20.0,20.0,20.0,20.0,,,9.0,254.4,,0.1,2.0,0.0,,,1.576,1.586,+0.0,18.7,,,,,,0.0,2026-04-13 17:09:03-07:00
13.06,1.0,7.0,2026-04-14 00:09:11,37.08155,-121.59961,317.0,0.0,153.6,-12.6,,,,,00:09:11,10.7,-0.7,11.7,0.0,148.0,0.1,-0.01,1.0,99.0,-12.0,24.0,0.0,29.93,1220.0,,,307.0,,,,,0.0,0.0,,,,,,,,,,,,,,,,,,,0.0,19.0,0.0,0.0,30.2,0.0,,0.0,0.1,,,16.3,0.0,0.0,-0.7,10.0,8.1,,,,,20.0,20.0,20.0,20.0,20.0,20.0,20.0,20.0,,,9.0,254.4,,0.1,2.0,0.0,,,1.576,1.586,+0.0,18.7,,,,,,0.0,2026-04-13 17:09:03-07:00
14.06,1.0,7.0,2026-04-14 00:09:12,37.08155,-121.59961,317.0,0.0,153.6,-12.6,,,,,00:09:12,10.7,-0.8,11.7,0.0,148.0,0.1,-0.01,1.0,99.0,-29.0,24.0,0.0,29.93,1220.0,,,307.0,,,,,0.0,0.0,,,,,,,,,,,,,,,,,,,0.0,19.0,0.0,0.0,30.2,0.0,,0.0,0.1,,,16.3,0.0,0.0,-0.7,10.0,8.1,,,,,20.0,20.0,20.0,20.0,20.0,20.0,20.0,20.0,,,9.0,254.4,,0.1,2.0,0.0,,,1.576,1.584,+0.0,18.7,,,,,,0.0,2026-04-13 17:09:03-07:00
15.06,1.0,8.0,2026-04-14 00:09:13,37.08178,-121.5997,373.0,0.1,153.6,-12.6,,,,,00:09:13,10.6,-0.7,11.7,0.0,148.0,0.1,-0.01,1.0,99.0,-43.0,24.0,0.0,29.93,1222.0,,,307.0,,,,,0.0,0.0,,,,,,,,,,,,,,,,,,,0.0,19.0,0.0,0.0,30.2,0.0,,0.0,0.1,,,16.3,0.0,0.0,-0.7,10.0,8.1,,,,,20.0,20.0,20.0,20.0,20.0,20.0,20.0,20.0,,,10.0,254.4,,0.1,2.0,0.0,,,1.576,1.584,+0.0,18.7,,,,,,0.0,2026-04-13 17:09:03-07:00
16.06,1.0,8.0,2026-04-14 00:09:14,37.08178,-121.5997,373.0,0.0,153.6,-12.6,,,,,00:09:14,10.6,-0.8,11.7,0.0,145.0,0.1,-0.01,1.0,99.0,-62.0,24.0,0.0,29.93,1222.0,,,307.0,,,,,0.0,0.0,,,,,,,,,,,,,,,,,,,0.0,19.0,0.0,0.0,30.2,0.0,,0.0,0.1,,,16.3,0.0,0.0,-0.7,10.0,8.1,,,,,20.0,20.0,20.0,20.0,20.0,20.0,20.0,20.0,,,10.0,254.4,,0.1,2.0,0.0,,,1.576,1.597,+0.0,18.7,,,,,,0.0,2026-04-13 17:09:03-07:00
17.06,1.0,8.0,2026-04-14 00:09:15,37.08178,-121.5997,373.0,0.1,153.6,-12.6,,,,,00:09:15,10.6,-0.8,11.7,0.0,144.0,0.1,-0.01,1.0,99.0,-80.0,24.0,0.0,29.93,1222.0,,,307.0,,,,,0.0,0.0,,,,,,,,,,,,,,,,,,,0.0,19.0,0.0,0.0,30.2,0.0,,0.0,0.0,,,16.3,0.0,0.0,-0.7,10.0,8.1,,,,,20.0,20.0,20.0,20.0,20.0,20.0,20.0,20.0,,,9.0,254.4,,0.0,2.0,0.0,,,1.576,1.594,+0.0,18.7,,,,,,0.0,2026-04-13 17:09:03-07:00
18.06,1.0,9.0,2026-04-14 00:09:16,37.08178,-121.59972,361.0,0.0,153.6,-12.6,,,,,00:09:16,10.6,-0.8,11.7,0.0,142.0,0.1,-0.01,1.0,99.0,-106.0,24.0,0.0,29.93,1225.0,,,307.0,,,,,0.0,0.0,,,,,,,,,,,,,,,,,,,0.0,19.0,0.0,0.0,30.2,0.0,,0.0,0.0,,,16.3,0.0,0.0,-0.7,10.0,8.1,,,,,20.0,20.0,20.0,20.0,20.0,20.0,20.0,20.0,,,9.0,254.4,,0.0,2.0,0.0,,,1.576,1.587,+0.0,18.7,,,,,,0.0,2026-04-13 17:09:03-07:00
19.06,1.0,9.0,2026-04-14 00:09:17,37.08177,-121.59974,350.0,0.1,153.6,-12.6,,,,,00:09:17,10.7,-0.7,11.8,0.0,140.0,0.1,-0.01,1.0,99.0,-96.0,24.0,0.0,29.93,1225.0,,,307.0,,,,,0.0,0.0,,,,,,,,,,,,,,,,,,,0.0,19.0,0.0,0.0,30.2,0.0,,0.0,5.5,,,16.3,0.0,0.0,-0.6,10.0,8.1,,,,,20.0,20.0,20.0,20.0,20.0,20.0,20.0,20.0,,,9.0,254.4,,5.5,2.0,0.0,,,1.576,1.589,+0.0,18.7,,,,,,0.0,2026-04-13 17:09:03-07:00
20.06,1.0,9.0,2026-04-14 00:09:18,37.08177,-121.59974,350.0,0.0,153.6,-12.6,,,,,00:09:18,10.7,-0.7,11.8,0.0,140.0,0.1,-0.02,1.0,99.0,-54.0,24.0,0.0,29.93,1225.0,,,307.0,,,,,0.0,0.0,,,,,,,,,,,,,,,,,,,0.0,19.0,0.0,0.0,30.2,0.0,,0.0,27.7,,,16.3,0.0,0.0,-0.6,10.0,8.1,,,,,20.0,20.0,20.0,20.0,20.0,20.0,20.0,20.0,,,9.0,254.4,,27.7,2.0,0.0,,,1.576,1.589,+0.0,18.7,,,,,,0.0,2026-04-13 17:09:03-07:00
21.06,1.0,9.0,2026-04-14 00:09:19,37.08178,-121.59974,350.0,0.1,153.6,-12.6,,,,,00:09:19,10.7,-0.8,11.7,0.0,140.0,0.1,-0.02,1.0,99.0,-1.0,24.0,0.0,29.93,1232.0,,,307.0,,,,,0.0,0.0,,,,,,,,,,,,,,,,,,,0.0,19.0,0.0,0.0,30.2,0.5,,0.5,30.7,,,16.3,0.0,0.0,-0.6,10.0,8.1,,,,,20.0,20.0,20.0,20.0,20.0,20.0,20.0,20.0,,,9.0,254.4,,30.7,2.0,0.0,,,1.576,1.587,+0.0,18.7,,,,,,0.0,2026-04-13 17:09:03-07:00
22.06,1.0,9.0,2026-04-14 00:09:20,37.08178,-121.59975,350.0,0.1,153.6,-12.6,,,,,00:09:20,10.7,-0.8,11.7,0.0,140.0,0.1,-0.01,1.0,99.0,-36.0,24.0,0.0,29.93,1232.0,,,307.0,,,,,0.0,0.0,,,,,,,,,,,,,,,,,,,0.0,19.0,0.0,0.0,30.2,1.2,,1.2,31.8,,,16.3,0.0,0.0,-0.6,10.0,8.1,,,,,20.0,20.0,20.0,20.0,20.0,20.0,20.0,20.0,,,9.0,254.4,,31.8,2.0,0.0,,,1.576,1.588,+0.0,18.7,,,,,,0.0,2026-04-13 17:09:03-07:00
23.06,1.0,9.0,2026-04-14 00:09:21,37.08178,-121.59975,350.0,0.0,153.6,-12.6,,,,,00:09:21,10.7,-0.7,11.7,0.0,140.0,0.1,-0.01,1.0,99.0,-34.0,24.0,0.0,29.93,1233.0,,,307.0,,,,,0.0,0.0,,,,,,,,,,,,,,,,,,,0.0,19.0,0.0,0.0,30.2,1.8,,1.8,31.9,,,16.3,0.0,0.0,-0.5,10.0,8.1,,,,,20.0,20.0,20.0,20.0,20.0,20.0,20.0,20.0,,,9.0,254.4,,31.9,2.0,0.0,,,1.576,1.588,+0.0,18.7,,,,,,0.0,2026-04-13 17:09:03-07:00
24.06,1.0,9.0,2026-04-14 00:09:22,37.08178,-121.59975,350.0,0.0,153.6,-12.6,,,,,00:09:22,10.7,-0.8,11.7,0.0,139.0,0.1,-0.02,1.0,99.0,-62.0,24.0,0.0,29.93,1233.0,,,307.0,,,,,0.0,0.0,,,,,,,,,,,,,,,,,,,0.0,19.0,0.0,0.0,30.2,2.3,,2.3,31.9,,,16.3,0.0,0.0,-0.5,10.0,8.1,,,,,20.0,20.0,20.0,20.0,20.0,20.0,20.0,20.0,,,9.0,254.4,,31.9,2.0,0.0,,,1.576,1.588,+0.0,18.7,,,,,,0.0,2026-04-13 17:09:03-07:00
25.06,1.0,9.0,2026-04-14 00:09:23,37.08179,-121.59975,350.0,0.0,153.6,-12.6,,,,,00:09:23,10.7,-0.8,11.7,0.0,135.0,0.1,-0.01,1.0,99.0,-104.0,24.0,0.0,29.93,1233.0,,,307.0,,,,,0.0,0.0,,,,,,,,,,,,,,,,,,,0.0,19.0,0.0,0.0,30.2,2.6,,2.6,33.2,,,16.3,0.0,0.0,-0.5,10.0,8.1,,,,,20.0,20.0,20.0,20.0,20.0,20.0,20.0,20.0,,,9.0,254.4,,33.2,2.0,0.0,,,1.576,1.588,+0.0,18.7,,,,,,0.0,2026-04-13 17:09:03-07:00
26.06,1.0,9.0,2026-04-14 00:09:24,37.08179,-121.59975,350.0,0.0,153.6,-12.6,,,,,00:09:24,10.7,-0.8,11.7,0.0,134.0,0.1,-0.02,1.0,99.0,-111.0,24.0,0.0,29.93,1235.0,,,307.0,,,,,0.0,0.0,,,,,,,,,,,,,,,,,,,0.0,19.0,0.0,0.0,30.2,2.4,,2.4,32.2,,,16.3,0.0,0.0,-0.6,10.0,8.1,,,,,20.0,20.0,20.0,20.0,20.0,20.0,20.0,20.0,,,9.0,254.4,,32.2,2.0,0.0,,,1.576,1.587,+0.0,18.7,,,,,,0.0,2026-04-13 17:09:03-07:00
27.06,1.0,9.0,2026-04-14 00:09:25,37.08179,-121.59975,350.0,0.0,153.6,-12.6,,,,,00:09:25,10.7,-0.8,11.6,0.0,133.0,0.1,-0.01,1.0,99.0,-93.0,24.0,0.0,29.93,1235.0,,,307.0,,,,,0.0,0.0,,,,,,,,,,,,,,,,,,,0.0,19.0,0.0,0.0,30.2,2.1,,2.1,31.9,,,16.3,0.0,0.0,-0.6,10.0,8.1,,,,,20.0,20.0,20.0,20.0,20.0,20.0,20.0,20.0,,,9.0,254.4,,31.9,2.0,0.0,,,1.576,1.588,+0.0,18.7,,,,,,0.0,2026-04-13 17:09:03-07:00
28.06,1.0,9.0,2026-04-14 00:09:26,37.08179,-121.59975,351.0,0.0,153.6,-12.6,,,,,00:09:26,10.7,-0.9,11.5,0.0,131.0,0.1,-0.02,1.0,99.0,-87.0,24.0,0.0,29.93,1235.0,,,307.0,,,,,0.0,0.0,,,,,,,,,,,,,,,,,,,0.0,19.0,0.0,0.0,30.2,1.7,,1.7,31.6,,,16.3,0.0,0.0,-0.7,10.0,8.1,,,,,20.0,21.0,20.0,21.0,20.0,21.0,20.0,20.0,,,9.0,254.4,,31.6,2.0,0.0,,,1.576,1.588,+0.0,18.7,,,,,,0.0,2026-04-13 17:09:03-07:00
29.06,1.0,9.0,2026-04-14 00:09:27,37.08179,-121.59975,351.0,0.0,153.6,-12.6,,,,,00:09:27,10.7,-0.9,11.5,0.0,130.0,0.1,-0.02,1.0,99.0,-91.0,24.0,0.0,29.93,1232.0,,,307.0,,,,,0.0,0.0,,,,,,,,,,,,,,,,,,,0.0,19.0,0.0,0.0,30.2,1.5,,1.5,31.4,,,16.3,0.0,0.0,-0.7,10.0,8.1,,,,,20.0,21.0,20.0,21.0,20.0,21.0,20.0,20.0,,,10.0,254.4,,31.4,2.0,0.0,,,1.576,1.587,+0.0,18.7,,,,,,0.0,2026-04-13 17:09:03-07:00
30.06,1.0,9.0,2026-04-14 00:09:28,37.08179,-121.59975,351.0,0.0,153.6,-12.6,,,,,00:09:28,10.7,-0.9,11.5,0.0,129.0,0.1,-0.01,1.0,99.0,-97.0,24.0,0.0,29.93,1232.0,,,307.0,,,,,0.0,0.0,,,,,,,,,,,,,,,,,,,0.0,19.0,0.0,0.0,30.2,1.5,,1.5,31.3,,,16.3,0.0,0.0,-0.7,10.0,8.1,,,,,20.0,21.0,20.0,21.0,20.0,21.0,20.0,20.0,,,10.0,254.4,,31.3,2.0,0.0,,,1.576,1.587,+0.0,18.7,,,,,,0.0,2026-04-13 17:09:03-07:00
31.06,1.0,9.0,2026-04-14 00:09:29,37.08179,-121.59975,351.0,0.0,153.6,-12.6,,,,,00:09:29,10.7,-0.9,11.5,0.0,126.0,0.1,-0.02,1.0,99.0,-110.0,24.0,0.0,29.93,1232.0,,,307.0,,,,,0.0,0.0,,,,,,,,,,,,,,,,,,,0.0,19.0,0.0,0.0,30.2,0.0,,0.0,31.1,,,16.3,0.0,0.0,-0.7,10.0,8.1,,,,,20.0,21.0,20.0,21.0,20.0,20.0,20.0,20.0,,,10.0,254.4,,31.1,2.0,0.0,,,1.576,1.587,+0.0,18.7,,,,,,0.0,2026-04-13 17:09:03-07:00
32.06,1.0,9.0,2026-04-14 00:09:30,37.08179,-121.59975,352.0,0.0,153.6,-12.6,,,,,00:09:30,10.7,-0.9,11.5,0.0,125.0,0.1,-0.02,1.0,99.0,-93.0,24.0,0.0,29.93,1234.0,,,307.0,,,,,0.0,0.0,,,,,,,,,,,,,,,,,,,0.0,19.0,0.0,0.0,30.2,0.0,,0.0,31.0,,,16.3,0.0,0.0,-0.7,10.0,8.1,,,,,20.0,21.0,20.0,21.0,20.0,21.0,20.0,20.0,,,10.0,254.4,,31.0,2.0,0.0,,,1.576,1.587,+0.0,18.7,,,,,,0.0,2026-04-13 17:09:03-07:00
33.06,1.0,9.0,2026-04-14 00:09:31,37.08179,-121.59975,352.0,0.0,153.6,-12.6,,,,,00:09:31,10.7,-1.0,11.5,0.0,123.0,0.1,-0.01,1.0,99.0,-115.0,24.0,0.0,29.93,1234.0,,,307.0,,,,,0.0,0.0,,,,,,,,,,,,,,,,,,,0.0,19.0,0.0,0.0,30.2,0.0,,0.0,30.8,,,16.3,0.0,0.0,-0.7,10.0,8.1,,,,,20.0,21.0,20.0,21.0,20.0,21.0,20.0,20.0,,,10.0,254.4,,30.8,2.0,0.0,,,1.576,1.587,+0.0,18.7,,,,,,0.0,2026-04-13 17:09:03-07:00
34.06,1.0,9.0,2026-04-14 00:09:32,37.08179,-121.59975,353.0,0.0,153.6,-12.6,,,,,00:09:32,10.7,-0.9,11.4,0.0,123.0,0.1,-0.01,1.0,99.0,-69.0,24.0,0.0,29.93,1234.0,,,307.0,,,,,0.0,0.0,,,,,,,,,,,,,,,,,,,0.0,19.0,0.0,0.0,30.2,0.0,,0.0,30.7,,,16.3,0.0,0.0,-0.7,10.0,8.1,,,,,20.0,21.0,20.0,21.0,20.0,21.0,20.0,20.0,,,10.0,254.4,,30.7,2.0,0.0,,,1.576,1.587,+0.0,18.7,,,,,,0.0,2026-04-13 17:09:03-07:00
35.06,1.0,9.0,2026-04-14 00:09:33,37.08179,-121.59974,355.0,0.0,153.6,-12.6,,,,,00:09:33,10.7,-0.9,11.5,0.0,122.0,0.1,-0.02,1.0,99.0,-52.0,24.0,0.0,29.93,1230.0,,,307.0,,,,,0.0,0.0,,,,,,,,,,,,,,,,,,,0.0,16.0,0.0,0.0,30.2,0.0,,0.0,30.6,,,16.3,0.0,0.0,-0.7,10.0,8.1,,,,,18.0,19.0,18.0,19.0,18.0,19.0,19.0,19.0,,,10.0,254.4,,30.6,2.0,0.0,,,1.575,1.593,+0.0,16.0,,,,,,0.0,2026-04-13 17:09:03-07:00
36.06,1.0,9.0,2026-04-14 00:09:34,37.08179,-121.59974,355.0,0.0,153.6,-12.6,,,,,00:09:34,10.7,-0.9,11.5,0.0,121.0,0.1,-0.02,1.0,99.0,-53.0,24.0,0.0,29.93,1230.0,,,307.0,,,,,0.0,0.0,,,,,,,,,,,,,,,,,,,0.0,16.0,80.0,80.0,30.6,0.0,,0.0,24.5,,,16.3,0.0,0.0,-0.7,10.0,8.1,,,,,19.0,19.0,19.0,19.0,18.0,32.0,19.0,19.0,,,10.0,254.4,,24.5,2.0,0.0,,,1.576,1.614,+0.0,16.3,,,,,,80.0,2026-04-13 17:09:03-07:00
37.06,1.0,9.0,2026-04-14 00:09:35,37.08179,-121.59974,355.0,0.1,153.6,-12.6,,,,,00:09:35,10.7,-0.9,11.6,0.0,121.0,0.1,-0.02,1.0,99.0,-40.0,24.0,0.0,29.93,1230.0,,,307.0,,,,,0.0,0.0,,,,,,,,,,,,,,,,,,,1.0,18.0,1219.0,1219.0,23.7,1.2,,1.2,25.5,,,16.3,0.0,0.0,-0.6,10.0,8.1,,,,,20.0,54.0,20.0,44.0,20.0,66.0,20.0,52.0,,,12.0,254.4,,25.5,2.0,0.0,,,1.576,1.576,+1.2,18.2,,,,,,1219.0,2026-04-13 17:09:03-07:00
38.06,1.0,9.0,2026-04-14 00:09:36,37.08179,-121.59974,355.0,0.0,153.6,-12.6,,,,,00:09:36,10.6,-0.8,11.5,0.0,121.0,0.1,-0.01,1.0,99.0,-11.0,24.0,0.0,29.93,1229.0,,,307.0,,,,,0.0,0.0,,,,,,,,,,,,,,,,,,,4.0,19.0,1262.0,1262.0,17.0,2.1,,2.1,25.7,,,16.3,0.0,0.0,-0.6,10.0,8.1,,,,,20.0,126.0,20.0,111.0,20.0,134.0,20.0,119.0,,,12.0,254.4,,25.7,2.0,0.0,,,1.486,1.471,+3.8,18.7,,,,,,1262.0,2026-04-13 17:09:03-07:00
39.06,1.0,9.0,2026-04-14 00:09:37,37.08179,-121.59974,355.0,0.0,153.6,-12.6,,,,,00:09:37,10.7,-0.9,11.5,0.0,121.0,0.1,-0.02,1.0,99.0,-2.0,24.0,0.0,29.93,1229.0,,,307.0,,,,,0.0,0.0,,,,,,,,,,,,,,,,,,,7.0,19.0,1159.0,1159.0,14.6,2.3,,2.3,25.7,,,16.3,0.0,0.0,-0.7,10.0,8.1,,,,,20.0,181.0,21.0,163.0,20.0,188.0,21.0,168.0,,,12.0,254.4,,25.7,2.0,0.0,,,1.483,1.565,+7.3,18.7,,,,,,1159.0,2026-04-13 17:09:03-07:00
40.06,1.0,9.0,2026-04-14 00:09:38,37.08179,-121.59974,356.0,0.0,153.6,-12.6,,,,,00:09:38,10.7,-0.9,11.5,0.0,121.0,0.1,-0.01,1.0,99.0,5.0,24.0,0.0,29.93,1229.0,,,307.0,,,,,0.0,0.0,,,,,,,,,,,,,,,,,,,12.0,19.0,1109.0,1109.0,14.1,2.5,,2.5,25.6,,,16.3,0.0,0.0,-0.7,10.0,8.1,,,,,21.0,223.0,21.0,205.0,21.0,231.0,22.0,209.0,,,12.0,242.3,,25.6,2.0,0.0,,,1.575,1.572,+12.0,18.7,,,,,,1109.0,2026-04-13 17:09:03-07:00
41.06,1.0,9.0,2026-04-14 00:09:39,37.08179,-121.59974,356.0,0.1,153.6,-12.6,,,,,00:09:39,10.7,-0.9,11.5,0.0,121.0,0.1,-0.01,1.0,99.0,8.0,24.0,0.0,29.93,1239.0,,,307.0,,,,,0.0,0.0,,,,,,,,,,,,,,,,,,,18.0,19.0,1087.0,1087.0,14.1,2.6,,2.6,25.6,,,16.3,0.0,0.0,-0.7,10.0,8.1,,,,,21.0,257.0,21.0,241.0,21.0,269.0,22.0,243.0,,,12.0,188.6,,25.6,2.0,0.0,,,1.576,1.577,+18.5,18.7,,,,,,1087.0,2026-04-13 17:09:03-07:00
42.06,1.0,9.0,2026-04-14 00:09:40,37.08178,-121.59974,356.0,0.0,153.6,-12.6,,,,,00:09:40,10.7,-0.9,11.5,0.0,121.0,0.1,-0.01,1.0,99.0,48.0,24.0,0.0,29.93,1239.0,,,307.0,,,,,0.0,0.0,,,,,,,,,,,,,,,,,,,27.0,19.0,1068.0,1068.0,14.0,2.7,,2.7,25.6,,,16.3,0.0,0.0,-0.7,10.0,8.1,,,,,21.0,287.0,22.0,275.0,21.0,301.0,23.0,274.0,,,12.0,146.8,,25.6,2.0,0.0,,,1.576,1.577,+27.1,18.7,,,,,,1068.0,2026-04-13 17:09:03-07:00
43.06,1.0,9.0,2026-04-14 00:09:41,37.08178,-121.59974,356.0,0.1,153.6,-12.6,,,,,00:09:41,10.7,-0.8,11.5,0.0,121.0,0.1,-0.01,0.9,99.0,45.0,24.0,0.0,29.93,1239.0,,,307.0,,,,,0.0,0.0,,,,,,,0.0,,,0.0,,,,,,,,,38.0,20.0,1040.0,1040.0,14.4,2.7,,2.7,25.6,,,16.3,0.0,0.0,20.7,10.0,8.1,,,,,22.0,312.0,23.0,304.0,22.0,327.0,23.0,302.0,,,12.0,114.3,,25.6,2.0,0.0,,,1.576,1.61,+38.1,19.7,,,,,,1040.0,2026-04-13 17:09:03-07:00
44.06,1.0,9.0,2026-04-14 00:09:42,37.08179,-121.59975,358.0,0.0,153.6,-12.6,,,,,00:09:42,10.7,-0.9,11.5,0.0,121.0,0.1,-0.01,0.9,99.0,19.0,24.0,0.0,29.93,1239.0,,,307.0,,,,,0.0,0.0,,,,,,,1.0,,,0.0,,,,,,,,,51.0,20.0,1042.0,1042.0,14.4,2.7,,2.7,25.7,,,16.3,0.0,0.0,37.4,10.0,8.1,,,,,23.0,334.0,23.0,328.0,23.0,349.0,24.0,326.0,,,13.0,89.1,,25.7,2.0,0.0,,,1.576,1.576,+50.8,19.8,,,,,,1042.0,2026-04-13 17:09:03-07:00
45.06,1.0,9.0,2026-04-14 00:09:43,37.08179,-121.59975,358.0,0.1,153.6,-12.6,,,,,00:09:43,10.7,-0.9,11.4,0.0,121.0,0.1,-0.01,1.0,99.0,34.0,24.0,0.0,29.93,1239.0,,,307.0,,,,,0.0,0.0,,,,,,,1.0,,,0.0,,,,,,,,,62.0,20.0,1047.0,1047.0,14.5,2.7,,2.7,25.7,,,16.3,0.0,0.0,47.5,10.0,8.1,,,,,23.0,354.0,24.0,350.0,23.0,370.0,25.0,348.0,,,12.0,69.4,,25.7,2.0,0.0,,,1.576,1.588,+62.2,19.8,,,,,,1047.0,2026-04-13 17:09:03-07:00
46.06,1.0,9.0,2026-04-14 00:09:44,37.08179,-121.59975,358.0,0.0,153.6,-12.6,,,,,00:09:44,10.7,-0.9,11.4,0.0,121.0,0.1,-0.01,1.0,99.0,29.0,24.0,0.0,29.93,1239.0,,,307.0,,,,,0.0,0.0,,,,,,,1.0,,,0.0,,,,,3.0,0.0,0.0,1200.0,70.0,20.0,1057.0,1057.0,14.5,2.7,,2.7,25.8,,,16.3,0.0,0.0,53.6,10.0,8.1,,,,,24.0,370.0,24.0,370.0,24.0,390.0,25.0,369.0,,,13.0,54.2,,25.8,2.0,0.0,,,1.576,1.606,+70.0,19.8,,,,,,1057.0,2026-04-13 17:09:03-07:00
47.06,1.0,9.0,2026-04-14 00:09:45,37.08179,-121.59975,358.0,0.1,153.6,-12.6,,,,,00:09:45,10.7,-0.8,11.4,0.0,121.0,0.1,-0.02,1.0,99.0,3.0,24.0,0.0,29.93,1239.0,,,307.0,,,,,0.0,0.0,,,,,,,1.0,,,0.0,,,,,1.0,1.0,0.0,1200.0,74.0,20.0,1053.0,1053.0,14.3,2.7,,2.7,25.8,,,16.3,0.0,0.0,57.3,10.0,8.1,,,,,24.0,386.0,25.0,386.0,24.0,409.0,26.0,388.0,,,13.0,42.3,,25.8,2.0,0.0,,,1.576,1.6,+74.2,19.8,,,,,,1053.0,2026-04-13 17:09:03-07:00
48.06,1.0,9.0,2026-04-14 00:09:46,37.08179,-121.59975,356.0,0.0,153.6,-12.6,,,,,00:09:46,10.7,-0.9,11.4,0.0,121.0,0.1,-0.01,1.0,99.0,18.0,24.0,0.0,29.93,1249.0,,,307.0,,,,,0.0,0.0,,,,,,,1.0,,,0.0,,,,,1.0,1.0,0.0,1200.0,76.0,20.0,1065.0,1065.0,14.2,2.6,,2.6,25.8,,,16.3,0.0,0.0,56.6,10.0,8.1,,,,,25.0,400.0,25.0,402.0,24.0,430.0,26.0,405.0,,,13.0,33.1,,25.8,2.0,0.0,,,1.576,1.576,+76.3,19.6,,,,,,1065.0,2026-04-13 17:09:03-07:00
49.06,1.0,9.0,2026-04-14 00:09:47,37.08179,-121.59975,356.0,0.1,153.6,-12.6,,,,,00:09:47,10.7,-0.8,11.5,0.0,121.0,0.1,-0.02,1.0,99.0,25.0,24.0,0.0,29.93,1250.0,,,307.0,,,,,0.0,0.0,,,,,,,1.0,,,0.0,,,,,1.0,0.0,0.0,1200.0,77.0,19.0,1023.0,1023.0,14.0,2.6,,2.6,25.8,,,16.3,0.0,0.0,51.4,10.0,8.1,,,,,25.0,413.0,26.0,415.0,25.0,443.0,27.0,424.0,,,13.0,26.0,,25.8,2.0,0.0,,,1.576,1.576,+77.0,19.5,,,,,,1023.0,2026-04-13 17:09:03-07:00
50.06,1.0,10.0,2026-04-14 00:09:48,37.08177,-121.59977,362.0,0.0,153.6,-12.6,,,,,00:09:48,10.7,-0.8,11.5,0.0,121.0,0.1,-0.02,1.0,99.0,-4.0,24.0,0.0,29.93,1250.0,,,307.0,,,,,0.0,0.0,,,,,,,1.0,,,0.0,,,,,,,,,77.0,19.0,1026.0,1026.0,13.9,2.5,,2.5,25.8,,,16.3,0.0,0.0,45.3,10.0,8.1,,,,,25.0,424.0,26.0,426.0,25.0,461.0,27.0,440.0,,,13.0,20.4,,25.8,2.0,0.0,,,1.576,1.576,+77.2,19.4,,,,,,1026.0,2026-04-13 17:09:03-07:00
51.06,1.0,10.0,2026-04-14 00:09:49,37.08178,-121.59975,359.0,0.1,153.6,-12.6,,,,,00:09:49,10.7,-0.8,11.5,0.0,121.0,0.1,-0.01,0.9,99.0,12.0,24.0,0.0,29.93,1250.0,,,307.0,,,,,0.0,0.0,,,,,,,1.0,,,0.0,,,,,,,,,77.0,19.0,1034.0,1034.0,13.9,2.5,,2.5,25.8,,,16.3,0.0,0.0,39.3,10.0,8.1,,,,,26.0,433.0,26.0,437.0,25.0,473.0,28.0,454.0,,,13.0,16.1,,25.8,2.0,0.0,,,1.576,1.575,+77.4,19.3,,,,,,1034.0,2026-04-13 17:09:03-07:00
52.06,1.0,10.0,2026-04-14 00:09:50,37.08178,-121.59975,359.0,0.1,153.6,-12.6,0.13,37.096 1,0.9,344.6,00:09:50,10.7,-0.9,11.5,0.0,121.0,0.1,-0.01,1.0,99.0,8.0,24.0,0.0,29.93,1259.0,,,307.0,,,,324.0,0.0,0.0,5.0,3.0,,,,,1.0,,,0.0,,,,,,,,,78.0,19.0,1044.0,1044.0,13.7,2.5,,2.5,25.8,,,16.3,0.0,0.0,33.9,10.0,8.1,,,,,26.0,442.0,27.0,446.0,26.0,483.0,28.0,463.0,,,13.0,12.7,,25.8,2.0,0.0,,,1.576,1.576,+77.5,19.2,,,,,,1044.0,2026-04-13 17:09:03-07:00
53.06,1.0,10.0,2026-04-14 00:09:51,37.08178,-121.59975,359.0,0.1,153.6,-12.6,0.13,37.096 1,0.9,344.6,00:09:51,10.7,-0.8,11.5,0.0,121.0,0.1,-0.02,1.0,99.0,16.0,24.0,0.0,29.93,1259.0,,,307.0,,,,324.0,0.0,0.0,5.0,3.0,,,,,1.0,,,0.0,,,,,,,,,78.0,19.0,1039.0,1039.0,13.6,2.5,,2.5,25.8,,,16.3,0.0,0.0,29.5,10.0,8.1,,,,,26.0,450.0,27.0,455.0,26.0,492.0,29.0,473.0,,,13.0,10.1,,25.8,2.0,0.0,,,1.576,1.575,+77.6,19.2,,,,,,1039.0,2026-04-13 17:09:03-07:00
54.06,1.0,10.0,2026-04-14 00:09:52,37.08178,-121.59975,359.0,0.1,153.6,-12.6,0.13,37.096 1,0.9,344.6,00:09:52,10.7,-0.9,11.5,0.0,121.0,0.1,-0.02,1.0,99.0,-24.0,24.0,0.0,29.93,1260.0,,,307.0,,,,324.0,0.0,0.0,5.0,3.0,,,,,1.0,,,0.0,,,,,,,,,77.0,19.0,1019.0,1019.0,13.6,2.5,,2.5,25.8,,,16.3,0.0,0.0,25.8,10.0,8.1,,,,,27.0,457.0,28.0,464.0,27.0,507.0,29.0,484.0,,,13.0,8.1,,25.8,2.0,0.0,,,1.576,1.575,+77.4,19.2,,,,,,1019.0,2026-04-13 17:09:03-07:00
55.06,1.0,10.0,2026-04-14 00:09:53,37.08178,-121.59975,359.0,0.0,153.6,-12.6,0.13,37.096 1,0.9,344.6,00:09:53,10.7,-0.8,11.4,0.0,121.0,0.0,-0.01,1.0,99.0,-39.0,24.0,0.0,29.93,1260.0,,,307.0,,,,324.0,0.0,0.0,5.0,3.0,,,,,-2.0,,,-34.0,,,,,,,,,78.0,19.0,1037.0,1037.0,13.6,2.5,,2.5,25.8,,,16.3,0.0,0.0,22.6,10.0,8.1,,,,,28.0,463.0,28.0,470.0,27.0,516.0,30.0,492.0,,,13.0,6.5,,25.8,2.0,0.0,,,1.576,1.575,+77.6,19.1,,,,,,1037.0,2026-04-13 17:09:03-07:00
56.06,1.0,10.0,2026-04-14 00:09:54,37.08178,-121.59975,359.0,0.0,153.6,-12.6,0.13,37.096 1,0.9,344.6,00:09:54,10.7,-0.8,11.5,0.0,121.0,0.1,-0.02,0.9,99.0,-58.0,24.0,0.0,29.93,1260.0,,,307.0,,,,324.0,0.0,0.0,5.0,3.0,,,,,67.0,,,-35.0,,,,,,,,,78.0,19.0,1039.0,1039.0,13.4,2.5,,2.5,25.8,,,16.3,0.0,0.0,20.0,10.0,8.1,,,,,28.0,470.0,29.0,477.0,28.0,521.0,30.0,500.0,,,13.0,5.2,,25.8,2.0,0.0,,,1.576,1.627,+77.6,19.1,,,,,,1039.0,2026-04-13 17:09:03-07:00
57.06,1.0,10.0,2026-04-14 00:09:55,37.08177,-121.59975,359.0,0.1,153.6,-12.6,0.13,37.096 1,0.9,344.6,00:09:55,10.7,-0.8,11.4,0.0,121.0,0.1,-0.02,1.0,99.0,-28.0,24.0,0.0,29.93,1270.0,,,307.0,,,,324.0,0.0,0.0,5.0,3.0,,,,,11.0,,,91.0,,,,,,,,,78.0,19.0,1031.0,1031.0,13.4,2.5,,2.5,25.8,,,16.3,0.0,0.0,17.8,10.0,8.1,,,,,28.0,476.0,30.0,482.0,28.0,526.0,31.0,507.0,,,13.0,4.3,,25.8,2.0,0.0,,,1.576,1.598,+77.7,19.1,,,,,,1031.0,2026-04-13 17:09:03-07:00
58.06,1.0,10.0,2026-04-14 00:09:56,37.08177,-121.59975,359.0,0.1,153.6,-12.6,0.13,37.096 1,0.9,344.6,00:09:56,10.6,-0.8,11.5,0.0,121.0,0.1,-0.02,1.0,99.0,-35.0,24.0,0.0,29.93,1270.0,,,307.0,,,,324.0,0.0,0.0,5.0,3.0,,,,,-61.0,,,-65.0,,,,,,,,,78.0,19.0,1040.0,1040.0,13.4,2.5,,2.5,25.8,,,16.3,0.0,0.0,15.8,10.0,8.1,,,,,29.0,481.0,30.0,487.0,28.0,530.0,32.0,514.0,,,13.0,3.5,,25.8,2.0,0.0,,,1.576,1.576,+77.6,19.1,,,,,,1040.0,2026-04-13 17:09:03-07:00
59.06,1.0,10.0,2026-04-14 00:09:57,37.08177,-121.59975,358.0,0.0,153.6,-12.6,0.13,37.096 1,0.9,344.6,00:09:57,10.7,-0.8,11.5,0.0,121.0,0.1,-0.02,1.0,99.0,-19.0,25.0,0.0,29.93,1270.0,,,307.0,,,,324.0,0.0,0.0,5.0,3.0,,,,,-9.0,,,18.0,,,,,,,,,78.0,19.0,1055.0,1055.0,13.3,2.4,,2.4,25.8,,,16.3,0.0,0.0,14.1,10.0,8.1,,,,,29.0,485.0,31.0,494.0,29.0,536.0,32.0,520.0,,,13.0,3.0,,25.8,2.0,0.0,,,1.576,1.577,+77.8,19.1,,,,,,1055.0,2026-04-13 17:09:03-07:00
60.06,1.0,10.0,2026-04-14 00:09:58,37.08177,-121.59975,358.0,0.0,153.6,-12.6,0.13,37.096 1,0.9,344.6,00:09:58,10.7,-0.8,11.5,0.0,121.0,0.1,-0.02,1.0,99.0,-18.0,25.0,0.0,29.93,1270.0,,,307.0,,,,324.0,0.0,0.0,5.0,3.0,,,,,-7.0,,,90.0,,,,,,,,,78.0,19.0,1058.0,1058.0,13.1,2.4,,2.4,25.8,,,16.3,0.0,0.0,12.7,10.0,8.1,,,,,30.0,489.0,31.0,500.0,29.0,541.0,33.0,527.0,,,13.0,2.5,,25.8,2.0,0.0,,,1.576,1.576,+77.9,19.1,,,,,,1058.0,2026-04-13 17:09:03-07:00
61.06,1.0,10.0,2026-04-14 00:09:59,37.08177,-121.59975,358.0,0.0,153.6,-12.6,0.13,37.096 1,0.9,344.6,00:09:59,10.7,-0.8,11.5,0.0,121.0,0.1,-0.01,1.0,99.0,-36.0,25.0,0.0,29.93,1270.0,,,307.0,,,,324.0,0.0,0.0,5.0,3.0,,,,,-6.0,,,90.0,,,,,,,,,78.0,19.0,1061.0,1061.0,13.0,2.3,,2.3,25.8,,,16.3,0.0,0.0,11.7,10.0,8.1,,,,,30.0,494.0,32.0,505.0,30.0,543.0,33.0,534.0,,,13.0,2.2,,25.8,2.0,0.0,,,1.576,1.577,+78.0,19.1,,,,,,1061.0,2026-04-13 17:09:03-07:00
62.06,1.0,10.0,2026-04-14 00:10:00,37.08176,-121.59975,358.0,0.0,153.6,-12.6,0.13,37.096 1,0.9,344.6,00:10:00,10.7,-0.9,11.4,0.0,120.0,0.1,-0.02,1.0,99.0,-24.0,25.0,0.0,29.93,1280.0,,,307.0,,,,324.0,0.0,0.0,5.0,3.0,,,,,-2.0,,,90.0,,,,,,,,,78.0,19.0,1067.0,1067.0,13.0,2.3,,2.3,25.8,,,16.3,0.0,0.0,10.8,10.0,8.1,,,,,31.0,498.0,32.0,508.0,30.0,545.0,34.0,538.0,,,12.0,1.9,,25.8,2.0,0.0,,,1.576,1.577,+78.0,19.1,,,,,,1067.0,2026-04-13 17:09:03-07:00
63.06,1.0,10.0,2026-04-14 00:10:01,37.08176,-121.59975,358.0,0.1,153.6,-12.6,0.13,37.096 1,0.9,344.6,00:10:01,10.7,-0.9,11.5,0.0,120.0,0.1,-0.02,1.0,99.0,-23.0,25.0,0.0,29.93,1280.0,,,307.0,,,,324.0,0.0,0.0,5.0,3.0,,,,,-2.0,,,90.0,,,,,,,,,78.0,19.0,1070.0,1070.0,12.9,2.3,,2.3,25.8,,,16.3,0.0,0.0,10.1,10.0,8.1,,,,,31.0,502.0,33.0,512.0,31.0,547.0,34.0,542.0,,,12.0,1.7,,25.8,2.0,0.0,,,1.576,1.576,+78.1,19.1,,,,,,1070.0,2026-04-13 17:09:03-07:00
64.06,1.0,10.0,2026-04-14 00:10:02,37.08176,-121.59975,359.0,0.0,153.6,-12.6,0.13,37.096 1,0.9,344.6,00:10:02,10.7,-0.8,11.5,0.0,120.0,0.1,-0.02,1.0,99.0,-3.0,25.0,0.0,29.93,1280.0,,,307.0,,,,324.0,0.0,0.0,5.0,3.0,,,,,-2.0,,,90.0,,,,,,,,,78.0,19.0,1073.0,1073.0,12.9,2.3,,2.3,25.8,,,16.3,0.0,0.0,9.4,10.0,8.1,,,,,32.0,506.0,33.0,516.0,32.0,549.0,35.0,544.0,,,12.0,1.6,,25.8,2.0,0.0,,,1.576,1.576,+78.1,19.1,,,,,,1073.0,2026-04-13 17:09:03-07:00
65.06,1.0,10.0,2026-04-14 00:10:03,37.08176,-121.59975,359.0,0.1,153.6,-12.6,0.13,37.096 1,0.9,344.6,00:10:03,10.7,-0.8,11.5,0.0,120.0,0.1,-0.02,1.0,99.0,-22.0,25.0,0.0,29.93,1279.0,,,307.0,,,,324.0,0.0,0.0,5.0,3.0,,,,,-2.0,,,90.0,,,,,,,,,78.0,19.0,1039.0,1039.0,12.8,2.3,,2.3,25.8,,,16.3,0.0,0.0,8.9,10.0,8.1,,,,,32.0,508.0,34.0,519.0,32.0,550.0,35.0,546.0,,,12.0,1.4,,25.8,2.0,0.0,,,1.576,1.576,+78.0,19.1,,,,,,1039.0,2026-04-13 17:09:03-07:00
66.06,1.0,10.0,2026-04-14 00:10:04,37.08176,-121.59975,363.0,0.1,153.6,-12.6,0.13,37.096 1,0.9,344.6,00:10:04,10.7,-0.8,11.5,0.0,119.0,0.1,-0.02,1.0,99.0,-26.0,25.0,0.0,29.93,1279.0,,,307.0,,,,324.0,0.0,0.0,5.0,3.0,,,,,-2.0,,,90.0,,,,,,,,,78.0,19.0,1041.0,1041.0,13.0,2.2,,2.2,26.0,,,16.2,0.0,0.0,8.7,10.0,8.1,,,,,33.0,511.0,34.0,522.0,33.0,550.0,36.0,549.0,,,12.0,1.3,,26.0,2.0,0.0,,,1.576,1.576,+77.7,19.1,,,,,,1041.0,2026-04-13 17:09:03-07:00
67.06,1.0,10.0,2026-04-14 00:10:05,37.08176,-121.59975,363.0,0.0,153.6,-12.6,0.13,37.096 1,0.9,344.6,00:10:05,10.6,-0.9,11.5,0.0,119.0,0.1,-0.01,1.0,99.0,-38.0,25.0,0.0,29.93,1279.0,,,307.0,,,,324.0,0.0,0.0,5.0,3.0,,,,,-2.0,,,90.0,,,,,,,,,77.0,19.0,1034.0,1034.0,12.9,2.1,,2.1,25.9,,,16.2,0.0,0.0,8.6,10.0,8.1,,,,,33.0,514.0,35.0,527.0,33.0,560.0,37.0,560.0,,,12.0,1.2,,25.9,2.0,0.0,,,1.576,1.576,+77.5,19.1,,,,,,1034.0,2026-04-13 17:09:03-07:00
68.06,1.0,10.0,2026-04-14 00:10:06,37.08176,-121.59975,363.0,0.0,153.6,-12.6,0.13,37.096 1,0.9,344.6,00:10:06,10.6,-0.8,11.5,0.0,119.0,0.1,-0.02,1.0,99.0,-9.0,25.0,0.0,29.93,1288.0,,,307.0,,,,324.0,0.0,0.0,5.0,3.0,,,,,-2.0,,,90.0,,,,,,,,,77.0,19.0,1044.0,1044.0,12.8,2.0,,2.0,26.0,,,16.2,0.0,0.0,8.5,10.0,8.1,,,,,34.0,516.0,35.0,530.0,34.0,566.0,37.0,567.0,,,12.0,1.2,,26.0,2.0,0.0,,,1.576,1.576,+77.4,19.1,,,,,,1044.0,2026-04-13 17:09:03-07:00
69.06,1.0,10.0,2026-04-14 00:10:07,37.08175,-121.59975,363.0,0.1,153.6,-12.6,0.13,37.096 1,0.9,344.6,00:10:07,10.6,-0.8,11.5,0.0,119.0,0.1,-0.02,1.0,99.0,12.0,25.0,0.0,29.93,1288.0,,,307.0,,,,324.0,0.0,0.0,5.0,3.0,,,,,-2.0,,,90.0,,,,,,,,,77.0,19.0,1039.0,1039.0,12.7,1.9,,1.9,25.9,,,16.2,0.0,0.0,8.3,10.0,8.1,,,,,34.0,517.0,36.0,532.0,34.0,573.0,38.0,573.0,,,12.0,1.1,,25.9,2.0,0.0,,,1.576,1.576,+77.3,19.1,,,,,,1039.0,2026-04-13 17:09:03-07:00
70.06,1.0,10.0,2026-04-14 00:10:08,37.08175,-121.59975,363.0,0.0,153.6,-12.6,0.13,37.096 1,0.9,344.6,00:10:08,10.6,-0.8,11.6,0.0,119.0,0.1,-0.02,0.9,99.0,-4.0,25.0,0.0,29.93,1288.0,,,307.0,,,,324.0,0.0,0.0,5.0,3.0,,,,,-2.0,,,87.0,,,,,,,,,77.0,19.0,1029.0,1029.0,12.7,1.9,,1.9,25.9,,,16.2,0.0,0.0,8.1,10.0,8.1,,,,,35.0,519.0,36.0,535.0,34.0,575.0,38.0,576.0,,,12.0,1.1,,25.9,2.0,0.0,,,1.576,1.576,+77.5,19.1,,,,,,1029.0,2026-04-13 17:09:03-07:00
71.06,1.0,10.0,2026-04-14 00:10:09,37.08175,-121.59974,363.0,0.0,153.6,-12.6,0.13,37.096 1,0.9,344.6,00:10:09,10.7,-0.8,11.5,0.0,119.0,0.1,-0.01,1.0,99.0,14.0,25.0,0.0,29.93,1288.0,,,307.0,,,,324.0,0.0,0.0,5.0,3.0,,,,,-2.0,,,86.0,,,,,1.0,1.0,0.0,1200.0,77.0,19.0,1035.0,1035.0,12.8,1.8,,1.8,25.9,,,16.2,0.0,0.0,7.9,10.0,8.1,,,,,35.0,521.0,37.0,539.0,35.0,582.0,39.0,582.0,,,10.0,1.1,,25.9,2.0,0.0,,,1.576,1.576,+77.3,19.2,,,,,,1035.0,2026-04-13 17:09:03-07:00
72.06,1.0,10.0,2026-04-14 00:10:10,37.08175,-121.59974,363.0,0.1,153.6,-12.6,0.13,37.096 1,0.9,344.6,00:10:10,10.7,-0.9,11.5,0.0,119.0,0.1,-0.02,1.0,99.0,1.0,25.0,0.0,29.93,1288.0,,,307.0,,,,324.0,0.0,0.0,5.0,3.0,,,,,-2.0,,,86.0,,,,,1.0,0.0,0.0,1200.0,77.0,19.0,1043.0,1043.0,12.7,1.8,,1.8,25.9,,,16.2,0.0,0.0,7.8,10.0,8.1,,,,,36.0,523.0,38.0,540.0,35.0,584.0,40.0,586.0,,,1.0,1.0,,25.9,2.0,0.0,,,1.576,1.576,+77.3,19.2,,,,,,1043.0,2026-04-13 17:09:03-07:00
73.06,1.0,10.0,2026-04-14 00:10:11,37.08175,-121.59974,364.0,0.0,153.6,-12.6,0.13,37.096 1,0.9,344.6,00:10:11,10.7,-1.0,11.5,0.0,119.0,0.1,-0.02,1.0,99.0,-2.0,25.0,0.0,29.93,1288.0,,,307.0,,,,324.0,0.0,0.0,5.0,3.0,,,,,-1.0,,,86.0,,,,,1.0,0.0,0.0,1200.0,77.0,19.0,1041.0,1041.0,12.6,1.8,,1.8,25.9,,,16.2,0.0,0.0,7.7,10.0,8.1,,,,,36.0,525.0,38.0,544.0,36.0,587.0,40.0,589.0,,,-11.0,1.0,,25.9,2.0,0.0,,,1.576,1.576,+77.3,19.2,,,,,,1041.0,2026-04-13 17:09:03-07:00
74.06,1.0,10.0,2026-04-14 00:10:12,37.08172,-121.59972,364.0,0.0,153.6,-12.6,0.13,37.096 1,0.9,344.6,00:10:12,10.7,-1.0,11.4,0.0,119.0,0.1,-0.02,1.0,99.0,2.0,25.0,0.0,29.93,1288.0,,,307.0,,,,324.0,0.0,0.0,5.0,3.0,,,,,-1.0,,,86.0,,,,,1.0,0.0,0.0,1200.0,77.0,19.0,1042.0,1042.0,12.6,1.7,,1.7,25.9,,,16.2,0.0,0.0,7.6,10.0,8.1,,,,,37.0,527.0,39.0,546.0,37.0,589.0,41.0,592.0,,,-22.0,1.0,,25.9,2.0,0.0,,,1.576,1.576,+77.3,19.2,,,,,,1042.0,2026-04-13 17:09:03-07:00
75.06,1.0,10.0,2026-04-14 00:10:13,37.08171,-121.59972,360.0,0.0,153.6,-12.6,0.13,37.096 1,0.9,344.5,00:10:13,10.7,-0.9,11.4,0.0,119.0,0.1,-0.01,1.0,99.0,34.0,25.0,0.0,29.93,1289.0,,,307.0,,,,324.0,0.0,0.0,5.0,3.0,,,,,-1.0,,,86.0,,,,,1.0,0.0,0.0,1200.0,77.0,19.0,1029.0,1029.0,12.6,1.7,,1.7,25.8,,,16.2,0.0,0.0,7.5,10.0,8.1,,,,,37.0,529.0,39.0,547.0,37.0,590.0,41.0,595.0,,,-25.0,1.0,,25.8,2.0,0.0,,,1.576,1.576,+77.2,19.2,,,,,,1029.0,2026-04-13 17:09:03-07:00
76.06,1.0,10.0,2026-04-14 00:10:14,37.08171,-121.59972,360.0,0.0,153.6,-12.6,0.13,37.096 1,0.9,344.5,00:10:14,10.7,-0.9,11.4,0.0,119.0,0.1,-0.01,1.0,99.0,35.0,25.0,0.0,29.93,1289.0,,,307.0,,,,324.0,0.0,0.0,5.0,3.0,,,,,-1.0,,,84.0,,,,,1.0,0.0,0.0,1200.0,77.0,19.0,1055.0,1055.0,12.7,1.8,,1.8,25.9,,,16.2,0.0,0.0,7.3,10.0,8.1,,,,,38.0,531.0,40.0,549.0,37.0,595.0,42.0,599.0,,,-25.0,1.0,,25.9,2.0,0.0,,,1.576,1.576,+77.2,19.2,,,,,,1055.0,2026-04-13 17:09:03-07:00
77.06,1.0,10.0,2026-04-14 00:10:15,37.08171,-121.59972,360.0,0.1,153.6,-12.6,0.13,37.096 1,0.9,344.5,00:10:15,10.7,-0.9,11.4,0.0,119.0,0.1,-0.01,1.0,99.0,10.0,25.0,0.0,29.93,1289.0,,,307.0,,,,324.0,0.0,0.0,5.0,3.0,,,,,-1.0,,,83.0,,,,,1.0,0.0,0.0,1200.0,77.0,19.0,1046.0,1046.0,12.6,1.7,,1.7,25.9,,,16.2,0.0,0.0,7.2,10.0,8.1,,,,,39.0,532.0,41.0,550.0,38.0,597.0,43.0,602.0,,,-25.0,1.0,,25.9,2.0,0.0,,,1.576,1.576,+77.4,19.3,,,,,,1046.0,2026-04-13 17:09:03-07:00
78.06,1.0,10.0,2026-04-14 00:10:16,37.08171,-121.59972,361.0,0.1,153.6,-12.6,0.13,37.096 1,0.9,344.5,00:10:16,10.7,-0.9,11.4,0.0,119.0,0.1,-0.01,1.0,99.0,25.0,25.0,0.0,29.93,1298.0,,,307.0,,,,324.0,0.0,0.0,5.0,3.0,,,,,-1.0,,,82.0,,,,,1.0,0.0,0.0,1200.0,77.0,19.0,1037.0,1037.0,12.5,1.7,,1.7,25.8,,,16.2,0.0,0.0,7.0,10.0,8.1,,,,,39.0,535.0,41.0,554.0,39.0,599.0,44.0,605.0,,,-25.0,1.0,,25.8,2.0,0.0,,,1.576,1.576,+77.3,19.3,,,,,,1037.0,2026-04-13 17:09:03-07:00
79.06,1.0,10.0,2026-04-14 00:10:17,37.08171,-121.59972,361.0,0.1,153.6,-12.6,0.13,37.096 1,0.9,344.5,00:10:17,10.8,-0.9,11.4,0.0,119.0,0.1,-0.01,1.0,99.0,42.0,25.0,0.0,29.93,1298.0,,,307.0,,,,324.0,0.0,0.0,5.0,3.0,,,,,-1.0,,,81.0,,,,,1.0,0.0,0.0,1200.0,77.0,19.0,1044.0,1044.0,12.5,1.8,,1.8,25.9,,,16.2,0.0,0.0,6.9,10.0,8.1,,,,,40.0,537.0,42.0,559.0,39.0,600.0,44.0,611.0,,,-25.0,1.0,,25.9,2.0,0.0,,,1.576,1.576,+77.0,19.3,,,,,,1044.0,2026-04-13 17:09:03-07:00
80.06,1.0,10.0,2026-04-14 00:10:18,37.08171,-121.59972,360.0,0.0,153.6,-12.6,0.13,37.096 1,0.9,344.5,00:10:18,10.7,-0.8,11.4,0.0,119.0,0.1,-0.02,0.9,99.0,39.0,25.0,0.0,29.93,1298.0,,,307.0,,,,324.0,0.0,0.0,5.0,3.0,,,,,-1.0,,,79.0,,,,,1.0,0.0,0.0,1200.0,77.0,19.0,1032.0,1032.0,12.5,1.8,,1.8,25.8,,,16.2,0.0,0.0,6.7,10.0,8.1,,,,,40.0,538.0,42.0,560.0,40.0,601.0,44.0,614.0,,,-25.0,1.0,,25.8,2.0,0.0,,,1.576,1.576,+77.2,19.3,,,,,,1032.0,2026-04-13 17:09:03-07:00
81.06,1.0,10.0,2026-04-14 00:10:19,37.08171,-121.59972,360.0,0.1,153.6,-12.6,0.13,37.096 1,0.9,344.5,00:10:19,10.8,-0.9,11.3,0.0,119.0,0.1,-0.02,1.0,99.0,11.0,25.0,0.0,29.93,1299.0,,,307.0,,,,324.0,0.0,0.0,5.0,3.0,,,,,-1.0,,,78.0,,,,,1.0,0.0,0.0,1200.0,77.0,19.0,1045.0,1045.0,12.6,1.8,,1.8,25.8,,,16.2,0.0,0.0,6.7,10.0,8.1,,,,,41.0,540.0,43.0,561.0,40.0,602.0,45.0,616.0,,,-25.0,1.0,,25.8,2.0,0.0,,,1.576,1.576,+77.1,19.3,,,,,,1045.0,2026-04-13 17:09:03-07:00
82.06,1.0,10.0,2026-04-14 00:10:20,37.08171,-121.59972,360.0,0.1,153.6,-12.6,0.13,37.096 1,0.9,344.5,00:10:20,10.8,-0.9,11.4,0.0,119.0,0.1,-0.02,0.9,99.0,19.0,25.0,0.0,29.93,1299.0,,,307.0,,,,324.0,0.0,0.0,5.0,3.0,,,,,-1.0,,,78.0,,,,,1.0,0.0,0.0,1200.0,77.0,19.0,1033.0,1033.0,12.5,1.8,,1.8,25.8,,,16.2,0.0,0.0,6.6,10.0,8.1,,,,,41.0,542.0,43.0,562.0,41.0,604.0,46.0,620.0,,,-25.0,1.0,,25.8,2.0,0.0,,,1.576,1.576,+77.0,19.3,,,,,,1033.0,2026-04-13 17:09:03-07:00
83.06,1.0,10.0,2026-04-14 00:10:21,37.0817,-121.59972,360.0,0.0,153.6,-12.6,0.13,37.096 1,0.9,344.5,00:10:21,10.8,-0.9,11.4,0.0,119.0,0.1,-0.01,1.0,99.0,48.0,25.0,0.0,29.93,1299.0,,,307.0,,,,324.0,0.0,0.0,5.0,3.0,,,,,-1.0,,,76.0,,,,,1.0,0.0,0.0,1200.0,77.0,19.0,1036.0,1036.0,12.5,1.8,,1.8,25.8,,,16.2,0.0,0.0,6.5,10.0,8.1,,,,,42.0,544.0,44.0,563.0,41.0,604.0,47.0,621.0,,,-25.0,1.0,,25.8,2.0,0.0,,,1.576,1.576,+77.0,19.4,,,,,,1036.0,2026-04-13 17:09:03-07:00
84.06,1.0,10.0,2026-04-14 00:10:22,37.0817,-121.59971,359.0,0.1,153.6,-12.6,0.13,37.096 1,0.9,344.5,00:10:22,10.8,-0.9,11.4,0.0,119.0,0.1,-0.01,1.0,99.0,25.0,25.0,0.0,29.93,1299.0,,,307.0,,,,324.0,0.0,0.0,5.0,3.0,,,,,-1.0,,,76.0,,,,,1.0,0.0,0.0,1200.0,77.0,19.0,1047.0,1047.0,12.5,1.8,,1.8,25.8,,,16.2,0.0,0.0,6.4,10.0,8.1,,,,,42.0,545.0,45.0,564.0,42.0,606.0,47.0,621.0,,,-25.0,1.0,,25.8,2.0,0.0,,,1.576,1.576,+77.1,19.4,,,,,,1047.0,2026-04-13 17:09:03-07:00
85.06,1.0,10.0,2026-04-14 00:10:23,37.0817,-121.59971,359.0,0.0,153.6,-12.6,0.13,37.096 1,0.9,344.5,00:10:23,10.7,-0.8,11.4,0.0,119.0,0.1,-0.02,1.0,99.0,-31.0,25.0,0.0,29.93,1299.0,,,307.0,,,,324.0,0.0,0.0,5.0,3.0,,,,,-1.0,,,75.0,,,,,1.0,0.0,0.0,1200.0,77.0,19.0,1042.0,1042.0,12.5,1.8,,1.8,25.8,,,16.2,0.0,0.0,6.3,10.0,8.1,,,,,43.0,547.0,45.0,566.0,42.0,609.0,48.0,622.0,,,-25.0,0.0,,25.8,2.0,0.0,,,1.576,1.577,+77.0,19.4,,,,,,1042.0,2026-04-13 17:09:03-07:00
86.06,1.0,10.0,2026-04-14 00:10:24,37.0817,-121.59971,359.0,0.0,153.6,-12.6,0.13,37.096 1,0.9,344.5,00:10:24,10.7,-0.9,11.4,0.0,119.0,0.1,-0.01,1.0,99.0,-22.0,25.0,0.0,29.93,1299.0,,,307.0,,,,324.0,0.0,0.0,5.0,3.0,,,,,-1.0,,,75.0,,,,,1.0,0.0,0.0,1200.0,77.0,19.0,1057.0,1057.0,12.4,1.8,,1.8,25.8,,,16.2,0.0,0.0,6.2,10.0,8.1,,,,,43.0,548.0,46.0,565.0,43.0,610.0,49.0,624.0,,,-25.0,0.0,,25.8,2.0,0.0,,,1.576,1.577,+77.2,19.4,,,,,,1057.0,2026-04-13 17:09:03-07:00
87.06,1.0,10.0,2026-04-14 00:10:25,37.0817,-121.59971,358.0,0.1,153.6,-12.6,0.13,37.096 1,0.9,344.5,00:10:25,10.8,-0.9,11.4,0.0,119.0,0.1,-0.01,1.0,99.0,-24.0,25.0,0.0,29.93,1299.0,,,307.0,,,,324.0,0.0,0.0,5.0,3.0,,,,,-1.0,,,59.0,,,,,1.0,0.0,0.0,1200.0,77.0,19.0,1040.0,1040.0,12.4,1.8,,1.8,25.8,,,16.2,0.0,0.0,6.2,10.0,8.1,,,,,44.0,549.0,47.0,566.0,44.0,610.0,49.0,625.0,,,-25.0,0.0,,25.8,2.0,0.0,,,1.576,1.576,+77.2,19.4,,,,,,1040.0,2026-04-13 17:09:03-07:00
88.06,1.0,10.0,2026-04-14 00:10:26,37.08169,-121.5997,359.0,1.6,183.9,-12.6,0.13,37.096 1,0.9,344.5,00:10:26,10.9,-0.9,12.2,0.0,119.0,0.4,0.01,1.0,99.0,-23.0,25.0,0.0,29.93,1299.0,,,307.0,,,,324.0,0.0,0.0,5.0,3.0,,,,,2.0,,,90.0,,,,,1.0,0.0,0.0,1200.0,77.0,19.0,1044.0,1044.0,12.4,1.8,,1.8,25.8,,,16.2,0.0,0.0,6.1,10.0,8.1,,,,,45.0,550.0,47.0,566.0,44.0,610.0,50.0,626.0,,,-25.0,0.0,,25.8,2.0,0.0,,,1.477,1.527,+77.1,19.5,,,,,,1044.0,2026-04-13 17:09:03-07:00
89.06,1.0,10.0,2026-04-14 00:10:27,37.08169,-121.5997,358.0,1.0,249.3,-12.6,0.13,37.096 1,0.9,344.5,00:10:27,11.0,-0.9,16.2,0.0,119.0,2.4,-0.01,0.9,99.0,-58.0,25.0,0.0,29.93,1299.0,,,307.0,,,,324.0,0.0,0.0,5.0,3.0,,,,,2.0,,,86.0,,,,,1.0,0.0,0.0,1200.0,77.0,19.0,1047.0,1047.0,12.5,1.9,,1.9,25.8,,,16.2,0.0,0.0,6.0,10.0,8.1,,,,,45.0,552.0,48.0,567.0,45.0,612.0,51.0,627.0,,,-25.0,0.0,,25.8,2.0,0.0,,,1.489,1.371,+76.9,19.5,,,,,,1047.0,2026-04-13 17:09:03-07:00
90.06,1.0,10.0,2026-04-14 00:10:28,37.0817,-121.59971,358.0,0.8,262.6,-12.6,0.13,37.096 1,0.9,344.5,00:10:28,11.1,-1.0,21.7,0.0,119.0,4.3,-0.02,0.9,99.0,-66.0,25.0,0.0,29.93,1299.0,,,307.0,,,,324.0,0.0,0.0,5.0,3.0,,,,,2.0,,,84.0,,,,,1.0,0.0,0.0,1200.0,77.0,20.0,1052.0,1052.0,12.6,1.9,,1.9,25.8,,,16.2,0.0,0.0,6.0,10.0,8.1,,,,,46.0,553.0,48.0,568.0,45.0,613.0,51.0,629.0,,,-25.0,0.0,,25.8,2.0,0.0,,,1.473,1.44,+76.9,19.5,,,,,,1052.0,2026-04-13 17:09:03-07:00
91.06,1.0,10.0,2026-04-14 00:10:29,37.0817,-121.5997,359.0,1.2,80.7,-12.6,0.13,37.096 1,0.9,344.5,00:10:29,11.2,-1.1,27.5,0.0,119.0,5.4,-0.05,1.0,99.0,-34.0,25.0,0.0,29.93,1299.0,,,307.0,,,,324.0,0.0,0.0,5.0,3.0,,,,,0.0,,,30.0,,,,,1.0,0.0,0.0,1200.0,77.0,20.0,1068.0,1068.0,12.5,1.9,,1.9,25.8,,,16.2,0.0,0.0,5.9,10.0,8.1,,,,,46.0,554.0,49.0,569.0,46.0,614.0,52.0,629.0,,,-25.0,0.0,,25.8,2.0,0.0,,,1.676,1.638,+77.2,19.5,,,,,,1068.0,2026-04-13 17:09:03-07:00
92.06,1.0,10.0,2026-04-14 00:10:30,37.0817,-121.5997,360.0,0.8,74.0,-12.6,0.13,37.096 1,0.9,344.5,00:10:30,11.2,-1.0,29.3,0.0,119.0,3.5,-0.02,1.1,99.0,-8.0,25.0,0.0,29.93,1299.0,,,307.0,,,,324.0,0.0,0.0,5.0,3.0,,,,,1.0,,,30.0,,,,,1.0,0.0,0.0,1200.0,77.0,20.0,1040.0,1040.0,12.5,1.9,,1.9,25.8,,,16.2,0.0,0.0,5.8,10.0,8.1,,,,,47.0,555.0,50.0,570.0,46.0,613.0,52.0,631.0,,,-25.0,0.0,,25.8,2.0,0.0,,,1.432,1.469,+77.1,19.5,,,,,,1040.0,2026-04-13 17:09:03-07:00
93.06,1.0,10.0,2026-04-14 00:10:31,37.08171,-121.59969,361.0,0.4,63.4,-12.6,0.13,37.096 1,0.9,344.5,00:10:31,11.1,-1.1,30.6,0.0,119.0,2.3,-0.03,1.0,99.0,-12.0,25.0,0.0,29.93,1299.0,,,307.0,,,,324.0,0.0,0.0,5.0,3.0,,,,,1.0,,,29.0,,,,,1.0,0.0,0.0,1200.0,77.0,20.0,1054.0,1054.0,12.5,1.9,,1.9,25.8,,,16.2,0.0,0.0,5.7,10.0,8.1,,,,,47.0,557.0,50.0,570.0,47.0,616.0,53.0,633.0,,,-25.0,0.0,,25.8,2.0,0.0,,,1.691,1.708,+77.0,19.6,,,,,,1054.0,2026-04-13 17:09:03-07:00
94.06,1.0,10.0,2026-04-14 00:10:32,37.08171,-121.59969,361.0,0.5,63.4,-12.6,0.13,37.096 1,0.9,344.5,00:10:32,11.0,-1.4,31.4,0.0,118.0,1.4,-0.03,1.0,99.0,-35.0,25.0,0.0,29.93,1308.0,,,307.0,,,,324.0,0.0,0.0,5.0,3.0,,,,,0.0,,,28.0,,,,,1.0,0.0,0.0,1200.0,77.0,20.0,1052.0,1052.0,12.5,1.9,,1.9,25.8,,,16.2,0.0,0.0,5.7,10.0,8.1,,,,,48.0,557.0,51.0,570.0,48.0,618.0,54.0,629.0,,,-25.0,0.0,,25.8,2.0,0.0,,,1.575,1.593,+76.7,19.6,,,,,,1052.0,2026-04-13 17:09:03-07:00
95.06,1.0,10.0,2026-04-14 00:10:33,37.0817,-121.59969,362.0,0.4,63.4,-12.6,0.13,37.096 1,0.9,344.5,00:10:33,10.9,-1.6,32.1,0.0,118.0,1.0,-0.03,1.0,99.0,-55.0,25.0,0.0,29.93,1308.0,,,307.0,,,,324.0,0.0,0.0,5.0,3.0,,,,,0.0,,,27.0,,,,,1.0,0.0,0.0,1200.0,77.0,20.0,1049.0,1049.0,12.5,1.9,,1.9,25.7,,,16.2,0.0,0.0,5.6,10.0,8.1,,,,,49.0,559.0,51.0,570.0,48.0,620.0,54.0,630.0,,,-25.0,0.0,,25.7,2.0,0.0,,,1.689,1.71,+76.8,19.6,,,,,,1049.0,2026-04-13 17:09:03-07:00
96.06,1.0,10.0,2026-04-14 00:10:34,37.0817,-121.59969,363.0,0.1,63.4,-12.6,0.13,37.096 1,0.9,344.4,00:10:34,10.7,-1.5,32.0,0.0,116.0,0.5,-0.03,1.0,99.0,-57.0,25.0,0.0,29.93,1308.0,,,307.0,,,,324.0,0.0,0.0,5.0,3.0,,,,,0.0,,,26.0,,,,,1.0,0.0,0.0,1200.0,77.0,20.0,1057.0,1057.0,12.6,1.9,,1.9,25.8,,,16.2,0.0,0.0,5.6,10.0,8.1,,,,,49.0,567.0,52.0,570.0,49.0,623.0,55.0,631.0,,,-25.0,0.0,,25.8,2.0,0.0,,,1.628,1.659,+76.7,19.6,,,,,,1057.0,2026-04-13 17:09:03-07:00
97.06,1.0,10.0,2026-04-14 00:10:35,37.0817,-121.59969,365.0,0.1,63.4,-12.6,0.13,37.096 1,0.9,344.5,00:10:35,10.6,-1.5,32.0,0.0,116.0,0.2,-0.02,1.0,99.0,-48.0,25.0,0.0,29.93,1305.0,,,307.0,,,,324.0,0.0,0.0,5.0,3.0,,,,,0.0,,,26.0,,,,,1.0,0.0,0.0,1200.0,77.0,20.0,1064.0,1064.0,12.4,1.9,,1.9,25.8,,,16.2,0.0,0.0,5.6,10.0,8.1,,,,,50.0,568.0,53.0,570.0,49.0,622.0,56.0,632.0,,,-25.0,0.0,,25.8,2.0,0.0,,,1.6,1.658,+76.9,19.6,,,,,,1064.0,2026-04-13 17:09:03-07:00
98.06,1.0,10.0,2026-04-14 00:10:36,37.0817,-121.59969,364.0,0.0,63.4,-12.6,0.13,37.096 1,0.9,344.5,00:10:36,10.5,-1.5,32.0,0.0,116.0,0.1,-0.03,1.0,99.0,-28.0,25.0,0.0,29.93,1305.0,,,307.0,,,,324.0,0.0,0.0,5.0,3.0,,,,,0.0,,,26.0,,,,,1.0,0.0,0.0,1200.0,77.0,20.0,1058.0,1058.0,12.4,1.9,,1.9,25.8,,,16.2,0.0,0.0,5.5,10.0,8.1,,,,,50.0,568.0,53.0,571.0,50.0,625.0,57.0,631.0,,,-25.0,0.0,,25.8,2.0,0.0,,,1.625,1.581,+76.9,19.7,,,,,,1058.0,2026-04-13 17:09:03-07:00
99.06,1.0,10.0,2026-04-14 00:10:37,37.0817,-121.59969,363.0,0.0,63.4,-12.6,0.13,37.096 1,0.9,344.5,00:10:37,10.5,-1.5,32.1,0.0,116.0,0.1,-0.03,0.9,99.0,16.0,25.0,0.0,29.93,1305.0,,,307.0,,,,324.0,0.0,0.0,5.0,3.0,,,,,0.0,,,26.0,,,,,1.0,0.0,0.0,1200.0,77.0,20.0,1064.0,1064.0,12.4,1.9,,1.9,25.8,,,16.2,0.0,0.0,5.5,10.0,8.1,,,,,51.0,567.0,54.0,572.0,51.0,623.0,57.0,632.0,,,-25.0,0.0,,25.8,2.0,0.0,,,1.625,1.575,+77.0,19.7,,,,,,1064.0,2026-04-13 17:09:03-07:00
100.06,1.0,10.0,2026-04-14 00:10:38,37.0817,-121.59968,363.0,0.0,63.4,-12.6,0.12,37.096 1,0.9,344.4,00:10:38,10.5,-1.5,32.0,0.0,116.0,0.1,-0.02,1.0,99.0,28.0,25.0,0.0,29.93,1305.0,,,307.0,,,,324.0,0.0,0.0,5.0,2.0,,,,,0.0,,,26.0,,,,,1.0,0.0,0.0,1200.0,77.0,20.0,1057.0,1057.0,12.3,1.9,,1.9,25.7,,,16.2,0.0,0.0,5.4,10.0,8.1,,,,,51.0,568.0,54.0,572.0,51.0,623.0,58.0,634.0,,,-25.0,0.0,,25.7,2.0,0.0,,,1.625,1.575,+77.1,19.7,,,,,,1057.0,2026-04-13 17:09:03-07:00
101.06,1.0,10.0,2026-04-14 00:10:39,37.0817,-121.59968,362.0,0.0,63.4,-12.6,0.12,37.096 1,0.9,344.4,00:10:39,10.6,-1.5,32.0,0.0,116.0,0.1,-0.03,1.0,99.0,31.0,25.0,0.0,29.93,1305.0,,,307.0,,,,324.0,0.0,0.0,5.0,2.0,,,,,1.0,,,26.0,,,,,1.0,0.0,0.0,1200.0,77.0,20.0,1064.0,1064.0,12.3,1.9,,1.9,25.7,,,16.2,0.0,0.0,5.4,10.0,8.1,,,,,52.0,567.0,55.0,572.0,52.0,622.0,58.0,635.0,,,-25.0,0.0,,25.7,2.0,0.0,,,1.625,1.575,+77.0,19.7,,,,,,1064.0,2026-04-13 17:09:03-07:00
102.06,1.0,10.0,2026-04-14 00:10:40,37.0817,-121.59968,362.0,0.0,63.4,-12.6,0.12,37.096 1,0.9,344.4,00:10:40,10.6,-1.5,32.0,0.0,116.0,0.1,-0.03,1.0,99.0,25.0,25.0,0.0,29.93,1305.0,,,307.0,,,,324.0,0.0,0.0,5.0,2.0,,,,,1.0,,,25.0,,,,,1.0,0.0,0.0,1200.0,77.0,20.0,1066.0,1066.0,12.3,1.9,,1.9,25.7,,,16.2,0.0,0.0,5.4,10.0,8.1,,,,,52.0,568.0,55.0,573.0,52.0,620.0,59.0,635.0,,,-25.0,0.0,,25.7,2.0,0.0,,,1.625,1.575,+77.0,19.8,,,,,,1066.0,2026-04-13 17:09:03-07:00
103.06,1.0,10.0,2026-04-14 00:10:41,37.0817,-121.59968,361.0,0.2,63.4,-12.6,0.12,37.096 1,0.9,344.4,00:10:41,10.7,-1.4,32.2,0.0,116.0,0.2,-0.02,1.0,99.0,33.0,25.0,0.0,29.93,1305.0,,,307.0,,,,324.0,0.0,0.0,5.0,2.0,,,,,-7.0,,,90.0,,,,,1.0,0.0,0.0,1200.0,77.0,20.0,1065.0,1065.0,12.3,1.9,,1.9,25.7,,,16.2,0.0,0.0,5.4,10.0,8.1,,,,,53.0,568.0,56.0,573.0,53.0,620.0,60.0,635.0,,,-25.0,0.0,,25.7,2.0,0.0,,,1.504,1.377,+77.1,19.8,,,,,,1065.0,2026-04-13 17:09:03-07:00
104.06,1.0,10.0,2026-04-14 00:10:42,37.08166,-121.59965,357.0,1.3,61.5,-12.6,0.13,37.096 1,0.9,344.4,00:10:42,11.1,-1.6,33.2,0.0,116.0,0.8,-0.02,1.0,99.0,-17.0,25.0,0.0,29.93,1305.0,,,307.0,,,,324.0,0.0,0.0,5.0,3.0,,,,,-7.0,,,90.0,,,,,1.0,0.0,0.0,1200.0,77.0,20.0,1069.0,1069.0,12.3,2.0,,2.0,25.7,,,16.2,0.0,0.0,5.3,10.0,8.1,,,,,53.0,568.0,57.0,574.0,54.0,619.0,60.0,635.0,,,-25.0,0.0,,25.7,2.0,0.0,,,1.576,1.339,+77.0,19.8,,,,,,1069.0,2026-04-13 17:09:03-07:00
105.06,1.0,10.0,2026-04-14 00:10:43,37.08167,-121.59965,356.0,1.9,43.1,-12.6,0.12,37.096 1,0.9,344.4,00:10:43,11.4,-1.9,35.6,0.0,116.0,1.8,-0.03,1.0,99.0,7.0,25.0,0.0,30.02,1305.0,,,307.0,,,,324.0,0.0,0.0,5.0,2.0,,,,,-7.0,,,90.0,,,,,1.0,0.0,0.0,1200.0,77.0,20.0,1070.0,1070.0,12.4,2.0,,2.0,25.7,,,16.2,0.0,0.0,5.2,10.0,8.1,,,,,54.0,568.0,57.0,574.0,54.0,619.0,61.0,634.0,,,-25.0,0.0,,25.7,2.0,0.0,,,1.576,1.453,+77.0,19.8,,,,,,1070.0,2026-04-13 17:09:03-07:00
106.06,1.0,10.0,2026-04-14 00:10:44,37.08167,-121.59963,357.0,2.3,45.8,-12.6,0.12,37.096 1,0.9,344.3,00:10:44,11.6,-2.0,38.7,0.0,116.0,2.8,-0.04,1.0,99.0,-5.0,25.0,0.0,30.08,1305.0,,,307.0,,,,324.0,0.0,0.0,5.0,2.0,,,,,-7.0,,,90.0,,,,,1.0,0.0,0.0,1200.0,77.0,20.0,1063.0,1063.0,12.3,2.0,,2.0,25.7,,,16.2,0.0,0.0,5.2,10.0,8.1,,,,,55.0,568.0,58.0,575.0,55.0,618.0,61.0,634.0,,,-25.0,0.0,,25.7,2.0,0.0,,,1.626,1.473,+76.9,19.9,,,,,,1063.0,2026-04-13 17:09:03-07:00
107.06,1.0,10.0,2026-04-14 00:10:45,37.08167,-121.59962,358.0,2.7,48.1,-12.6,0.12,37.096 1,0.9,344.3,00:10:45,11.2,-1.2,42.7,0.0,116.0,3.6,-0.03,1.1,99.0,15.0,25.0,0.0,30.08,1305.0,,,307.0,,,,324.0,0.0,0.0,5.0,2.0,,,,,-7.0,,,90.0,,,,,1.0,0.0,0.0,1200.0,77.0,20.0,1077.0,1077.0,12.4,2.0,,2.0,25.8,,,16.2,0.0,0.0,5.2,10.0,8.1,,,,,55.0,569.0,58.0,576.0,55.0,617.0,62.0,633.0,,,-25.0,0.0,,25.8,2.0,0.0,,,1.65,1.473,+76.9,19.9,,,,,,1077.0,2026-04-13 17:09:03-07:00
108.06,1.0,10.0,2026-04-14 00:10:46,37.08168,-121.59962,356.0,3.1,56.1,-12.6,0.12,37.096 1,0.9,344.3,00:10:46,11.3,-1.0,47.7,0.0,116.0,4.4,-0.04,1.0,99.0,29.0,25.0,0.0,30.08,1305.0,,,307.0,,,,324.0,0.0,0.0,5.0,2.0,,,,,-7.0,,,90.0,,,,,1.0,0.0,0.0,1200.0,77.0,20.0,1065.0,1065.0,12.3,2.0,,2.0,25.7,,,16.2,0.0,0.0,5.2,10.0,8.1,,,,,56.0,570.0,59.0,578.0,56.0,617.0,63.0,634.0,,,-25.0,0.0,,25.7,2.0,0.0,,,1.625,1.47,+76.9,19.9,,,,,,1065.0,2026-04-13 17:09:03-07:00
109.06,1.0,10.0,2026-04-14 00:10:47,37.08168,-121.5996,357.0,3.5,68.4,-12.6,0.12,37.096 1,0.9,344.2,00:10:47,11.5,-0.9,49.3,0.0,116.0,3.0,-0.03,1.0,99.0,35.0,25.0,0.0,30.08,1305.0,,,307.0,,,,324.0,0.0,0.0,5.0,2.0,,,,,-6.0,,,88.0,,,,,1.0,0.0,0.0,1200.0,76.0,20.0,1005.0,1005.0,12.3,2.0,,2.0,25.8,,,16.2,0.0,0.0,5.1,10.0,8.1,,,,,56.0,571.0,60.0,578.0,57.0,614.0,64.0,632.0,,,-25.0,0.0,,25.8,2.0,0.0,,,1.625,1.421,+76.0,19.9,,,,,,1005.0,2026-04-13 17:09:03-07:00
110.06,1.0,10.0,2026-04-14 00:10:48,37.08169,-121.59958,355.0,3.8,66.9,-12.6,0.12,37.096 1,0.9,344.1,00:10:48,11.7,-0.6,51.3,0.0,116.0,2.3,-0.01,0.9,99.0,74.0,25.0,0.0,30.08,1305.0,,,307.0,,,,324.0,0.0,0.0,5.0,2.0,,,,,-6.0,,,87.0,,,,,1.0,0.0,0.0,1200.0,75.0,20.0,981.0,981.0,12.3,2.0,,2.0,25.7,,,16.2,0.0,0.0,5.1,10.0,8.1,,,,,57.0,570.0,60.0,578.0,57.0,611.0,64.0,630.0,,,-25.0,0.0,,25.7,2.0,0.0,,,1.625,1.473,+75.0,20.0,,,,,,981.0,2026-04-13 17:09:03-07:00
111.06,1.0,10.0,2026-04-14 00:10:49,37.0817,-121.59956,356.0,4.1,69.9,-12.6,0.12,37.096 1,0.9,344.1,00:10:49,11.8,-0.5,53.6,0.0,116.0,2.3,-0.02,1.0,99.0,48.0,25.0,0.0,30.08,1305.0,,,307.0,,,,324.0,0.0,0.0,5.0,2.0,,,,,-6.0,,,87.0,,,,,1.0,0.0,0.0,1200.0,74.0,20.0,978.0,978.0,12.4,1.9,,1.9,25.8,,,16.2,0.0,0.0,5.1,10.0,8.1,,,,,57.0,570.0,61.0,577.0,58.0,609.0,65.0,628.0,,,-25.0,0.0,,25.8,2.0,0.0,,,1.625,1.473,+74.2,20.0,,,,,,978.0,2026-04-13 17:09:03-07:00
112.06,1.0,9.0,2026-04-14 00:10:50,37.08175,-121.59951,320.0,4.8,68.7,-12.6,0.12,37.096 1,0.9,343.9,00:10:50,11.7,-0.6,54.5,0.0,116.0,1.6,-0.02,1.0,99.0,60.0,25.0,0.0,30.08,1305.0,,,307.0,,,,324.0,0.0,0.0,5.0,2.0,,,,,-6.0,,,87.0,,,,,1.0,0.0,0.0,1200.0,74.0,20.0,976.0,976.0,12.5,1.9,,1.9,25.8,,,16.2,0.0,0.0,5.0,10.0,8.1,,,,,58.0,570.0,61.0,576.0,58.0,606.0,65.0,625.0,,,-25.0,0.0,,25.8,2.0,0.0,,,1.575,1.482,+73.9,20.0,,,,,,976.0,2026-04-13 17:09:03-07:00
113.06,1.0,9.0,2026-04-14 00:10:51,37.08176,-121.59949,319.0,5.1,71.6,-12.6,0.11,37.096 1,0.9,343.8,00:10:51,11.5,-1.0,54.6,0.0,116.0,0.8,-0.02,0.9,99.0,61.0,25.0,0.0,30.08,1305.0,,,307.0,,,,324.0,0.0,0.0,5.0,2.0,,,,,-6.0,,,87.0,,,,,1.0,0.0,0.0,1200.0,74.0,20.0,959.0,959.0,12.6,1.9,,1.9,25.7,,,16.2,0.0,0.0,5.0,10.0,8.1,,,,,59.0,569.0,62.0,575.0,59.0,606.0,66.0,623.0,,,-25.0,0.0,,25.7,2.0,0.0,,,1.576,1.526,+73.6,20.0,,,,,,959.0,2026-04-13 17:09:03-07:00
114.06,1.0,10.0,2026-04-14 00:10:52,37.08172,-121.59947,357.0,5.1,75.0,-12.6,0.12,37.096 1,0.9,343.8,00:10:52,11.4,-1.4,53.8,0.0,116.0,-0.1,-0.02,1.0,99.0,59.0,25.0,0.0,30.08,1305.0,,,307.0,,,,324.0,0.0,0.0,5.0,2.0,,,,,-6.0,,,86.0,,,,,1.0,0.0,0.0,1200.0,74.0,20.0,972.0,972.0,12.5,1.9,,1.9,25.8,,,16.2,0.0,0.0,5.0,10.0,8.1,,,,,59.0,569.0,62.0,574.0,59.0,605.0,67.0,620.0,,,-25.0,0.0,,25.8,2.0,0.0,,,1.576,1.527,+73.6,20.0,,,,,,972.0,2026-04-13 17:09:03-07:00
115.06,1.0,10.0,2026-04-14 00:10:53,37.08172,-121.59944,362.0,5.6,66.2,-12.6,0.11,37.096 1,0.9,343.7,00:10:53,11.4,-1.3,54.3,0.0,118.0,0.0,-0.0,1.0,99.0,73.0,25.0,0.0,30.08,1307.0,,,307.0,,,,324.0,0.0,0.0,5.0,2.0,,,,,-5.0,,,86.0,,,,,1.0,0.0,0.0,1200.0,74.0,20.0,965.0,965.0,12.5,1.9,,1.9,25.8,,,16.2,0.0,0.0,5.0,10.0,8.1,,,,,60.0,570.0,63.0,573.0,60.0,603.0,67.0,618.0,,,-25.0,0.0,,25.8,2.0,0.0,,,1.576,1.538,+73.5,20.1,,,,,,965.0,2026-04-13 17:09:03-07:00
116.06,1.0,9.0,2026-04-14 00:10:54,37.08178,-121.5994,318.0,5.8,72.2,-12.6,0.11,37.096 1,0.9,343.5,00:10:54,11.3,-1.7,57.3,0.0,118.0,1.8,-0.06,1.0,99.0,18.0,25.0,0.0,30.08,1307.0,,,307.0,,,,324.0,0.0,0.0,5.0,2.0,,,,,-5.0,,,86.0,,,,,1.0,0.0,0.0,1200.0,73.0,20.0,963.0,963.0,12.6,1.8,,1.8,25.8,,,16.2,0.0,0.0,5.0,10.0,8.1,,,,,60.0,570.0,64.0,573.0,61.0,602.0,68.0,617.0,,,-25.0,0.0,,25.8,2.0,0.0,,,1.576,1.527,+73.3,20.1,,,,,,963.0,2026-04-13 17:09:03-07:00
117.06,1.0,9.0,2026-04-14 00:10:55,37.08179,-121.59937,318.0,5.9,70.3,-12.6,0.11,37.096 1,0.9,343.4,00:10:55,11.0,-2.2,56.0,0.0,118.0,0.2,-0.03,1.0,99.0,29.0,25.0,0.0,30.08,1307.0,,,307.0,,,,324.0,0.0,0.0,5.0,2.0,,,,,-5.0,,,85.0,,,,,1.0,0.0,0.0,1200.0,73.0,20.0,968.0,968.0,12.6,1.8,,1.8,25.8,,,16.2,0.0,0.0,4.9,10.0,8.1,,,,,61.0,569.0,64.0,572.0,61.0,601.0,68.0,616.0,,,-25.0,0.0,,25.8,2.0,0.0,,,1.576,1.527,+73.2,20.1,,,,,,968.0,2026-04-13 17:09:03-07:00
118.06,1.0,9.0,2026-04-14 00:10:56,37.08176,-121.59934,318.0,6.3,67.4,-12.6,0.11,37.096 1,0.9,343.3,00:10:56,10.9,-2.4,55.1,0.0,120.0,-0.6,-0.03,1.0,99.0,43.0,25.0,0.0,30.08,1309.0,,,307.0,,,,324.0,0.0,0.0,5.0,2.0,,,,,-5.0,,,85.0,,,,,1.0,0.0,0.0,1200.0,73.0,20.0,944.0,944.0,12.5,1.8,,1.8,25.8,,,16.2,0.0,0.0,4.9,10.1,8.1,,,,,61.0,569.0,65.0,571.0,62.0,600.0,69.0,614.0,,,-25.0,0.0,,25.8,2.0,0.0,,,1.587,1.526,+73.1,20.1,,,,,,944.0,2026-04-13 17:09:03-07:00
119.06,1.0,9.0,2026-04-14 00:10:57,37.08177,-121.5993,318.0,6.2,70.8,-12.6,0.11,37.096 1,0.9,343.2,00:10:57,10.9,-2.0,56.2,0.0,120.0,0.4,-0.05,0.9,99.0,35.0,25.0,0.0,30.08,1309.0,,,307.0,,,,324.0,0.0,0.0,5.0,2.0,,,,,-5.0,,,85.0,,,,,1.0,0.0,0.0,1200.0,72.0,20.0,880.0,880.0,12.5,1.7,,1.7,25.8,,,16.2,0.0,0.0,4.9,10.1,8.1,,,,,62.0,568.0,65.0,570.0,62.0,597.0,70.0,611.0,,,-25.0,0.0,,25.8,2.0,0.0,,,1.635,1.526,+71.7,20.2,,,,,,880.0,2026-04-13 17:09:03-07:00
120.06,1.0,10.0,2026-04-14 00:10:58,37.08178,-121.59927,350.0,6.3,68.7,-12.6,0.11,37.096 1,0.9,343.1,00:10:58,10.9,-2.1,55.5,0.0,120.0,-0.0,-0.04,0.9,99.0,39.0,25.0,0.0,30.08,1309.0,,,307.0,,,,324.0,0.0,0.0,5.0,2.0,,,,,-5.0,,,86.0,,,,,1.0,0.0,0.0,1200.0,71.0,20.0,875.0,875.0,12.7,1.7,,1.7,25.8,,,16.2,0.0,0.0,4.9,10.1,8.1,,,,,62.0,567.0,66.0,568.0,63.0,596.0,70.0,609.0,,,-25.0,0.0,,25.8,2.0,0.0,,,1.615,1.417,+70.7,20.2,,,,,,875.0,2026-04-13 17:09:03-07:00
121.06,1.0,10.0,2026-04-14 00:10:59,37.08179,-121.59924,349.0,6.4,69.4,-12.6,0.1,37.096 1,0.9,343.0,00:10:59,11.1,-1.5,53.5,0.0,121.0,-1.1,-0.02,1.0,99.0,35.0,25.0,0.0,30.08,1301.0,,,307.0,,,,324.0,0.0,0.0,5.0,2.0,,,,,-5.0,,,86.0,,,,,1.0,0.0,0.0,1200.0,70.0,20.0,878.0,878.0,12.7,1.7,,1.7,25.8,,,16.2,0.0,0.0,4.9,10.1,8.1,,,,,63.0,566.0,66.0,567.0,63.0,594.0,71.0,607.0,,,-25.0,0.0,,25.8,2.0,0.0,,,1.611,1.287,+70.4,20.2,,,,,,878.0,2026-04-13 17:09:03-07:00
122.06,1.0,10.0,2026-04-14 00:11:00,37.0818,-121.59921,348.0,6.3,68.0,-12.6,0.1,37.096 1,0.9,342.9,00:11:00,10.7,-1.2,51.8,0.0,121.0,-1.5,-0.01,0.9,99.0,-15.0,25.0,0.0,30.08,1301.0,,,307.0,,,,324.0,0.0,0.0,5.0,2.0,,,,,-5.0,,,86.0,,,,,1.0,0.0,0.0,1200.0,70.0,20.0,870.0,870.0,12.8,1.6,,1.6,25.8,,,16.2,0.0,0.0,4.9,10.1,8.1,,,,,63.0,566.0,67.0,565.0,64.0,593.0,71.0,605.0,,,-25.0,0.0,,25.8,2.0,0.0,,,1.663,1.482,+70.4,20.2,,,,,,870.0,2026-04-13 17:09:03-07:00
123.06,1.0,10.0,2026-04-14 00:11:01,37.08181,-121.59917,346.0,5.0,64.8,-12.6,0.1,37.096 1,0.9,342.8,00:11:01,10.3,-1.3,50.0,0.0,121.0,-1.7,-0.01,1.0,99.0,5.0,25.0,0.0,30.08,1301.0,,,307.0,,,,324.0,0.0,0.0,5.0,2.0,,,,,-5.0,,,86.0,,,,,1.0,0.0,0.0,1200.0,70.0,20.0,872.0,872.0,12.8,1.6,,1.6,25.8,,,16.2,0.0,0.0,4.8,10.1,8.1,,,,,64.0,566.0,67.0,564.0,64.0,592.0,72.0,604.0,,,-25.0,0.0,,25.8,2.0,0.0,,,1.727,1.602,+70.2,20.3,,,,,,872.0,2026-04-13 17:09:03-07:00
124.06,1.0,10.0,2026-04-14 00:11:02,37.08183,-121.59914,343.0,5.0,63.8,-12.6,0.1,37.096 1,0.9,342.7,00:11:02,10.8,-1.4,49.3,0.0,121.0,-1.4,-0.01,1.0,99.0,-6.0,25.0,0.0,30.08,1301.0,,,307.0,,,,324.0,0.0,0.0,5.0,2.0,,,,,-5.0,,,86.0,,,,,1.0,0.0,0.0,1200.0,70.0,20.0,873.0,873.0,12.9,1.6,,1.6,25.8,,,16.2,0.0,0.0,4.8,10.1,8.1,,,,,64.0,565.0,68.0,565.0,65.0,591.0,72.0,602.0,,,-25.0,0.0,,25.8,2.0,0.0,,,1.633,1.577,+70.0,20.3,,,,,,873.0,2026-04-13 17:09:03-07:00
125.06,1.0,10.0,2026-04-14 00:11:03,37.08184,-121.59912,341.0,4.0,58.4,-12.6,0.1,37.096 1,0.9,342.6,00:11:03,11.0,-1.5,51.6,0.0,121.0,0.9,-0.06,0.8,99.0,-12.0,25.0,0.0,30.08,1301.0,,,307.0,,,,324.0,0.0,0.0,5.0,2.0,,,,,-5.0,,,86.0,,,,,1.0,0.0,0.0,1200.0,70.0,20.0,875.0,875.0,12.9,1.6,,1.6,25.8,,,16.2,0.0,0.0,4.8,10.1,8.1,,,,,65.0,564.0,68.0,565.0,65.0,589.0,73.0,602.0,,,-25.0,0.0,,25.8,2.0,0.0,,,1.665,1.674,+70.0,20.3,,,,,,875.0,2026-04-13 17:09:03-07:00
126.06,1.0,10.0,2026-04-14 00:11:04,37.08185,-121.59911,335.0,3.5,66.2,-12.6,0.1,37.096 1,0.9,342.5,00:11:04,10.9,-1.7,50.1,0.0,121.0,-0.2,-0.02,1.0,99.0,-13.0,25.0,0.0,30.08,1301.0,,,307.0,,,,324.0,0.0,0.0,5.0,2.0,,,,,-5.0,,,86.0,,,,,1.0,0.0,0.0,1200.0,70.0,20.0,877.0,877.0,12.9,1.6,,1.6,25.8,,,16.2,0.0,0.0,4.8,10.1,8.1,,,,,65.0,564.0,69.0,564.0,66.0,589.0,73.0,602.0,,,-25.0,0.0,,25.8,2.0,0.0,,,1.431,1.593,+69.9,20.3,,,,,,877.0,2026-04-13 17:09:03-07:00
127.06,2.0,10.0,2026-04-14 00:11:05,37.08186,-121.59909,332.0,3.3,64.4,-12.6,0.1,37.096 1,0.9,342.5,00:11:05,11.0,-1.6,49.8,0.0,121.0,-0.2,-0.02,1.0,99.0,-13.0,25.0,0.0,30.08,1301.0,,,307.0,,,,324.0,0.0,0.0,5.0,2.0,,,,,-5.0,,,86.0,,,,,1.0,0.0,0.0,1200.0,70.0,20.0,871.0,871.0,12.9,1.6,,1.6,25.8,,,16.2,0.0,0.0,4.8,10.1,8.1,,,,,66.0,565.0,69.0,564.0,66.0,588.0,74.0,600.0,,,-25.0,0.0,,25.8,2.0,0.0,,,1.564,1.622,+69.9,20.3,,,,,,871.0,2026-04-13 17:09:03-07:00
128.06,2.0,10.0,2026-04-14 00:11:06,37.08187,-121.59908,330.0,3.0,62.1,-12.6,0.09,37.096 1,0.9,342.4,00:11:06,10.7,-2.0,51.0,0.0,121.0,0.8,-0.02,0.9,99.0,-12.0,25.0,0.0,30.08,1301.0,,,307.0,,,,324.0,0.0,0.0,5.0,2.0,,,,,-4.0,,,84.0,,,,,1.0,0.0,0.0,1200.0,70.0,20.0,878.0,878.0,12.9,1.6,,1.6,25.8,,,16.2,0.0,0.0,4.8,10.1,8.1,,,,,66.0,564.0,70.0,563.0,67.0,588.0,74.0,601.0,,,-25.0,0.0,,25.8,2.0,0.0,,,1.573,1.627,+69.9,20.4,,,,,,878.0,2026-04-13 17:09:03-07:00
129.06,2.0,10.0,2026-04-14 00:11:07,37.08187,-121.59906,329.0,2.2,66.8,-12.6,0.09,37.096 1,0.9,342.3,00:11:07,10.6,-1.3,51.6,0.0,121.0,0.9,-0.05,0.9,99.0,-32.0,25.0,0.0,30.08,1301.0,,,307.0,,,,324.0,0.0,0.0,5.0,2.0,,,,,-3.0,,,90.0,,,,,1.0,0.0,0.0,1200.0,70.0,20.0,876.0,876.0,12.8,1.5,,1.5,25.8,,,16.2,0.0,0.0,4.8,10.1,8.1,,,,,67.0,565.0,70.0,563.0,68.0,587.0,75.0,601.0,,,-25.0,0.0,,25.8,2.0,0.0,,,1.697,1.613,+69.9,20.4,,,,,,876.0,2026-04-13 17:09:03-07:00
130.06,2.0,10.0,2026-04-14 00:11:08,37.08188,-121.59905,328.0,1.7,71.7,-12.6,0.09,37.096 1,0.9,342.3,00:11:08,10.7,-1.8,49.5,0.0,121.0,-0.6,-0.05,0.9,99.0,-20.0,25.0,0.0,30.08,1301.0,,,307.0,,,,324.0,0.0,0.0,5.0,2.0,,,,,-1.0,,,90.0,,,,,1.0,0.0,0.0,1200.0,70.0,20.0,869.0,869.0,12.7,1.6,,1.6,25.8,,,16.2,0.0,0.0,4.7,10.1,8.1,,,,,67.0,565.0,71.0,562.0,68.0,587.0,75.0,601.0,,,-25.0,0.0,,25.8,2.0,0.0,,,1.805,1.725,+69.9,20.4,,,,,,869.0,2026-04-13 17:09:03-07:00
131.06,2.0,10.0,2026-04-14 00:11:09,37.08188,-121.59904,327.0,1.6,70.6,-12.6,0.09,37.096 1,0.9,342.3,00:11:09,10.9,-1.9,46.5,0.0,121.0,-2.1,-0.03,1.0,99.0,-58.0,25.0,0.0,30.08,1301.0,,,307.0,,,,324.0,0.0,0.0,5.0,2.0,,,,,-1.0,,,90.0,,,,,1.0,0.0,0.0,1200.0,70.0,20.0,911.0,911.0,12.9,1.6,,1.6,25.7,,,16.2,0.0,0.0,4.7,10.1,8.1,,,,,68.0,564.0,71.0,562.0,69.0,586.0,76.0,602.0,,,-25.0,0.0,,25.7,2.0,0.0,,,1.743,1.81,+70.0,20.4,,,,,,911.0,2026-04-13 17:09:03-07:00
132.06,2.0,10.0,2026-04-14 00:11:10,37.08189,-121.59902,326.0,2.0,67.8,-12.6,0.09,37.096 1,0.9,342.2,00:11:10,10.9,-1.8,43.5,0.0,121.0,-2.6,-0.02,1.0,99.0,-31.0,25.0,0.0,30.08,1301.0,,,307.0,,,,324.0,0.0,0.0,5.0,2.0,,,,,-1.0,,,89.0,,,,,1.0,0.0,0.0,1200.0,73.0,20.0,1063.0,1063.0,13.2,1.7,,1.7,25.7,,,16.2,0.0,0.0,4.7,10.1,8.1,,,,,68.0,565.0,72.0,563.0,69.0,589.0,77.0,605.0,,,-25.0,0.0,,25.7,2.0,0.0,,,1.61,1.647,+72.6,20.5,,,,,,1063.0,2026-04-13 17:09:03-07:00
133.06,2.0,10.0,2026-04-14 00:11:11,37.08189,-121.59901,327.0,2.6,64.8,-12.6,0.09,37.096 1,0.9,342.2,00:11:11,10.9,-1.9,39.3,0.0,121.0,-3.5,-0.02,1.0,99.0,-23.0,25.0,0.0,30.08,1301.0,,,307.0,,,,324.0,0.0,0.0,5.0,2.0,,,,,-1.0,,,86.0,,,,,1.0,0.0,0.0,1200.0,77.0,20.0,1230.0,1230.0,13.4,1.8,,1.8,25.8,,,16.2,0.0,0.0,4.6,10.1,8.1,,,,,69.0,570.0,72.0,570.0,70.0,599.0,77.0,615.0,,,-25.0,0.0,,25.8,2.0,0.0,,,1.544,1.509,+77.1,20.5,,,,,,1230.0,2026-04-13 17:09:03-07:00
134.06,2.0,10.0,2026-04-14 00:11:12,37.08187,-121.59898,327.0,2.9,63.8,-12.6,0.09,37.096 1,0.9,342.1,00:11:12,10.9,-1.1,33.5,0.0,121.0,-4.8,-0.01,0.9,99.0,-12.0,25.0,0.0,30.08,1301.0,,,307.0,,,,324.0,0.0,0.0,5.0,2.0,,,,,-1.0,,,85.0,,,,,1.0,0.0,0.0,1200.0,79.0,21.0,1211.0,1211.0,12.9,2.0,,2.0,25.8,,,16.2,0.0,0.0,4.5,10.1,8.1,,,,,69.0,578.0,73.0,580.0,70.0,610.0,78.0,623.0,,,-25.0,0.0,,25.8,2.0,0.0,,,1.616,1.484,+79.1,20.5,,,,,,1211.0,2026-04-13 17:09:03-07:00
135.06,2.0,10.0,2026-04-14 00:11:13,37.08187,-121.59896,323.0,3.3,57.7,-12.6,0.09,37.096 1,0.9,342.1,00:11:13,10.8,-0.7,26.0,0.0,121.0,-6.3,-0.0,1.0,99.0,-38.0,25.0,0.0,30.08,1301.0,,,307.0,,,,324.0,0.0,0.0,5.0,2.0,,,,,0.0,,,85.0,,,,,1.0,0.0,0.0,1200.0,79.0,21.0,1194.0,1194.0,12.7,2.0,,2.0,25.8,,,16.2,0.0,0.0,5.2,10.1,8.1,,,,,70.0,584.0,73.0,586.0,71.0,618.0,78.0,629.0,,,-25.0,0.0,,25.8,2.0,0.0,,,1.549,1.597,+79.4,20.6,,,,,,1194.0,2026-04-13 17:09:03-07:00
136.06,2.0,10.0,2026-04-14 00:11:14,37.08189,-121.59895,323.0,4.0,51.3,-12.6,0.09,37.096 1,0.9,342.0,00:11:14,10.6,0.3,16.6,0.0,121.0,-8.1,0.03,1.0,99.0,-49.0,25.0,0.0,30.08,1300.0,,,307.0,,,,324.0,0.0,0.0,5.0,2.0,,,,,1.0,,,85.0,,,,,1.0,0.0,0.0,1200.0,79.0,21.0,1169.0,1169.0,12.6,2.1,,2.1,25.7,,,16.2,0.0,0.0,5.8,10.1,8.1,,,,,70.0,587.0,74.0,591.0,71.0,628.0,79.0,634.0,,,-25.0,0.0,,25.7,2.0,0.0,,,1.576,1.619,+79.3,20.6,,,,,,1169.0,2026-04-13 17:09:03-07:00
137.06,2.0,10.0,2026-04-14 00:11:15,37.0819,-121.59892,322.0,4.2,39.8,-12.6,0.09,37.096 1,0.9,341.9,00:11:15,10.6,-0.2,4.9,0.0,121.0,-10.3,0.04,0.9,99.0,-11.0,25.0,0.0,30.08,1300.0,,,307.0,,,,324.0,0.0,0.0,5.0,2.0,,,,,1.0,,,84.0,,,,,1.0,0.0,0.0,1200.0,79.0,21.0,1177.0,1177.0,12.5,2.2,,2.2,25.7,,,16.2,0.0,0.0,6.1,10.1,8.1,,,,,71.0,590.0,75.0,599.0,72.0,632.0,80.0,642.0,,,-25.0,0.0,,25.7,2.0,0.0,,,1.522,1.611,+79.1,20.7,,,,,,1177.0,2026-04-13 17:09:03-07:00
