Session Time,GPS Fix Quality,Number of Satellites,GPS Date & Time,Latitude (deg),Longitude (deg),GPS Altitude (feet),Ground Speed (knots),Ground Track (deg),Mag Var (deg),Cross Track Error (NM),Destination Waypoint ID,Range to Destination (NM),Bearing to Destination (deg),System Time,Pitch (deg),Roll (deg),Magnetic Heading (deg),Indicated Airspeed (knots),Pressure Altitude (ft),Turn Rate (deg/s),Lateral Accel (g),Vertical Accel(g),Angle of Attack (%),Vertical Speed (ft/min),OAT (deg C),True Airspeed (knots),Barometer Setting (inHg),Density Altitude (ft),Wind Direction (deg),Wind Speed (knots),Heading Bug (deg),Altitude Bug (ft),Airspeed Bug (knots),Vertical Speed Bug (ft/min),Course (deg),CDI Source Type,CDI Source Port,CDI Scale (NM),CDI Deflection (%),Glideslope (%),AP Engaged,AP Roll Mode,AP Roll Force,AP Roll Position (steps),AP Roll Slip (bool),AP Pitch Force,AP Pitch Position (steps),AP Pitch Slip (bool),AP Yaw Force,AP Yaw Position,AP Yaw Slip (bool),Transponder Status,Transponder Reply (bool),Transponder Identing (bool),Transponder Code (octal),Oil Pressure (PSI),Oil Temp (deg C),RPM L,RPM R,Manifold Pressure (inHg),Fuel Flow 1 (gal/hr),Fuel Flow 2 (gal/hr),Total Fuel Flow (gal/hr),Fuel Pressure (PSI),Fuel Level L (gal),Fuel Level R (gal),Fuel Remaining (gal),Volts 1,Volts 2,Amps,Hobbs Time,Tach Time,Thermocouple 1 (deg C),Thermocouple 2 (deg C),Thermocouple 3 (deg C),Thermocouple 4 (deg C),CHT 4 (deg C),EGT 4 (deg C),CHT 3 (deg C),EGT 3 (deg C),CHT 2 (deg C),EGT 2 (deg C),CHT 1 (deg C),EGT 1 (deg C),Thermocouple 13 (deg C),Thermocouple 14 (deg C),ELEV POSITION (%),CO PPM PRESSURE (PSI),GP Input 3,FUEL PRESSURE (PSI),AILERN POSITION (%),CANOPY CONTACT (V),GP Input 7,GP Input 8,LEFT LEVEL (Sensor V),RIGHT LEVEL (Sensor V),OIL PRESSURE (PSI),OIL TEMPERATURE (deg C),GP Input 13,Contacts,Percent Power,EGT Leaning State,Unnamed: 103,RPM,Flight ID
5.06,1.0,4.0,2026-05-02 00:06:42,37.68873,-121.43688,249.0,0.0,38.2,-12.7,,,,,00:06:42,10.3,1.0,298.4,0.0,274.0,0.0,0.02,1.0,99.0,-45.0,35.0,0.0,29.85,2752.0,,,39.0,,,,,0.0,0.0,,,,,,,,,,,,,,,,,,,0.0,87.0,0.0,0.0,29.9,0.2,,0.2,5.0,,,11.1,0.0,0.0,-0.3,14.2,11.7,,,,,114.0,93.0,124.0,104.0,115.0,98.0,119.0,101.0,,,-9.0,254.2,,5.0,3.0,4.998,,,0.653,0.88,0.0,87.3,,,,,,0.0,2026-05-01 17:06:42-07:00
6.06,1.0,7.0,2026-05-02 00:06:43,37.68869,-121.43691,202.0,0.0,38.2,-12.7,,,,,00:06:43,10.3,1.0,298.4,0.0,271.0,0.0,0.02,1.0,99.0,-100.0,35.0,0.0,29.85,2752.0,,,39.0,,,,,0.0,0.0,,,,,,,,,,,,,,,,,,,0.0,87.0,0.0,0.0,29.9,0.2,,0.2,5.0,,,11.1,0.0,0.0,-0.3,14.2,11.7,,,,,114.0,93.0,124.0,104.0,115.0,98.0,119.0,101.0,,,-9.0,254.2,,5.0,3.0,4.998,,,0.653,0.881,0.0,87.3,,,,,,0.0,2026-05-01 17:06:42-07:00
7.06,1.0,7.0,2026-05-02 00:06:44,37.68873,-121.4369,178.0,0.0,38.2,-12.7,,,,,00:06:44,10.4,1.0,298.4,0.0,270.0,0.0,0.02,1.0,99.0,-99.0,35.0,0.0,29.85,2752.0,,,39.0,,,,,0.0,0.0,,,,,,,,,,,,,,,,,,,0.0,87.0,0.0,0.0,29.9,0.2,,0.2,5.0,,,11.1,0.0,0.0,-0.3,14.2,11.7,,,,,114.0,93.0,124.0,104.0,115.0,98.0,119.0,101.0,,,-9.0,254.2,,5.0,3.0,4.996,,,0.653,0.883,0.0,87.3,,,,,,0.0,2026-05-01 17:06:42-07:00
8.06,1.0,7.0,2026-05-02 00:06:45,37.68872,-121.4369,178.0,0.0,38.2,-12.7,,,,,00:06:45,10.3,1.1,298.4,0.0,268.0,0.0,0.02,1.0,99.0,-103.0,35.0,0.0,29.85,2747.0,,,39.0,,,,,0.0,0.0,,,,,,,,,,,,,,,,,,,0.0,87.0,0.0,0.0,29.9,0.2,,0.2,5.0,,,11.1,0.0,0.0,-0.3,14.2,11.7,,,,,114.0,93.0,124.0,104.0,115.0,98.0,119.0,101.0,,,-9.0,254.2,,5.0,3.0,4.996,,,0.653,0.885,0.0,87.3,,,,,,0.0,2026-05-01 17:06:42-07:00
9.06,1.0,7.0,2026-05-02 00:06:46,37.68872,-121.4369,178.0,0.0,38.2,-12.7,,,,,00:06:46,10.4,1.0,298.4,0.0,266.0,0.0,0.02,1.0,99.0,-128.0,35.0,0.0,29.85,2747.0,,,39.0,,,,,0.0,0.0,,,,,,,,,,,,,,,,,,,0.0,87.0,0.0,0.0,29.9,0.2,,0.2,5.0,,,11.1,0.0,0.0,-0.3,14.2,11.7,,,,,114.0,93.0,124.0,104.0,114.0,98.0,119.0,101.0,,,-9.0,254.2,,5.0,3.0,4.996,,,0.653,0.89,0.0,87.3,,,,,,0.0,2026-05-01 17:06:42-07:00
10.06,1.0,7.0,2026-05-02 00:06:47,37.68872,-121.4369,178.0,0.0,38.2,-12.7,,,,,00:06:47,10.3,0.9,298.3,0.0,264.0,-0.0,0.02,1.0,99.0,-118.0,35.0,0.0,29.85,2747.0,,,39.0,,,,,0.0,0.0,,,,,,,,,,,,,,,,,,,0.0,87.0,0.0,0.0,29.9,0.2,,0.2,5.0,,,11.1,0.0,0.0,-0.3,14.2,11.7,,,,,114.0,93.0,123.0,104.0,114.0,98.0,119.0,101.0,,,-9.0,254.2,,5.0,3.0,4.996,,,0.653,0.907,0.0,87.3,,,,,,0.0,2026-05-01 17:06:42-07:00
11.06,1.0,9.0,2026-05-02 00:06:48,37.68873,-121.43689,193.0,0.0,38.2,-12.7,,,,,00:06:48,10.4,1.0,298.3,0.0,263.0,-0.0,0.02,1.0,99.0,-92.0,35.0,0.0,29.85,2740.0,,,39.0,,,,,0.0,0.0,,,,,,,,,,,,,,,,,,,0.0,87.0,0.0,0.0,29.9,0.2,,0.2,5.0,,,11.1,0.0,0.0,-0.3,14.2,11.7,,,,,114.0,93.0,123.0,104.0,114.0,98.0,119.0,101.0,,,-9.0,254.2,,5.0,3.0,4.998,,,0.653,0.908,0.0,87.3,,,,,,0.0,2026-05-01 17:06:42-07:00
12.06,1.0,9.0,2026-05-02 00:06:49,37.68873,-121.43689,192.0,0.0,38.2,-12.7,,,,,00:06:49,10.4,0.9,298.3,0.0,261.0,-0.0,0.02,1.0,99.0,-105.0,35.0,0.0,29.85,2740.0,,,39.0,,,,,0.0,0.0,,,,,,,,,,,,,,,,,,,0.0,87.0,0.0,0.0,29.9,0.2,,0.2,5.0,,,11.1,0.0,0.0,-0.3,14.2,11.7,,,,,114.0,93.0,123.0,104.0,114.0,98.0,119.0,101.0,,,-9.0,254.2,,5.0,3.0,4.998,,,0.653,0.939,0.0,87.3,,,,,,0.0,2026-05-01 17:06:42-07:00
13.06,1.0,9.0,2026-05-02 00:06:50,37.68873,-121.43689,192.0,0.0,38.2,-12.7,,,,,00:06:50,10.4,0.9,298.3,0.0,259.0,-0.0,0.02,1.0,99.0,-115.0,35.0,0.0,29.85,2740.0,,,39.0,,,,,0.0,0.0,,,,,,,,,,,,,,,,,,,0.0,87.0,0.0,0.0,29.9,0.2,,0.2,5.0,,,11.1,0.0,0.0,-0.3,14.2,11.7,,,,,113.0,93.0,123.0,104.0,114.0,98.0,119.0,101.0,,,-9.0,254.2,,5.0,3.0,4.998,,,0.653,0.896,0.0,87.3,,,,,,0.0,2026-05-01 17:06:42-07:00
14.06,1.0,9.0,2026-05-02 00:06:51,37.68873,-121.43688,191.0,0.0,38.2,-12.7,,,,,00:06:51,10.4,0.9,298.3,0.0,258.0,-0.0,0.02,1.0,99.0,-82.0,35.0,0.0,29.85,2734.0,,,39.0,,,,,0.0,0.0,,,,,,,,,,,,,,,,,,,0.0,87.0,0.0,0.0,29.9,0.2,,0.2,5.0,,,11.1,0.0,0.0,-0.3,14.2,11.7,,,,,113.0,93.0,123.0,104.0,114.0,98.0,119.0,101.0,,,-9.0,254.2,,5.0,3.0,4.996,,,0.653,0.885,0.0,87.3,,,,,,0.0,2026-05-01 17:06:42-07:00
15.06,1.0,9.0,2026-05-02 00:06:52,37.68873,-121.43688,191.0,0.0,38.2,-12.7,,,,,00:06:52,10.3,0.9,298.2,0.0,258.0,-0.0,0.02,1.0,99.0,-64.0,35.0,0.0,29.85,2734.0,,,39.0,,,,,0.0,0.0,,,,,,,,,,,,,,,,,,,0.0,87.0,0.0,0.0,29.9,0.2,,0.2,5.0,,,11.1,0.0,0.0,-0.3,14.2,11.7,,,,,113.0,93.0,123.0,104.0,114.0,98.0,119.0,101.0,,,-9.0,254.2,,5.0,3.0,4.996,,,0.653,0.879,0.0,87.3,,,,,,0.0,2026-05-01 17:06:42-07:00
16.06,1.0,9.0,2026-05-02 00:06:53,37.68873,-121.43688,190.0,0.0,38.2,-12.7,,,,,00:06:53,10.4,1.0,298.3,0.0,257.0,0.0,0.02,1.0,99.0,-76.0,35.0,0.0,29.85,2734.0,,,39.0,,,,,0.0,0.0,,,,,,,,,,,,,,,,,,,0.0,87.0,0.0,0.0,29.9,0.2,,0.2,5.0,,,11.1,0.0,0.0,-0.3,14.2,11.7,,,,,113.0,93.0,123.0,104.0,114.0,98.0,119.0,101.0,,,-9.0,254.2,,5.0,3.0,4.996,,,0.653,0.876,0.0,87.3,,,,,,0.0,2026-05-01 17:06:42-07:00
17.06,1.0,9.0,2026-05-02 00:06:54,37.68873,-121.43688,189.0,0.0,38.2,-12.7,,,,,00:06:54,10.3,0.9,298.3,0.0,255.0,0.0,0.02,1.0,99.0,-73.0,35.0,0.0,29.85,2731.0,,,39.0,,,,,0.0,0.0,,,,,,,,,,,,,,,,,,,0.0,87.0,0.0,0.0,29.9,0.2,,0.2,5.0,,,11.1,0.0,0.0,-0.3,14.2,11.7,,,,,113.0,93.0,123.0,104.0,114.0,98.0,119.0,101.0,,,-9.0,254.2,,5.0,3.0,4.996,,,0.653,0.873,0.0,87.3,,,,,,0.0,2026-05-01 17:06:42-07:00
18.06,1.0,9.0,2026-05-02 00:06:55,37.68873,-121.43688,188.0,0.0,38.2,-12.7,,,,,00:06:55,10.3,1.0,298.2,0.0,254.0,0.0,0.02,1.0,99.0,-59.0,35.0,0.0,29.85,2731.0,,,39.0,,,,,0.0,0.0,,,,,,,,,,,,,,,,,,,0.0,87.0,0.0,0.0,29.9,0.2,,0.2,5.0,,,11.1,0.0,0.0,-0.3,14.2,11.7,,,,,113.0,93.0,123.0,104.0,114.0,98.0,119.0,101.0,,,-9.0,254.2,,5.0,3.0,4.998,,,0.653,0.872,0.0,87.3,,,,,,0.0,2026-05-01 17:06:42-07:00
19.06,1.0,9.0,2026-05-02 00:06:56,37.68874,-121.43688,188.0,0.0,38.2,-12.7,,,,,00:06:56,10.3,1.0,298.3,0.0,253.0,0.0,0.02,1.0,99.0,-59.0,35.0,0.0,29.85,2731.0,,,39.0,,,,,0.0,0.0,,,,,,,,,,,,,,,,,,,0.0,87.0,0.0,0.0,29.9,0.2,,0.2,5.0,,,11.1,0.0,0.0,-0.3,14.2,11.7,,,,,113.0,93.0,123.0,104.0,114.0,98.0,119.0,101.0,,,-9.0,254.2,,5.0,3.0,4.996,,,0.653,0.872,0.0,87.3,,,,,,0.0,2026-05-01 17:06:42-07:00
20.06,1.0,9.0,2026-05-02 00:06:57,37.68874,-121.43688,188.0,0.0,38.2,-12.7,,,,,00:06:57,10.3,1.0,298.2,0.0,253.0,0.0,0.02,1.0,99.0,-46.0,35.0,0.0,29.85,2738.0,,,39.0,,,,,0.0,0.0,,,,,,,,,,,,,,,,,,,0.0,87.0,0.0,0.0,29.9,0.2,,0.2,5.0,,,11.1,0.0,0.0,-0.3,14.2,11.7,,,,,113.0,93.0,123.0,104.0,114.0,98.0,119.0,101.0,,,-9.0,254.2,,5.0,3.0,4.996,,,0.653,0.869,0.0,87.3,,,,,,0.0,2026-05-01 17:06:42-07:00
21.06,1.0,9.0,2026-05-02 00:06:58,37.68874,-121.43688,187.0,0.0,38.2,-12.7,,,,,00:06:58,10.3,0.9,298.2,0.0,251.0,0.0,0.02,1.0,99.0,-58.0,35.0,0.0,29.85,2735.0,,,39.0,,,,,0.0,0.0,,,,,,,,,,,,,,,,,,,0.0,87.0,0.0,0.0,29.9,0.2,,0.2,5.0,,,11.1,0.0,0.0,-0.3,14.2,11.7,,,,,113.0,93.0,123.0,104.0,114.0,98.0,119.0,101.0,,,-9.0,254.1,,5.0,3.0,4.998,,,0.653,0.87,0.0,87.3,,,,,,0.0,2026-05-01 17:06:42-07:00
22.06,1.0,9.0,2026-05-02 00:06:59,37.68874,-121.43688,187.0,0.0,38.2,-12.7,,,,,00:06:59,10.3,0.9,298.1,0.0,251.0,0.0,0.02,1.0,99.0,-46.0,35.0,0.0,29.85,2735.0,,,39.0,,,,,0.0,0.0,,,,,,,,,,,,,,,,,,,0.0,87.0,0.0,0.0,29.9,0.2,,0.2,5.0,,,11.1,0.0,0.0,-0.3,14.2,11.7,,,,,113.0,93.0,123.0,104.0,114.0,98.0,119.0,101.0,,,-9.0,254.1,,5.0,3.0,4.996,,,0.653,0.869,0.0,87.3,,,,,,0.0,2026-05-01 17:06:42-07:00
23.06,1.0,9.0,2026-05-02 00:07:00,37.68874,-121.43688,187.0,0.0,38.2,-12.7,,,,,00:07:00,10.3,0.9,298.2,0.0,249.0,0.0,0.02,1.0,99.0,-75.0,35.0,0.0,29.85,2734.0,,,39.0,,,,,0.0,0.0,,,,,,,,,,,,,,,,,,,0.0,87.0,0.0,0.0,29.9,0.2,,0.2,5.0,,,11.1,0.0,0.0,-0.3,14.2,11.7,,,,,113.0,93.0,123.0,104.0,114.0,98.0,119.0,101.0,,,-9.0,254.1,,5.0,3.0,4.996,,,0.653,0.869,0.0,87.3,,,,,,0.0,2026-05-01 17:06:42-07:00
24.06,1.0,9.0,2026-05-02 00:07:01,37.68874,-121.43688,188.0,0.0,38.2,-12.7,,,,,00:07:01,10.3,0.9,298.2,0.0,249.0,0.0,0.02,1.0,99.0,-74.0,35.0,0.0,29.85,2733.0,,,39.0,,,,,0.0,0.0,,,,,,,,,,,,,,,,,,,0.0,87.0,0.0,0.0,29.9,0.1,,0.1,5.0,,,11.1,0.0,0.0,-0.3,14.2,11.7,,,,,113.0,94.0,123.0,104.0,114.0,98.0,119.0,101.0,,,-9.0,254.1,,5.0,3.0,4.996,,,0.653,0.875,0.0,87.3,,,,,,0.0,2026-05-01 17:06:42-07:00
25.06,1.0,9.0,2026-05-02 00:07:02,37.68874,-121.43688,188.0,0.0,38.2,-12.7,,,,,00:07:02,10.3,1.0,298.2,0.0,248.0,0.1,0.02,1.0,99.0,-43.0,35.0,0.0,29.85,2733.0,,,39.0,,,,,0.0,0.0,,,,,,,,,,,,,,,,,,,0.0,87.0,0.0,0.0,29.9,0.1,,0.1,5.0,,,11.1,0.0,0.0,-0.3,14.2,11.7,,,,,113.0,94.0,123.0,104.0,114.0,98.0,119.0,101.0,,,-9.0,254.1,,5.0,3.0,4.996,,,0.653,0.878,0.0,87.3,,,,,,0.0,2026-05-01 17:06:42-07:00
26.06,1.0,9.0,2026-05-02 00:07:03,37.68874,-121.43688,189.0,0.0,38.2,-12.7,,,,,00:07:03,10.4,0.9,298.2,0.0,248.0,0.0,0.02,1.0,99.0,-37.0,35.0,0.0,29.85,2733.0,,,39.0,,,,,0.0,0.0,,,,,,,,,,,,,,,,,,,0.0,87.0,0.0,0.0,29.9,0.1,,0.1,5.0,,,11.1,0.0,0.0,-0.3,14.2,11.7,,,,,113.0,94.0,123.0,104.0,114.0,98.0,119.0,101.0,,,-9.0,254.1,,5.0,3.0,4.996,,,0.653,0.878,0.0,87.3,,,,,,0.0,2026-05-01 17:06:42-07:00
27.06,1.0,9.0,2026-05-02 00:07:04,37.68875,-121.43688,189.0,0.0,38.2,-12.7,,,,,00:07:04,10.3,0.9,298.2,0.0,248.0,0.0,0.02,1.0,99.0,-36.0,35.0,0.0,29.85,2733.0,,,39.0,,,,,0.0,0.0,,,,,,,,,,,,,,,,,,,0.0,87.0,0.0,0.0,29.9,0.1,,0.1,5.0,,,11.1,0.0,0.0,-0.3,14.2,11.7,,,,,113.0,94.0,123.0,104.0,114.0,98.0,118.0,101.0,,,-9.0,254.1,,5.0,3.0,4.996,,,0.653,0.878,0.0,87.3,,,,,,0.0,2026-05-01 17:06:42-07:00
28.06,1.0,9.0,2026-05-02 00:07:05,37.68875,-121.43688,190.0,0.0,38.2,-12.7,,,,,00:07:05,10.3,1.0,298.2,0.0,248.0,0.0,0.02,1.0,99.0,-18.0,35.0,0.0,29.85,2733.0,,,39.0,,,,,0.0,0.0,,,,,,,,,,,,,,,,,,,0.0,87.0,0.0,0.0,29.9,0.1,,0.1,5.0,,,11.1,0.0,0.0,-0.3,14.2,11.7,,,,,113.0,94.0,123.0,104.0,114.0,98.0,118.0,101.0,,,-9.0,254.1,,5.0,3.0,4.996,,,0.653,0.874,0.0,87.3,,,,,,0.0,2026-05-01 17:06:42-07:00
29.06,1.0,9.0,2026-05-02 00:07:06,37.68875,-121.43688,190.0,0.0,38.2,-12.7,,,,,00:07:06,10.3,1.0,298.2,0.0,247.0,0.0,0.02,1.0,99.0,-1.0,35.0,0.0,29.85,2733.0,,,39.0,,,,,0.0,0.0,,,,,,,,,,,,,,,,,,,0.0,87.0,0.0,0.0,29.9,0.1,,0.1,5.0,,,11.1,0.0,0.0,-0.3,14.2,11.7,,,,,113.0,94.0,123.0,104.0,114.0,99.0,119.0,101.0,,,-9.0,254.1,,5.0,3.0,4.996,,,0.653,0.874,0.0,87.3,,,,,,0.0,2026-05-01 17:06:42-07:00
30.06,1.0,9.0,2026-05-02 00:07:07,37.68875,-121.43688,190.0,0.0,38.2,-12.7,,,,,00:07:07,10.3,1.0,298.2,0.0,247.0,0.0,0.02,1.0,99.0,-14.0,35.0,0.0,29.85,2732.0,,,39.0,,,,,0.0,0.0,,,,,,,,,,,,,,,,,,,0.0,87.0,0.0,0.0,29.9,0.1,,0.1,5.0,,,11.1,0.0,0.0,-0.3,14.2,11.7,,,,,113.0,94.0,123.0,104.0,113.0,99.0,119.0,101.0,,,-9.0,254.1,,5.0,3.0,4.998,,,0.653,0.874,0.0,87.3,,,,,,0.0,2026-05-01 17:06:42-07:00
31.06,1.0,9.0,2026-05-02 00:07:08,37.68875,-121.43688,191.0,0.0,38.2,-12.7,,,,,00:07:08,10.4,1.0,298.3,0.0,247.0,0.1,0.02,1.0,99.0,-21.0,35.0,0.0,29.85,2732.0,,,39.0,,,,,0.0,0.0,,,,,,,,,,,,,,,,,,,0.0,87.0,0.0,0.0,29.9,0.1,,0.1,5.0,,,11.1,0.0,0.0,-0.3,14.2,11.7,,,,,113.0,94.0,123.0,104.0,113.0,99.0,119.0,101.0,,,-9.0,254.1,,5.0,3.0,4.996,,,0.653,0.874,0.0,87.3,,,,,,0.0,2026-05-01 17:06:42-07:00
32.06,1.0,9.0,2026-05-02 00:07:09,37.68875,-121.43688,191.0,0.0,38.2,-12.7,,,,,00:07:09,10.4,1.0,298.3,0.0,246.0,0.0,0.02,1.0,99.0,-35.0,35.0,0.0,29.85,2732.0,,,39.0,,,,,0.0,0.0,,,,,,,,,,,,,,,,,,,0.0,87.0,0.0,0.0,29.9,0.1,,0.1,5.0,,,11.1,0.0,0.0,-0.3,14.2,11.7,,,,,113.0,94.0,123.0,104.0,113.0,99.0,118.0,101.0,,,-9.0,254.1,,5.0,3.0,4.996,,,0.653,0.874,0.0,87.3,,,,,,0.0,2026-05-01 17:06:42-07:00
33.06,1.0,9.0,2026-05-02 00:07:10,37.68875,-121.43688,191.0,0.0,38.2,-12.7,,,,,00:07:10,10.4,1.0,298.3,0.0,245.0,0.0,0.02,1.0,99.0,-28.0,35.0,0.0,29.85,2731.0,,,39.0,,,,,0.0,0.0,,,,,,,,,,,,,,,,,,,0.0,87.0,0.0,0.0,29.9,0.1,,0.1,5.0,,,11.1,0.0,0.0,-0.3,14.2,11.7,,,,,113.0,94.0,123.0,104.0,113.0,99.0,118.0,101.0,,,-9.0,254.1,,5.0,3.0,4.996,,,0.653,0.874,0.0,87.3,,,,,,0.0,2026-05-01 17:06:42-07:00
34.06,1.0,9.0,2026-05-02 00:07:11,37.68875,-121.43688,192.0,0.0,38.2,-12.7,,,,,00:07:11,10.4,1.0,298.3,0.0,245.0,-0.0,0.02,1.0,99.0,-26.0,35.0,0.0,29.85,2731.0,,,39.0,,,,,0.0,0.0,,,,,,,,,,,,,,,,,,,0.0,87.0,0.0,0.0,29.9,0.1,,0.1,5.0,,,11.1,0.0,0.0,-0.3,14.2,11.7,,,,,113.0,94.0,123.0,104.0,113.0,99.0,118.0,101.0,,,-9.0,254.1,,5.0,3.0,4.996,,,0.653,0.874,0.0,87.3,,,,,,0.0,2026-05-01 17:06:42-07:00
35.06,1.0,9.0,2026-05-02 00:07:12,37.68876,-121.43688,191.0,0.0,38.2,-12.7,,,,,00:07:12,10.4,0.9,298.3,0.0,245.0,-0.0,0.02,1.0,99.0,-25.0,35.0,0.0,29.85,2731.0,,,39.0,,,,,0.0,0.0,,,,,,,,,,,,,,,,,,,0.0,87.0,0.0,0.0,29.9,0.1,,0.1,5.0,,,11.1,0.0,0.0,-0.3,14.2,11.7,,,,,113.0,94.0,123.0,104.0,113.0,99.0,118.0,101.0,,,-9.0,254.1,,5.0,3.0,4.996,,,0.653,0.873,0.0,87.3,,,,,,0.0,2026-05-01 17:06:42-07:00
36.06,1.0,9.0,2026-05-02 00:07:13,37.68876,-121.43688,191.0,0.0,38.2,-12.7,,,,,00:07:13,10.4,1.0,298.3,0.0,244.0,-0.0,0.02,1.0,99.0,-27.0,35.0,0.0,29.85,2729.0,,,39.0,,,,,0.0,0.0,,,,,,,,,,,,,,,,,,,0.0,87.0,0.0,0.0,29.9,0.2,,0.2,5.0,,,11.1,0.0,0.0,-0.3,14.2,11.7,,,,,113.0,94.0,123.0,104.0,113.0,99.0,118.0,101.0,,,-9.0,254.1,,5.0,3.0,4.996,,,0.653,0.874,0.0,87.3,,,,,,0.0,2026-05-01 17:06:42-07:00
37.06,1.0,9.0,2026-05-02 00:07:14,37.68876,-121.43688,191.0,0.0,38.2,-12.7,,,,,00:07:14,10.4,0.9,298.3,0.0,244.0,0.0,0.02,1.0,99.0,-34.0,35.0,0.0,29.85,2729.0,,,39.0,,,,,0.0,0.0,,,,,,,,,,,,,,,,,,,0.0,87.0,0.0,0.0,29.9,0.2,,0.2,5.0,,,11.1,0.0,0.0,-0.3,14.2,11.7,,,,,113.0,94.0,123.0,104.0,113.0,99.0,118.0,101.0,,,-9.0,254.1,,5.0,3.0,4.996,,,0.653,0.873,0.0,87.3,,,,,,0.0,2026-05-01 17:06:42-07:00
38.06,1.0,9.0,2026-05-02 00:07:15,37.68876,-121.43688,191.0,0.0,38.2,-12.7,,,,,00:07:15,10.4,0.9,298.3,0.0,244.0,0.0,0.02,1.0,99.0,-38.0,35.0,0.0,29.85,2729.0,,,39.0,,,,,0.0,0.0,,,,,,,,,,,,,,,,,,,0.0,87.0,0.0,0.0,29.9,0.2,,0.2,5.0,,,11.1,0.0,0.0,-0.3,14.2,11.7,,,,,112.0,94.0,122.0,104.0,113.0,99.0,118.0,101.0,,,-9.0,254.1,,5.0,3.0,4.998,,,0.654,0.874,0.0,87.3,,,,,,0.0,2026-05-01 17:06:42-07:00
39.06,1.0,9.0,2026-05-02 00:07:16,37.68876,-121.43688,191.0,0.0,38.2,-12.7,,,,,00:07:16,10.4,1.0,298.3,0.0,242.0,0.0,0.02,1.0,99.0,-38.0,36.0,0.0,29.85,2729.0,,,39.0,,,,,0.0,0.0,,,,,,,,,,,,,,,,,,,0.0,87.0,0.0,0.0,29.9,0.2,,0.2,5.0,,,11.1,0.0,0.0,-0.3,14.2,11.7,,,,,112.0,94.0,122.0,104.0,113.0,99.0,118.0,101.0,,,-9.0,254.1,,5.0,3.0,4.996,,,0.653,0.874,0.0,87.3,,,,,,0.0,2026-05-01 17:06:42-07:00
40.06,1.0,9.0,2026-05-02 00:07:17,37.68876,-121.43687,192.0,0.0,38.2,-12.7,,,,,00:07:17,10.4,0.9,298.3,0.0,240.0,0.0,0.02,1.0,99.0,-57.0,35.0,0.0,29.85,2729.0,,,39.0,,,,,0.0,0.0,,,,,,,,,,,,,,,,,,,0.0,87.0,0.0,0.0,29.9,0.2,,0.2,5.0,,,11.1,0.0,0.0,-0.3,14.2,11.7,,,,,112.0,94.0,122.0,104.0,113.0,99.0,118.0,101.0,,,-9.0,231.6,,5.0,3.0,4.996,,,0.653,0.873,0.0,87.3,,,,,,0.0,2026-05-01 17:06:42-07:00
41.06,1.0,9.0,2026-05-02 00:07:18,37.68876,-121.43687,192.0,0.0,38.2,-12.7,,,,,00:07:18,10.4,1.0,298.4,0.0,240.0,0.0,0.02,1.0,99.0,-66.0,36.0,0.0,29.85,2729.0,,,39.0,,,,,0.0,0.0,,,,,,,,,,,,,,,,,,,0.0,87.0,0.0,0.0,29.9,0.2,,0.2,5.0,,,11.1,0.0,0.0,-0.3,14.2,11.7,,,,,112.0,94.0,122.0,104.0,113.0,99.0,118.0,101.0,,,-9.0,180.3,,5.0,3.0,4.996,,,0.653,0.874,0.0,87.3,,,,,,0.0,2026-05-01 17:06:42-07:00
42.06,1.0,9.0,2026-05-02 00:07:19,37.68876,-121.43687,192.0,0.0,38.2,-12.7,,,,,00:07:19,10.4,1.0,298.4,0.0,240.0,0.0,0.02,1.0,99.0,-35.0,36.0,0.0,29.85,2732.0,,,39.0,,,,,0.0,0.0,,,,,,,,,,,,,,,,,,,0.0,87.0,0.0,0.0,29.9,0.2,,0.2,5.0,,,11.1,0.0,0.0,-0.3,14.2,11.7,,,,,112.0,94.0,122.0,104.0,113.0,99.0,118.0,101.0,,,-9.0,140.3,,5.0,3.0,4.996,,,0.653,0.874,0.0,87.3,,,,,,0.0,2026-05-01 17:06:42-07:00
43.06,1.0,9.0,2026-05-02 00:07:20,37.68876,-121.43687,192.0,0.0,38.2,-12.7,,,,,00:07:20,10.3,1.0,298.4,0.0,239.0,0.0,0.02,1.0,99.0,-62.0,36.0,0.0,29.85,2732.0,,,39.0,,,,,0.0,0.0,,,,,,,,,,,,,,,,,,,0.0,87.0,0.0,0.0,29.9,0.2,,0.2,5.0,,,11.1,0.0,0.0,-0.3,14.2,11.7,,,,,112.0,94.0,122.0,104.0,113.0,99.0,118.0,100.0,,,-9.0,109.3,,5.0,3.0,4.996,,,0.653,0.874,0.0,87.3,,,,,,0.0,2026-05-01 17:06:42-07:00
44.06,1.0,9.0,2026-05-02 00:07:21,37.68876,-121.43687,192.0,0.0,38.2,-12.7,,,,,00:07:21,10.3,1.0,298.4,0.0,236.0,0.0,0.02,1.0,99.0,-88.0,36.0,0.0,29.85,2728.0,,,39.0,,,,,0.0,0.0,,,,,,,,,,,,,,,,,,,0.0,87.0,0.0,0.0,29.9,0.2,,0.2,5.0,,,11.1,0.0,0.0,-0.3,14.2,11.7,,,,,112.0,94.0,122.0,103.0,113.0,99.0,118.0,100.0,,,-9.0,85.2,,5.0,3.0,4.996,,,0.653,0.873,0.0,87.3,,,,,,0.0,2026-05-01 17:06:42-07:00
45.06,1.0,9.0,2026-05-02 00:07:22,37.68876,-121.43687,192.0,0.0,38.2,-12.7,,,,,00:07:22,10.3,1.0,298.4,0.0,236.0,0.0,0.02,1.0,99.0,-31.0,36.0,0.0,29.85,2728.0,,,39.0,,,,,0.0,0.0,,,,,,,,,,,,,,,,,,,0.0,87.0,0.0,0.0,29.9,0.2,,0.2,5.0,,,11.1,0.0,0.0,-0.3,14.2,11.7,,,,,112.0,94.0,122.0,104.0,113.0,99.0,118.0,101.0,,,-9.0,66.4,,5.0,3.0,4.996,,,0.653,0.874,0.0,87.3,,,,,,0.0,2026-05-01 17:06:42-07:00
46.06,1.0,9.0,2026-05-02 00:07:23,37.68875,-121.43687,192.0,0.0,38.2,-12.7,,,,,00:07:23,10.3,1.0,298.4,0.0,236.0,0.0,0.02,1.0,99.0,-51.0,36.0,0.0,29.85,2728.0,,,39.0,,,,,0.0,0.0,,,,,,,,,,,,,,,,,,,0.0,87.0,0.0,0.0,29.9,0.2,,0.2,5.0,,,11.1,0.0,0.0,-0.3,14.2,11.7,,,,,112.0,94.0,122.0,104.0,113.0,99.0,118.0,101.0,,,-9.0,51.8,,5.0,3.0,4.996,,,0.653,0.874,0.0,87.3,,,,,,0.0,2026-05-01 17:06:42-07:00
47.06,1.0,9.0,2026-05-02 00:07:24,37.68875,-121.43687,191.0,0.0,38.2,-12.7,,,,,00:07:24,10.3,1.0,298.5,0.0,235.0,0.0,0.02,1.0,99.0,-40.0,36.0,0.0,29.85,2728.0,,,39.0,,,,,0.0,0.0,,,,,,,,,,,,,,,,,,,0.0,87.0,0.0,0.0,29.9,0.2,,0.2,5.0,,,11.1,0.0,0.0,-0.3,14.2,11.7,,,,,112.0,94.0,122.0,104.0,113.0,99.0,118.0,101.0,,,-9.0,40.5,,5.0,3.0,4.996,,,0.654,0.874,0.0,87.3,,,,,,0.0,2026-05-01 17:06:42-07:00
48.06,1.0,9.0,2026-05-02 00:07:25,37.68875,-121.43687,191.0,0.0,38.2,-12.7,,,,,00:07:25,10.4,1.0,298.5,0.0,234.0,0.0,0.02,1.0,99.0,-71.0,36.0,0.0,29.85,2728.0,,,39.0,,,,,0.0,0.0,,,,,,,,,,,,,,,,,,,0.0,87.0,0.0,0.0,29.9,0.2,,0.2,5.0,,,11.1,0.0,0.0,-0.3,14.2,11.7,,,,,112.0,94.0,122.0,104.0,113.0,99.0,118.0,101.0,,,-9.0,31.7,,5.0,3.0,4.996,,,0.653,0.874,0.0,87.3,,,,,,0.0,2026-05-01 17:06:42-07:00
49.06,1.0,9.0,2026-05-02 00:07:26,37.68875,-121.43687,191.0,0.0,38.2,-12.7,,,,,00:07:26,10.4,1.1,298.5,0.0,232.0,0.0,0.02,1.0,99.0,-79.0,36.0,0.0,29.85,2728.0,,,39.0,,,,,0.0,0.0,,,,,,,,,,,,,,,,,,,0.0,87.0,0.0,0.0,29.9,0.2,,0.2,5.0,,,11.1,0.0,0.0,-0.3,14.2,11.7,,,,,112.0,94.0,122.0,104.0,113.0,99.0,118.0,101.0,,,-9.0,24.8,,5.0,3.0,4.996,,,0.653,0.875,0.0,87.3,,,,,,0.0,2026-05-01 17:06:42-07:00
50.06,1.0,9.0,2026-05-02 00:07:27,37.68875,-121.43687,191.0,0.0,38.2,-12.7,,,,,00:07:27,10.4,1.1,298.6,0.0,231.0,0.0,0.02,1.0,99.0,-60.0,36.0,0.0,29.85,2724.0,,,39.0,,,,,0.0,0.0,,,,,,,,,,,,,,,,,,,0.0,87.0,0.0,0.0,29.9,0.2,,0.2,5.0,,,11.1,0.0,0.0,-0.3,14.2,11.7,,,,,112.0,94.0,122.0,104.0,113.0,99.0,118.0,101.0,,,-9.0,19.5,,5.0,3.0,4.996,,,0.653,0.876,0.0,87.3,,,,,,0.0,2026-05-01 17:06:42-07:00
51.06,1.0,9.0,2026-05-02 00:07:28,37.68875,-121.43687,191.0,0.0,38.2,-12.7,,,,,00:07:28,10.4,1.1,298.5,0.0,231.0,0.0,0.02,1.0,99.0,-28.0,36.0,0.0,29.85,2724.0,,,39.0,,,,,0.0,0.0,,,,,,,,,,,,,,,,,,,0.0,87.0,0.0,0.0,29.9,0.2,,0.2,5.0,,,11.1,0.0,0.0,-0.3,14.2,11.7,,,,,112.0,94.0,122.0,104.0,112.0,99.0,118.0,101.0,,,-9.0,15.4,,5.0,3.0,4.996,,,0.653,0.876,0.0,87.3,,,,,,0.0,2026-05-01 17:06:42-07:00
52.06,1.0,9.0,2026-05-02 00:07:29,37.68875,-121.43687,191.0,0.0,38.2,-12.7,,,,,00:07:29,10.4,1.1,298.6,0.0,230.0,0.0,0.02,1.0,99.0,-25.0,36.0,0.0,29.85,2724.0,,,39.0,,,,,0.0,0.0,,,,,,,,,,,,,,,,,,,0.0,87.0,0.0,0.0,29.9,0.2,,0.2,5.0,,,11.1,0.0,0.0,-0.3,14.2,11.7,,,,,112.0,94.0,122.0,104.0,112.0,99.0,118.0,101.0,,,-9.0,12.2,,5.0,3.0,4.996,,,0.653,0.879,0.0,87.3,,,,,,0.0,2026-05-01 17:06:42-07:00
53.06,1.0,9.0,2026-05-02 00:07:30,37.68875,-121.43687,191.0,0.0,38.2,-12.7,,,,,00:07:30,10.3,1.1,298.6,0.0,230.0,0.0,0.02,1.0,99.0,-53.0,36.0,0.0,29.85,2725.0,,,39.0,,,,,0.0,0.0,,,,,,,,,,,,,,,,,,,0.0,87.0,0.0,0.0,29.9,0.2,,0.2,5.0,,,11.1,0.0,0.0,-0.3,14.2,11.7,,,,,112.0,94.0,122.0,104.0,112.0,99.0,118.0,101.0,,,-9.0,9.7,,5.0,3.0,4.996,,,0.653,0.879,0.0,87.3,,,,,,0.0,2026-05-01 17:06:42-07:00
54.06,1.0,9.0,2026-05-02 00:07:31,37.68875,-121.43687,191.0,0.0,38.2,-12.7,,,,,00:07:31,10.4,1.1,298.6,0.0,230.0,-0.0,0.02,1.0,99.0,-12.0,36.0,0.0,29.85,2725.0,,,39.0,,,,,0.0,0.0,,,,,,,,,,,,,,,,,,,0.0,87.0,0.0,0.0,29.9,0.2,,0.2,5.0,,,11.1,0.0,0.0,-0.3,14.2,11.7,,,,,112.0,94.0,122.0,104.0,112.0,99.0,118.0,101.0,,,-9.0,7.7,,5.0,3.0,4.996,,,0.653,0.879,0.0,87.3,,,,,,0.0,2026-05-01 17:06:42-07:00
55.06,1.0,9.0,2026-05-02 00:07:32,37.68875,-121.43687,191.0,0.0,38.2,-12.7,,,,,00:07:32,10.4,1.1,298.6,0.0,230.0,0.0,0.02,1.0,99.0,-12.0,36.0,0.0,29.85,2725.0,,,39.0,,,,,0.0,0.0,,,,,,,,,,,,,,,,,,,0.0,87.0,0.0,0.0,29.9,0.2,,0.2,5.0,,,11.1,0.0,0.0,-0.3,14.2,11.7,,,,,112.0,94.0,122.0,104.0,112.0,99.0,118.0,101.0,,,-9.0,6.2,,5.0,3.0,4.996,,,0.653,0.879,0.0,87.3,,,,,,0.0,2026-05-01 17:06:42-07:00
56.06,1.0,9.0,2026-05-02 00:07:33,37.68875,-121.43687,191.0,0.0,38.2,-12.7,,,,,00:07:33,10.3,1.1,298.6,0.0,230.0,0.0,0.02,1.0,99.0,-18.0,36.0,0.0,29.85,2732.0,,,39.0,,,,,0.0,0.0,,,,,,,,,,,,,,,,,,,0.0,87.0,0.0,0.0,29.9,0.2,,0.2,5.0,,,11.1,0.0,0.0,-0.3,14.2,11.7,,,,,112.0,94.0,122.0,104.0,112.0,99.0,118.0,101.0,,,-9.0,5.1,,5.0,3.0,4.996,,,0.653,0.879,0.0,87.3,,,,,,0.0,2026-05-01 17:06:42-07:00
57.06,1.0,9.0,2026-05-02 00:07:34,37.68875,-121.43687,191.0,0.0,38.2,-12.7,,,,,00:07:34,10.3,1.1,298.5,0.0,230.0,-0.0,0.02,1.0,99.0,-7.0,36.0,0.0,29.85,2732.0,,,39.0,,,,,0.0,0.0,,,,,,,,,,,,,,,,,,,0.0,87.0,0.0,0.0,29.9,0.2,,0.2,5.0,,,11.1,0.0,0.0,-0.3,14.2,11.7,,,,,112.0,94.0,122.0,104.0,112.0,99.0,118.0,100.0,,,-9.0,4.1,,5.0,3.0,4.996,,,0.653,0.884,0.0,87.3,,,,,,0.0,2026-05-01 17:06:42-07:00
58.06,1.0,9.0,2026-05-02 00:07:35,37.68875,-121.43687,191.0,0.0,38.2,-12.7,,,,,00:07:35,10.3,1.0,298.5,0.0,230.0,-0.0,0.02,1.0,99.0,-10.0,36.0,0.0,29.85,2732.0,,,39.0,,,,,0.0,0.0,,,,,,,,,,,,,,,,,,,0.0,87.0,0.0,0.0,29.9,0.2,,0.2,5.0,,,11.1,0.0,0.0,-0.3,14.2,11.7,,,,,112.0,94.0,122.0,104.0,112.0,99.0,118.0,100.0,,,-9.0,3.4,,5.0,3.0,4.996,,,0.653,0.885,0.0,87.3,,,,,,0.0,2026-05-01 17:06:42-07:00
59.06,1.0,9.0,2026-05-02 00:07:36,37.68875,-121.43687,190.0,0.0,38.2,-12.7,,,,,00:07:36,10.3,1.0,298.5,0.0,230.0,0.0,0.02,1.0,99.0,-5.0,36.0,0.0,29.85,2734.0,,,39.0,,,,,0.0,0.0,,,,,,,,,,,,,,,,,,,0.0,87.0,0.0,0.0,29.9,0.2,,0.2,5.0,,,11.1,0.0,0.0,-0.3,14.2,11.7,,,,,112.0,95.0,122.0,103.0,112.0,99.0,118.0,100.0,,,-9.0,2.9,,5.0,3.0,4.996,,,0.653,0.887,0.0,87.3,,,,,,0.0,2026-05-01 17:06:42-07:00
60.06,1.0,9.0,2026-05-02 00:07:37,37.68875,-121.43687,190.0,0.0,38.2,-12.7,,,,,00:07:37,10.3,1.0,298.5,0.0,230.0,0.0,0.02,1.0,99.0,2.0,36.0,0.0,29.85,2734.0,,,39.0,,,,,0.0,0.0,,,,,,,,,,,,,,,,,,,0.0,87.0,0.0,0.0,29.9,0.2,,0.2,5.1,,,11.1,0.0,0.0,-0.3,14.2,11.7,,,,,112.0,95.0,122.0,103.0,112.0,99.0,118.0,100.0,,,-9.0,2.5,,5.1,3.0,4.996,,,0.653,0.891,0.0,87.3,,,,,,0.0,2026-05-01 17:06:42-07:00
61.06,1.0,9.0,2026-05-02 00:07:38,37.68875,-121.43687,190.0,0.0,38.2,-12.7,,,,,00:07:38,10.3,1.1,298.5,0.0,230.0,0.0,0.02,1.0,99.0,25.0,36.0,0.0,29.85,2734.0,,,39.0,,,,,0.0,0.0,,,,,,,,,,,,,,,,,,,0.0,87.0,0.0,0.0,29.9,0.2,,0.2,5.1,,,11.1,0.0,0.0,-0.3,14.2,11.7,,,,,111.0,95.0,122.0,103.0,112.0,99.0,117.0,100.0,,,-9.0,2.1,,5.1,3.0,4.996,,,0.653,0.894,0.0,87.3,,,,,,0.0,2026-05-01 17:06:42-07:00
62.06,1.0,9.0,2026-05-02 00:07:39,37.68875,-121.43687,190.0,0.0,38.2,-12.7,,,,,00:07:39,10.3,1.1,298.5,0.0,230.0,0.0,0.02,1.0,99.0,17.0,36.0,0.0,29.85,2734.0,,,39.0,,,,,0.0,0.0,,,,,,,,,,,,,,,,,,,0.0,87.0,0.0,0.0,29.9,0.2,,0.2,5.1,,,11.1,0.0,0.0,-0.3,14.2,11.7,,,,,111.0,95.0,122.0,103.0,112.0,99.0,117.0,100.0,,,-9.0,1.9,,5.1,3.0,4.996,,,0.653,0.9,0.0,87.3,,,,,,0.0,2026-05-01 17:06:42-07:00
63.06,1.0,9.0,2026-05-02 00:07:40,37.68875,-121.43687,191.0,0.0,38.2,-12.7,,,,,00:07:40,10.4,1.1,298.6,0.0,230.0,0.0,0.02,1.0,99.0,28.0,36.0,0.0,29.85,2734.0,,,39.0,,,,,0.0,0.0,,,,,,,,,,,,,,,,,,,0.0,87.0,0.0,0.0,29.9,0.2,,0.2,5.1,,,11.1,0.0,0.0,-0.3,14.2,11.7,,,,,111.0,95.0,122.0,103.0,112.0,99.0,117.0,100.0,,,-9.0,1.7,,5.1,3.0,4.996,,,0.653,0.924,0.0,87.3,,,,,,0.0,2026-05-01 17:06:42-07:00
64.06,1.0,9.0,2026-05-02 00:07:41,37.68875,-121.43687,191.0,0.0,38.2,-12.7,,,,,00:07:41,10.4,1.0,298.6,0.0,230.0,0.1,0.02,1.0,99.0,45.0,36.0,0.0,29.85,2734.0,,,39.0,,,,,0.0,0.0,,,,,,,,,,,,,,,,,,,0.0,87.0,0.0,0.0,29.9,0.2,,0.2,5.1,,,11.1,0.0,0.0,-0.3,14.2,11.7,,,,,111.0,95.0,122.0,103.0,112.0,99.0,117.0,100.0,,,-9.0,1.5,,5.1,3.0,4.996,,,0.653,0.897,0.0,87.3,,,,,,0.0,2026-05-01 17:06:42-07:00
65.06,1.0,9.0,2026-05-02 00:07:42,37.68875,-121.43687,191.0,0.0,38.2,-12.7,,,,,00:07:42,10.4,1.1,298.6,0.0,230.0,0.0,0.02,1.0,99.0,46.0,36.0,0.0,29.85,2734.0,,,39.0,,,,,0.0,0.0,,,,,,,,,,,,,,,,,,,0.0,87.0,0.0,0.0,29.9,0.2,,0.2,5.1,,,11.1,0.0,0.0,-0.3,14.2,11.7,,,,,111.0,95.0,121.0,103.0,112.0,99.0,117.0,100.0,,,-9.0,1.4,,5.1,3.0,4.996,,,0.653,0.894,0.0,87.3,,,,,,0.0,2026-05-01 17:06:42-07:00
66.06,1.0,9.0,2026-05-02 00:07:43,37.68875,-121.43687,187.0,0.0,38.2,-12.7,,,,,00:07:43,10.4,1.0,298.6,0.0,230.0,0.0,0.02,1.0,99.0,52.0,36.0,0.0,29.85,2734.0,,,39.0,,,,,0.0,0.0,,,,,,,,,,,,,,,,,,,0.0,87.0,0.0,0.0,29.9,0.0,,0.0,5.1,,,42.0,0.0,0.0,-0.3,14.2,11.7,,,,,111.0,95.0,121.0,104.0,112.0,99.0,117.0,101.0,,,-9.0,1.3,,5.1,3.0,4.996,,,0.653,0.896,0.0,87.3,,,,,,0.0,2026-05-01 17:06:42-07:00
67.06,1.0,9.0,2026-05-02 00:07:44,37.68875,-121.43687,187.0,0.0,38.2,-12.7,,,,,00:07:44,10.4,1.1,298.6,0.0,230.0,0.0,0.02,1.0,99.0,32.0,36.0,0.0,29.85,2734.0,,,39.0,,,,,0.0,0.0,,,,,,,,,,,,,,,,,,,0.0,87.0,0.0,0.0,29.9,0.0,,0.0,5.1,,,42.0,0.0,0.0,-0.3,14.2,11.7,,,,,111.0,95.0,121.0,104.0,111.0,99.0,117.0,101.0,,,-9.0,1.3,,5.1,3.0,4.996,,,0.653,0.898,0.0,87.3,,,,,,0.0,2026-05-01 17:06:42-07:00
68.06,1.0,9.0,2026-05-02 00:07:45,37.68875,-121.43687,187.0,0.0,38.2,-12.7,,,,,00:07:45,10.4,1.1,298.6,0.0,230.0,0.0,0.02,1.0,99.0,54.0,36.0,0.0,29.85,2734.0,,,39.0,,,,,0.0,0.0,,,,,,,,,,,,,,,,,,,0.0,87.0,0.0,0.0,29.9,0.0,,0.0,5.1,,,42.0,0.0,0.0,-0.3,14.2,11.7,,,,,111.0,95.0,121.0,104.0,111.0,99.0,117.0,101.0,,,-9.0,1.2,,5.1,3.0,4.996,,,0.653,0.909,0.0,87.3,,,,,,0.0,2026-05-01 17:06:42-07:00
69.06,1.0,9.0,2026-05-02 00:07:46,37.68876,-121.43687,187.0,0.0,38.2,-12.7,,,,,00:07:46,10.4,1.1,298.6,0.0,230.0,-0.0,0.02,1.0,99.0,22.0,36.0,0.0,29.85,2734.0,,,39.0,,,,,0.0,0.0,,,,,,,,,,,,,,,,,,,0.0,87.0,0.0,0.0,29.9,0.0,,0.0,5.1,,,42.0,0.0,0.0,-0.3,14.2,11.7,,,,,111.0,95.0,121.0,104.0,111.0,99.0,117.0,101.0,,,-9.0,1.1,,5.1,3.0,4.996,,,0.653,0.895,0.0,87.3,,,,,,0.0,2026-05-01 17:06:42-07:00
70.06,1.0,9.0,2026-05-02 00:07:47,37.68876,-121.43687,188.0,0.0,38.2,-12.7,,,,,00:07:47,10.4,1.1,298.6,0.0,230.0,0.0,0.02,1.0,99.0,15.0,36.0,0.0,29.85,2734.0,,,39.0,,,,,0.0,0.0,,,,,,,,,,,,,,,,,,,0.0,87.0,0.0,0.0,29.9,0.0,,0.0,5.1,,,42.0,0.0,0.0,-0.3,14.2,11.7,,,,,111.0,95.0,121.0,104.0,111.0,99.0,117.0,101.0,,,-9.0,1.1,,5.1,3.0,4.996,,,0.653,0.894,0.0,87.3,,,,,,0.0,2026-05-01 17:06:42-07:00
71.06,1.0,9.0,2026-05-02 00:07:48,37.68876,-121.43687,191.0,0.0,38.2,-12.7,,,,,00:07:48,10.4,1.0,298.6,0.0,230.0,0.0,0.02,1.0,99.0,12.0,36.0,0.0,29.85,2734.0,,,39.0,,,,,0.0,0.0,,,,,,,,,,,,,,,,,,,0.0,87.0,0.0,0.0,29.9,0.0,,0.0,5.1,,,42.0,0.0,0.0,-0.3,14.2,11.7,,,,,111.0,95.0,121.0,104.0,111.0,99.0,117.0,101.0,,,-9.0,1.1,,5.1,3.0,4.996,,,0.653,0.897,0.0,87.3,,,,,,0.0,2026-05-01 17:06:42-07:00
72.06,1.0,9.0,2026-05-02 00:07:49,37.68876,-121.43687,191.0,0.0,38.2,-12.7,,,,,00:07:49,10.4,1.0,298.6,0.0,230.0,0.0,0.02,1.0,99.0,32.0,36.0,0.0,29.85,2736.0,,,39.0,,,,,0.0,0.0,,,,,,,,,,,,,,,,,,,0.0,87.0,0.0,0.0,29.9,0.0,,0.0,5.1,,,42.0,0.0,0.0,-0.3,14.2,11.7,,,,,111.0,95.0,121.0,103.0,111.0,99.0,117.0,101.0,,,-9.0,1.0,,5.1,3.0,4.996,,,0.653,0.901,0.0,87.3,,,,,,0.0,2026-05-01 17:06:42-07:00
73.06,1.0,9.0,2026-05-02 00:07:50,37.68876,-121.43687,191.0,0.0,38.2,-12.7,,,,,00:07:50,10.4,1.1,298.6,0.0,230.0,0.0,0.02,1.0,99.0,15.0,36.0,0.0,29.85,2736.0,,,39.0,,,,,0.0,0.0,,,,,,,,,,,,,,,,,,,0.0,87.0,0.0,0.0,29.9,0.0,,0.0,5.1,,,42.0,0.0,0.0,-0.3,14.2,11.7,,,,,111.0,95.0,121.0,103.0,111.0,99.0,117.0,101.0,,,-9.0,1.0,,5.1,3.0,4.996,,,0.653,0.907,0.0,87.3,,,,,,0.0,2026-05-01 17:06:42-07:00
74.06,1.0,9.0,2026-05-02 00:07:51,37.68876,-121.43687,191.0,0.0,38.2,-12.7,,,,,00:07:51,10.5,1.0,298.6,0.0,230.0,-0.0,0.02,1.0,99.0,19.0,36.0,0.0,29.85,2736.0,,,39.0,,,,,0.0,0.0,,,,,,,,,,,,,,,,,,,0.0,87.0,0.0,0.0,29.9,0.0,,0.0,5.1,,,42.0,0.0,0.0,-0.3,14.2,11.7,,,,,111.0,95.0,121.0,103.0,111.0,99.0,117.0,100.0,,,-9.0,1.0,,5.1,3.0,4.996,,,0.653,0.907,0.0,87.3,,,,,,0.0,2026-05-01 17:06:42-07:00
75.06,1.0,9.0,2026-05-02 00:07:52,37.68876,-121.43687,191.0,0.0,38.2,-12.7,,,,,00:07:52,10.5,1.0,298.6,0.0,230.0,0.0,0.02,1.0,99.0,28.0,36.0,0.0,29.85,2736.0,,,39.0,,,,,0.0,0.0,,,,,,,,,,,,,,,,,,,0.0,87.0,0.0,0.0,29.9,0.0,,0.0,5.1,,,42.0,0.0,0.0,-0.3,14.2,11.7,,,,,111.0,95.0,121.0,103.0,111.0,99.0,117.0,100.0,,,-9.0,1.0,,5.1,3.0,4.996,,,0.653,0.901,0.0,87.3,,,,,,0.0,2026-05-01 17:06:42-07:00
76.06,1.0,9.0,2026-05-02 00:07:53,37.68877,-121.43687,191.0,0.0,38.2,-12.7,,,,,00:07:53,10.5,1.0,298.6,0.0,230.0,-0.0,0.02,1.0,99.0,25.0,36.0,0.0,29.85,2736.0,,,39.0,,,,,0.0,0.0,,,,,,,,,,,,,,,,,,,0.0,87.0,0.0,0.0,29.9,0.0,,0.0,5.1,,,42.0,0.0,0.0,-0.4,14.2,11.7,,,,,111.0,95.0,121.0,103.0,111.0,99.0,117.0,100.0,,,-9.0,1.0,,5.1,3.0,4.996,,,0.653,0.884,0.0,87.3,,,,,,0.0,2026-05-01 17:06:42-07:00
77.06,1.0,9.0,2026-05-02 00:07:54,37.68877,-121.43687,191.0,0.0,38.2,-12.7,,,,,00:07:54,10.5,1.1,298.6,0.0,230.0,-0.0,0.02,1.0,99.0,-15.0,36.0,0.0,29.85,2736.0,,,39.0,,,,,0.0,0.0,,,,,,,,,,,,,,,,,,,0.0,87.0,0.0,0.0,29.9,0.0,,0.0,5.1,,,42.0,0.0,0.0,-0.4,14.2,11.7,,,,,111.0,95.0,121.0,103.0,111.0,99.0,117.0,100.0,,,-9.0,1.0,,5.1,3.0,4.996,,,0.653,0.883,0.0,87.3,,,,,,0.0,2026-05-01 17:06:42-07:00
78.06,1.0,9.0,2026-05-02 00:07:55,37.68877,-121.43687,191.0,0.0,38.2,-12.7,,,,,00:07:55,10.5,1.0,298.7,0.0,230.0,0.0,0.02,1.0,99.0,4.0,36.0,0.0,29.85,2743.0,,,39.0,,,,,0.0,0.0,,,,,,,,,,,,,,,,,,,0.0,87.0,0.0,0.0,29.9,0.0,,0.0,5.1,,,42.0,0.0,0.0,-0.4,14.2,11.7,,,,,111.0,95.0,121.0,103.0,111.0,99.0,117.0,100.0,,,-9.0,1.0,,5.1,3.0,4.996,,,0.653,0.883,0.0,87.3,,,,,,0.0,2026-05-01 17:06:42-07:00
79.06,1.0,9.0,2026-05-02 00:07:56,37.68877,-121.43687,191.0,0.0,38.2,-12.7,,,,,00:07:56,10.5,1.0,298.7,0.0,230.0,0.0,0.02,1.0,99.0,-9.0,36.0,0.0,29.85,2743.0,,,39.0,,,,,0.0,0.0,,,,,,,,,,,,,,,,,,,0.0,87.0,0.0,0.0,29.9,0.0,,0.0,5.1,,,42.0,0.0,0.0,-0.4,14.2,11.7,,,,,111.0,95.0,121.0,103.0,111.0,99.0,117.0,100.0,,,-9.0,1.0,,5.1,3.0,4.996,,,0.653,0.883,0.0,87.3,,,,,,0.0,2026-05-01 17:06:42-07:00
80.06,1.0,9.0,2026-05-02 00:07:57,37.68877,-121.43687,191.0,0.0,38.2,-12.7,,,,,00:07:57,10.5,1.0,298.7,0.0,230.0,0.0,0.02,1.0,99.0,-48.0,36.0,0.0,29.85,2743.0,,,39.0,,,,,0.0,0.0,,,,,,,,,,,,,,,,,,,0.0,87.0,0.0,0.0,29.9,0.0,,0.0,5.1,,,42.0,0.0,0.0,-0.4,14.2,11.7,,,,,111.0,95.0,121.0,103.0,111.0,99.0,116.0,100.0,,,-9.0,1.0,,5.1,3.0,4.996,,,0.653,0.885,0.0,87.3,,,,,,0.0,2026-05-01 17:06:42-07:00
81.06,1.0,9.0,2026-05-02 00:07:58,37.68877,-121.43687,190.0,0.0,38.2,-12.7,,,,,00:07:58,10.5,1.1,298.7,0.0,230.0,-0.0,0.02,1.0,99.0,-45.0,36.0,0.0,29.85,2745.0,,,39.0,,,,,0.0,0.0,,,,,,,,,,,,,,,,,,,0.0,87.0,0.0,0.0,29.9,0.1,,0.1,5.1,,,42.0,0.0,0.0,-0.4,14.2,11.7,,,,,111.0,95.0,121.0,103.0,111.0,99.0,117.0,101.0,,,-9.0,1.0,,5.1,3.0,4.996,,,0.653,0.889,0.0,87.3,,,,,,0.0,2026-05-01 17:06:42-07:00
82.06,1.0,9.0,2026-05-02 00:07:59,37.68877,-121.43687,190.0,0.0,38.2,-12.7,,,,,00:07:59,10.5,1.1,298.7,0.0,230.0,0.0,0.02,1.0,99.0,-17.0,36.0,0.0,29.85,2745.0,,,39.0,,,,,0.0,0.0,,,,,,,,,,,,,,,,,,,0.0,87.0,0.0,0.0,29.9,0.1,,0.1,5.1,,,42.0,0.0,0.0,-0.4,14.2,11.7,,,,,111.0,95.0,121.0,103.0,111.0,99.0,117.0,101.0,,,-9.0,1.0,,5.1,3.0,4.996,,,0.653,0.906,0.0,87.3,,,,,,0.0,2026-05-01 17:06:42-07:00
83.06,1.0,9.0,2026-05-02 00:08:00,37.68877,-121.43687,190.0,0.0,38.2,-12.7,,,,,00:08:00,10.5,1.1,298.7,0.0,230.0,0.0,0.02,1.0,99.0,-7.0,36.0,0.0,29.85,2745.0,,,39.0,,,,,0.0,0.0,,,,,,,,,,,,,,,,,,,0.0,87.0,0.0,0.0,29.9,0.1,,0.1,5.1,,,42.0,0.0,0.0,-0.4,14.2,11.7,,,,,111.0,95.0,121.0,103.0,111.0,99.0,116.0,101.0,,,-9.0,1.0,,5.1,3.0,4.996,,,0.653,0.886,0.0,87.3,,,,,,0.0,2026-05-01 17:06:42-07:00
84.06,1.0,9.0,2026-05-02 00:08:01,37.68877,-121.43687,190.0,0.0,38.2,-12.7,,,,,00:08:01,10.5,1.1,298.7,0.0,230.0,0.0,0.02,1.0,99.0,-28.0,36.0,0.0,29.85,2745.0,,,39.0,,,,,0.0,0.0,,,,,,,,,,,,,,,,,,,0.0,87.0,0.0,0.0,29.9,0.1,,0.1,5.1,,,42.0,0.0,0.0,-0.4,14.2,11.7,,,,,110.0,95.0,121.0,103.0,111.0,99.0,116.0,101.0,,,-9.0,1.0,,5.1,3.0,4.996,,,0.653,0.894,0.0,87.3,,,,,,0.0,2026-05-01 17:06:42-07:00
85.06,1.0,9.0,2026-05-02 00:08:02,37.68877,-121.43687,189.0,0.0,38.2,-12.7,,,,,00:08:02,10.5,1.1,298.8,0.0,230.0,0.0,0.02,0.9,99.0,-11.0,36.0,0.0,29.85,2745.0,,,39.0,,,,,0.0,0.0,,,,,,,,,,,,,,,,,,,0.0,87.0,0.0,0.0,29.9,0.1,,0.1,5.1,,,42.0,0.0,0.0,-0.4,14.2,11.7,,,,,110.0,95.0,121.0,103.0,111.0,99.0,116.0,101.0,,,-9.0,0.0,,5.1,3.0,4.996,,,0.653,0.929,0.0,87.3,,,,,,0.0,2026-05-01 17:06:42-07:00
86.06,1.0,9.0,2026-05-02 00:08:03,37.68877,-121.43687,189.0,0.0,38.2,-12.7,,,,,00:08:03,10.5,1.1,298.8,0.0,230.0,0.0,0.02,1.0,99.0,-13.0,36.0,0.0,29.85,2745.0,,,39.0,,,,,0.0,0.0,,,,,,,,,,,,,,,,,,,0.0,87.0,0.0,0.0,29.9,0.1,,0.1,5.1,,,42.0,0.0,0.0,-0.4,14.2,11.7,,,,,110.0,95.0,121.0,103.0,111.0,99.0,116.0,101.0,,,-9.0,0.0,,5.1,3.0,4.996,,,0.653,0.944,0.0,87.3,,,,,,0.0,2026-05-01 17:06:42-07:00
87.06,1.0,9.0,2026-05-02 00:08:04,37.68877,-121.43687,189.0,0.0,38.2,-12.7,,,,,00:08:04,10.5,1.1,298.8,0.0,230.0,0.0,0.02,1.0,99.0,32.0,36.0,0.0,29.85,2745.0,,,39.0,,,,,0.0,0.0,,,,,,,,,,,,,,,,,,,0.0,87.0,0.0,0.0,29.9,0.1,,0.1,5.1,,,42.0,0.0,0.0,-0.4,14.2,11.7,,,,,110.0,95.0,121.0,103.0,111.0,99.0,116.0,101.0,,,-9.0,0.0,,5.1,3.0,4.996,,,0.653,0.913,0.0,87.3,,,,,,0.0,2026-05-01 17:06:42-07:00
88.06,1.0,9.0,2026-05-02 00:08:05,37.68877,-121.43687,189.0,0.0,38.2,-12.7,,,,,00:08:05,10.5,1.1,298.7,0.0,230.0,-0.0,0.02,1.0,99.0,-23.0,36.0,0.0,29.85,2745.0,,,39.0,,,,,0.0,0.0,,,,,,,,,,,,,,,,,,,0.0,87.0,0.0,0.0,29.9,0.1,,0.1,5.1,,,42.0,0.0,0.0,-0.4,14.2,11.7,,,,,110.0,95.0,120.0,104.0,110.0,99.0,116.0,101.0,,,-9.0,0.0,,5.1,3.0,4.996,,,0.653,0.9,0.0,87.3,,,,,,0.0,2026-05-01 17:06:42-07:00
89.06,1.0,9.0,2026-05-02 00:08:06,37.68877,-121.43687,188.0,0.0,38.2,-12.7,,,,,00:08:06,10.5,1.1,298.7,0.0,230.0,0.0,0.02,1.0,99.0,-25.0,36.0,0.0,29.85,2748.0,,,39.0,,,,,0.0,0.0,,,,,,,,,,,,,,,,,,,0.0,87.0,0.0,0.0,29.9,0.1,,0.1,5.1,,,42.0,0.0,0.0,-0.4,14.2,11.7,,,,,110.0,95.0,120.0,104.0,110.0,99.0,116.0,101.0,,,-9.0,0.0,,5.1,3.0,4.996,,,0.653,0.9,0.0,87.3,,,,,,0.0,2026-05-01 17:06:42-07:00
90.06,1.0,9.0,2026-05-02 00:08:07,37.68877,-121.43687,188.0,0.0,38.2,-12.7,,,,,00:08:07,10.5,1.1,298.8,0.0,230.0,0.0,0.02,1.0,99.0,-26.0,36.0,0.0,29.85,2748.0,,,39.0,,,,,0.0,0.0,,,,,,,,,,,,,,,,,,,0.0,87.0,0.0,0.0,29.9,0.1,,0.1,5.1,,,42.0,0.0,0.0,-0.4,14.2,11.7,,,,,110.0,95.0,120.0,104.0,110.0,99.0,116.0,101.0,,,-9.0,0.0,,5.1,3.0,4.996,,,0.653,0.897,0.0,87.2,,,,,,0.0,2026-05-01 17:06:42-07:00
91.06,1.0,9.0,2026-05-02 00:08:08,37.68877,-121.43687,188.0,0.0,38.2,-12.7,,,,,00:08:08,10.5,1.0,298.7,0.0,230.0,0.0,0.02,1.0,99.0,-42.0,36.0,0.0,29.85,2748.0,,,39.0,,,,,0.0,0.0,,,,,,,,,,,,,,,,,,,0.0,87.0,0.0,0.0,29.9,0.1,,0.1,5.1,,,42.0,0.0,0.0,-0.4,14.2,11.7,,,,,110.0,95.0,120.0,104.0,110.0,99.0,116.0,101.0,,,-9.0,0.0,,5.1,3.0,4.996,,,0.653,0.889,0.0,87.2,,,,,,0.0,2026-05-01 17:06:42-07:00
92.06,1.0,9.0,2026-05-02 00:08:09,37.68876,-121.43687,187.0,0.0,38.2,-12.7,,,,,00:08:09,10.5,1.1,298.7,0.0,230.0,0.0,0.02,1.0,99.0,-8.0,36.0,0.0,29.85,2745.0,,,39.0,,,,,0.0,0.0,,,,,,,,,,,,,,,,,,,0.0,87.0,0.0,0.0,29.9,0.1,,0.1,5.1,,,42.0,0.0,0.0,-0.4,14.2,11.7,,,,,110.0,95.0,120.0,104.0,110.0,99.0,116.0,101.0,,,-9.0,0.0,,5.1,3.0,4.996,,,0.653,0.886,0.0,87.3,,,,,,0.0,2026-05-01 17:06:42-07:00
93.06,1.0,9.0,2026-05-02 00:08:10,37.68876,-121.43687,187.0,0.0,38.2,-12.7,,,,,00:08:10,10.5,1.1,298.7,0.0,230.0,0.0,0.02,1.0,99.0,-5.0,36.0,0.0,29.85,2748.0,,,39.0,,,,,0.0,0.0,,,,,,,,,,,,,,,,,,,0.0,87.0,0.0,0.0,29.9,0.5,,0.5,5.1,,,42.0,0.0,0.0,-0.4,14.2,11.7,,,,,110.0,95.0,120.0,104.0,110.0,99.0,116.0,101.0,,,-9.0,0.0,,5.1,3.0,4.996,,,0.653,0.883,0.0,87.2,,,,,,0.0,2026-05-01 17:06:42-07:00
94.06,1.0,9.0,2026-05-02 00:08:11,37.68876,-121.43687,186.0,0.0,38.2,-12.7,,,,,00:08:11,10.5,1.0,298.7,0.0,230.0,0.0,0.02,1.0,99.0,2.0,36.0,0.0,29.85,2748.0,,,39.0,,,,,0.0,0.0,,,,,,,,,,,,,,,,,,,0.0,87.0,0.0,0.0,29.9,0.6,,0.6,5.1,,,42.0,0.0,0.0,-0.4,14.2,11.7,,,,,110.0,95.0,120.0,103.0,110.0,99.0,116.0,101.0,,,-9.0,0.0,,5.1,3.0,4.996,,,0.653,0.881,0.0,87.3,,,,,,0.0,2026-05-01 17:06:42-07:00
95.06,1.0,9.0,2026-05-02 00:08:12,37.68876,-121.43687,186.0,0.0,38.2,-12.7,,,,,00:08:12,10.5,1.0,298.7,0.0,230.0,0.0,0.02,1.0,99.0,2.0,36.0,0.0,29.85,2748.0,,,39.0,,,,,0.0,0.0,,,,,,,,,,,,,,,,,,,0.0,87.0,0.0,0.0,29.9,0.6,,0.6,5.1,,,42.0,0.0,0.0,-0.4,14.2,11.7,,,,,110.0,95.0,120.0,103.0,110.0,99.0,116.0,101.0,,,-9.0,0.0,,5.1,3.0,4.996,,,0.653,0.883,0.0,87.3,,,,,,0.0,2026-05-01 17:06:42-07:00
96.06,1.0,9.0,2026-05-02 00:08:13,37.68877,-121.43687,185.0,0.0,38.2,-12.7,,,,,00:08:13,10.5,1.0,298.7,0.0,230.0,0.0,0.02,1.0,99.0,22.0,36.0,0.0,29.85,2755.0,,,39.0,,,,,0.0,0.0,,,,,,,,,,,,,,,,,,,0.0,87.0,0.0,0.0,29.9,0.7,,0.7,5.1,,,42.0,0.0,0.0,-0.4,14.2,11.7,,,,,110.0,95.0,120.0,103.0,110.0,99.0,116.0,100.0,,,-9.0,0.0,,5.1,3.0,4.996,,,0.653,0.883,0.0,87.2,,,,,,0.0,2026-05-01 17:06:42-07:00
97.06,1.0,9.0,2026-05-02 00:08:14,37.68876,-121.43687,184.0,0.0,38.2,-12.7,,,,,00:08:14,10.5,1.1,298.7,0.0,230.0,0.0,0.02,1.0,99.0,12.0,36.0,0.0,29.85,2755.0,,,39.0,,,,,0.0,0.0,,,,,,,,,,,,,,,,,,,0.0,87.0,0.0,0.0,29.9,0.6,,0.6,5.1,,,42.0,0.0,0.0,-0.4,14.2,11.7,,,,,110.0,95.0,120.0,103.0,110.0,99.0,116.0,101.0,,,-9.0,0.0,,5.1,3.0,4.996,,,0.653,0.88,0.0,87.2,,,,,,0.0,2026-05-01 17:06:42-07:00
98.06,1.0,9.0,2026-05-02 00:08:15,37.68876,-121.43687,183.0,0.0,38.2,-12.7,,,,,00:08:15,10.5,1.1,298.9,0.0,230.0,0.0,0.01,1.0,99.0,15.0,36.0,0.0,29.85,2755.0,,,39.0,,,,,0.0,0.0,,,,,,,,,,,,,,,,,,,0.0,76.0,0.0,0.0,29.9,0.5,,0.5,7.0,,,42.0,0.0,0.0,-0.4,14.2,11.7,,,,,107.0,91.0,117.0,100.0,107.0,95.0,113.0,97.0,,,-9.0,0.0,,7.0,3.0,4.996,,,0.652,0.879,0.0,76.0,,,,,,0.0,2026-05-01 17:06:42-07:00
99.06,1.0,9.0,2026-05-02 00:08:16,37.68876,-121.43687,183.0,0.0,38.2,-12.7,,,,,00:08:16,10.5,1.1,299.0,0.0,230.0,0.0,0.02,1.0,99.0,5.0,36.0,0.0,29.85,2757.0,,,39.0,,,,,0.0,0.0,,,,,,,,,,,,,,,,,,,0.0,82.0,214.0,214.0,29.5,0.5,,0.5,8.8,,,42.0,0.0,0.0,-0.4,14.2,11.7,,,,,109.0,93.0,119.0,102.0,109.0,97.0,115.0,99.0,,,-9.0,0.0,,8.8,3.0,4.996,,,0.653,0.879,0.1,82.0,,,,,,214.0,2026-05-01 17:06:42-07:00
100.06,1.0,9.0,2026-05-02 00:08:17,37.68876,-121.43687,183.0,0.0,38.2,-12.7,,,,,00:08:17,10.5,1.1,299.1,0.0,230.0,0.0,0.02,1.0,99.0,18.0,36.0,0.0,29.85,2757.0,,,39.0,,,,,0.0,0.0,,,,,,,,,,,,,,,,,,,1.0,82.0,268.0,268.0,29.3,0.5,,0.5,10.1,,,42.0,0.0,0.0,-0.4,14.2,11.7,,,,,108.0,93.0,119.0,102.0,109.0,97.0,115.0,99.0,,,-9.0,0.0,,10.1,3.0,4.996,,,0.656,0.879,0.8,82.4,,,,,,268.0,2026-05-01 17:06:42-07:00
101.06,1.0,9.0,2026-05-02 00:08:18,37.68876,-121.43687,178.0,0.0,38.2,-12.7,,,,,00:08:18,10.5,1.1,299.0,0.0,230.0,0.0,0.02,1.0,99.0,22.0,36.0,0.0,29.85,2757.0,,,39.0,,,,,0.0,0.0,,,,,,,,,,,,,,,,,,,52.0,87.0,1086.0,1086.0,23.9,0.9,,0.9,9.6,,,42.0,0.0,0.0,-0.4,14.2,11.7,,,,,110.0,100.0,120.0,125.0,110.0,134.0,116.0,138.0,,,-9.0,0.0,,9.6,3.0,4.996,,,0.658,0.959,52.2,87.0,,,,,,1086.0,2026-05-01 17:06:42-07:00
102.06,1.0,9.0,2026-05-02 00:08:19,37.68876,-121.43687,178.0,0.0,38.2,-12.7,,,,,00:08:19,10.5,1.0,298.9,0.0,230.0,0.0,0.02,1.0,99.0,46.0,36.0,0.0,29.85,2757.0,,,39.0,,,,,0.0,0.0,,,,,,,,,,,,,,,,,,,54.0,86.0,1009.0,1009.0,20.4,1.6,,1.6,8.6,,,42.0,0.0,0.0,-0.3,14.2,11.7,,,,,110.0,145.0,120.0,175.0,110.0,156.0,116.0,150.0,,,-9.0,0.0,,8.6,3.0,4.996,,,0.657,0.94,53.7,86.1,,,,,,1009.0,2026-05-01 17:06:42-07:00
103.06,1.0,9.0,2026-05-02 00:08:20,37.68876,-121.43687,178.0,0.0,38.2,-12.7,,,,,00:08:20,10.5,1.0,298.8,0.0,230.0,-0.0,0.02,1.0,99.0,22.0,36.0,0.0,29.85,2757.0,,,39.0,,,,,0.0,0.0,,,,,,,,,,,,,,,,,,,58.0,85.0,1284.0,1284.0,19.1,2.0,,2.0,7.9,,,42.0,0.0,0.0,-0.4,14.2,11.7,,,,,110.0,187.0,120.0,191.0,110.0,189.0,116.0,178.0,,,-9.0,0.0,,7.9,3.0,4.996,,,0.656,0.964,58.2,85.4,,,,,,1284.0,2026-05-01 17:06:42-07:00
104.06,1.0,9.0,2026-05-02 00:08:21,37.68876,-121.43687,179.0,0.1,38.2,-12.7,,,,,00:08:21,10.5,1.1,298.8,0.0,230.0,-0.0,0.02,1.0,99.0,28.0,36.0,0.0,29.85,2757.0,,,39.0,,,,,0.0,0.0,,,,,,,,,,,,,,,,,,,61.0,85.0,1313.0,1313.0,16.9,2.2,,2.2,9.0,,,42.0,0.0,0.0,-0.3,14.2,11.7,,,,,110.0,239.0,120.0,230.0,110.0,248.0,116.0,222.0,,,-9.0,0.0,,9.0,3.0,4.996,,,0.656,0.951,60.8,84.8,,,,,,1313.0,2026-05-01 17:06:42-07:00
105.06,1.0,9.0,2026-05-02 00:08:22,37.68876,-121.43687,179.0,0.1,38.2,-12.7,,,,,00:08:22,10.4,1.1,298.8,0.0,230.0,0.0,0.02,0.9,99.0,54.0,36.0,0.0,29.85,2757.0,,,39.0,,,,,0.0,0.0,,,,,,,,,,,,,,,,,,,64.0,84.0,1431.0,1431.0,15.6,2.3,,2.3,17.9,,,42.0,0.0,0.0,-0.3,14.2,11.7,,,,,110.0,290.0,121.0,276.0,110.0,310.0,116.0,269.0,,,-9.0,0.0,,17.9,3.0,4.996,,,0.656,0.924,64.1,84.5,,,,,,1431.0,2026-05-01 17:06:42-07:00
106.06,1.0,9.0,2026-05-02 00:08:23,37.68876,-121.43687,179.0,0.0,38.2,-12.7,,,,,00:08:23,10.5,1.1,298.8,0.0,230.0,0.0,0.02,1.0,99.0,-5.0,36.0,0.0,29.85,2757.0,,,39.0,,,,,0.0,0.0,,,,,,,,,,,,,,,,,,,60.0,84.0,1230.0,1230.0,14.4,2.5,,2.5,22.8,,,42.0,0.0,0.0,-0.3,14.2,11.7,,,,,110.0,328.0,121.0,316.0,110.0,349.0,117.0,295.0,,,-9.0,0.0,,22.8,3.0,4.996,,,0.654,0.907,59.9,84.3,,,,,,1230.0,2026-05-01 17:06:42-07:00
107.06,1.0,9.0,2026-05-02 00:08:24,37.68876,-121.43687,180.0,0.1,38.2,-12.7,,,,,00:08:24,10.5,1.1,298.8,0.0,230.0,0.0,0.02,0.9,99.0,7.0,36.0,0.0,29.85,2757.0,,,39.0,,,,,0.0,0.0,,,,,,,,,,,,,,,,,,,57.0,84.0,1137.0,1137.0,14.6,2.6,,2.6,23.3,,,42.0,0.0,0.0,-0.3,14.2,11.7,,,,,111.0,356.0,121.0,351.0,111.0,378.0,117.0,328.0,,,-9.0,0.0,,23.3,3.0,4.996,,,0.654,0.948,57.1,84.3,,,,,,1137.0,2026-05-01 17:06:42-07:00
108.06,1.0,9.0,2026-05-02 00:08:25,37.68876,-121.43687,180.0,0.0,38.2,-12.7,,,,,00:08:25,10.5,1.0,298.8,0.0,230.0,0.0,0.02,1.0,99.0,-35.0,36.0,0.0,29.85,2757.0,,,39.0,,,,,0.0,0.0,,,,,,,,,,,,,,,,,,,58.0,84.0,1183.0,1183.0,14.8,2.6,,2.6,23.6,,,42.0,0.0,0.0,-0.2,14.2,11.7,,,,,111.0,369.0,122.0,373.0,111.0,399.0,117.0,355.0,,,-9.0,0.0,,23.6,3.0,4.996,,,0.654,0.902,57.8,84.3,,,,,,1183.0,2026-05-01 17:06:42-07:00
109.06,1.0,9.0,2026-05-02 00:08:26,37.68876,-121.43687,180.0,0.1,38.2,-12.7,,,,,00:08:26,10.5,1.1,298.8,0.0,230.0,0.0,0.02,1.0,99.0,0.0,36.0,0.0,29.85,2757.0,,,39.0,,,,,0.0,0.0,,,,,,,1.0,,,-13.0,,,,,,,,,59.0,84.0,1247.0,1247.0,14.1,2.7,,2.7,24.0,,,42.0,0.0,0.0,-0.3,14.2,11.7,,,,,111.0,392.0,122.0,399.0,111.0,421.0,118.0,379.0,,,-9.0,0.0,,24.0,3.0,4.996,,,0.654,0.907,59.2,84.4,,,,,,1247.0,2026-05-01 17:06:42-07:00
110.06,1.0,9.0,2026-05-02 00:08:27,37.68876,-121.43687,180.0,0.0,38.2,-12.7,,,,,00:08:27,10.5,1.0,298.9,0.0,230.0,0.0,0.02,1.0,99.0,7.0,36.0,0.0,29.85,2757.0,,,39.0,,,,,0.0,0.0,,,,,,,1.0,,,-1.0,,,,,,,,,60.0,85.0,1270.0,1270.0,13.5,2.7,,2.7,24.3,,,42.0,0.0,0.0,-0.3,14.2,11.7,,,,,111.0,414.0,122.0,419.0,111.0,440.0,118.0,404.0,,,-9.0,0.0,,24.3,3.0,4.996,,,0.654,0.908,59.9,84.5,,,,,,1270.0,2026-05-01 17:06:42-07:00
111.06,1.0,9.0,2026-05-02 00:08:28,37.68876,-121.43687,181.0,0.0,38.2,-12.7,,,,,00:08:28,10.5,1.0,298.9,0.0,230.0,0.0,0.02,1.0,99.0,2.0,36.0,0.0,29.85,2757.0,,,39.0,,,,,0.0,0.0,,,,,,,-2.0,,,-3.0,,,,,,,,,59.0,87.0,1239.0,1239.0,13.4,2.7,,2.7,24.5,,,42.0,0.0,0.0,4.7,14.2,11.7,,,,,112.0,432.0,123.0,438.0,112.0,459.0,119.0,427.0,,,-9.0,0.0,,24.5,3.0,4.996,,,0.654,0.901,59.4,87.4,,,,,,1239.0,2026-05-01 17:06:42-07:00
112.06,1.0,9.0,2026-05-02 00:08:29,37.68876,-121.43687,181.0,0.0,38.2,-12.7,,,,,00:08:29,10.5,1.0,298.8,0.0,230.0,0.0,0.02,1.0,99.0,8.0,36.0,0.0,29.85,2757.0,,,39.0,,,,,0.0,0.0,,,,,,,-2.0,,,-3.0,,,,,,,,,59.0,88.0,1228.0,1228.0,13.5,2.7,,2.7,24.6,,,42.0,0.0,0.0,31.1,14.2,11.7,,,,,112.0,447.0,123.0,453.0,112.0,479.0,119.0,445.0,,,-9.0,0.0,,24.6,3.0,4.996,,,0.654,0.925,58.8,87.9,,,,,,1228.0,2026-05-01 17:06:42-07:00
113.06,1.0,9.0,2026-05-02 00:08:30,37.68876,-121.43687,181.0,0.0,38.2,-12.7,,,,,00:08:30,10.5,1.0,298.8,0.0,230.0,0.0,0.02,1.0,99.0,37.0,36.0,0.0,29.85,2757.0,,,39.0,,,,,0.0,0.0,,,,,,,-2.0,,,-3.0,,,,,3.0,0.0,0.0,1200.0,58.0,88.0,1193.0,1193.0,13.5,2.7,,2.7,24.8,,,42.0,0.0,0.0,46.9,14.2,11.7,,,,,112.0,460.0,124.0,467.0,113.0,498.0,120.0,465.0,,,-9.0,0.0,,24.8,3.0,4.996,,,0.654,0.908,58.2,88.1,,,,,,1193.0,2026-05-01 17:06:42-07:00
114.06,1.0,9.0,2026-05-02 00:08:31,37.68876,-121.43687,181.0,0.0,38.2,-12.7,,,,,00:08:31,10.5,1.0,298.9,0.0,230.0,0.0,0.02,1.0,99.0,15.0,36.0,0.0,29.85,2758.0,,,39.0,,,,,0.0,0.0,,,,,,,-2.0,,,-3.0,,,,,1.0,1.0,0.0,1200.0,56.0,88.0,1081.0,1081.0,13.3,2.6,,2.6,24.9,,,42.0,0.0,0.0,56.0,14.2,11.7,,,,,113.0,471.0,124.0,478.0,113.0,515.0,120.0,482.0,,,-9.0,0.0,,24.9,3.0,4.996,,,0.654,0.925,56.5,88.1,,,,,,1081.0,2026-05-01 17:06:42-07:00
115.06,1.0,9.0,2026-05-02 00:08:32,37.68876,-121.43687,181.0,0.0,38.2,-12.7,,,,,00:08:32,10.5,1.0,298.8,0.0,230.0,0.0,0.02,1.0,99.0,1.0,36.0,0.0,29.85,2758.0,,,39.0,,,,,0.0,0.0,,,,,,,-4.0,,,-10.0,,,,,1.0,0.0,0.0,1200.0,52.0,88.0,914.0,914.0,14.8,2.6,,2.6,24.8,,,42.0,0.0,0.0,58.0,14.2,11.7,,,,,113.0,474.0,124.0,466.0,113.0,515.0,120.0,483.0,,,-9.0,0.0,,24.8,3.0,4.996,,,0.654,0.962,52.1,87.8,,,,,,914.0,2026-05-01 17:06:42-07:00
116.06,1.0,9.0,2026-05-02 00:08:33,37.68876,-121.43687,181.0,0.1,38.2,-12.7,,,,,00:08:33,10.5,1.0,298.8,0.0,230.0,-0.0,0.02,0.9,99.0,12.0,36.0,0.0,29.85,2758.0,,,39.0,,,,,0.0,0.0,,,,,,,-5.0,,,-14.0,,,,,,,,,52.0,88.0,924.0,924.0,15.8,2.5,,2.5,24.8,,,42.0,0.0,0.0,57.6,14.2,11.8,,,,,113.0,473.0,124.0,470.0,113.0,514.0,120.0,483.0,,,-9.0,0.0,,24.8,3.0,4.996,,,0.656,0.992,51.8,88.0,,,,,,924.0,2026-05-01 17:06:42-07:00
117.06,1.0,9.0,2026-05-02 00:08:34,37.68876,-121.43687,182.0,0.1,38.2,-12.7,,,,,00:08:34,10.5,1.0,298.8,0.0,230.0,-0.0,0.02,1.0,99.0,-5.0,36.0,0.0,29.85,2758.0,,,39.0,,,,,0.0,0.0,,,,,,,-5.0,,,-20.0,,,,,,,,,52.0,88.0,953.0,953.0,15.6,2.5,,2.5,24.9,,,42.0,0.0,0.0,58.0,14.2,11.8,,,,,113.0,473.0,124.0,463.0,113.0,509.0,120.0,489.0,,,-9.0,0.0,,24.9,3.0,4.996,,,0.656,0.952,52.5,88.1,,,,,,953.0,2026-05-01 17:06:42-07:00
118.06,1.0,9.0,2026-05-02 00:08:35,37.68876,-121.43687,182.0,0.0,38.2,-12.7,,,,,00:08:35,10.4,1.0,298.7,0.0,232.0,0.0,0.02,1.0,99.0,58.0,36.0,0.0,29.85,2758.0,,,39.0,,,,,0.0,0.0,,,,,,,-5.0,,,-23.0,,,,,,,,,53.0,88.0,1002.0,1002.0,14.6,2.4,,2.4,25.0,,,42.0,0.0,0.0,59.5,14.2,11.8,,,,,113.0,475.0,124.0,473.0,113.0,512.0,120.0,499.0,,,-9.0,0.0,,25.0,3.0,4.996,,,0.654,0.963,53.3,88.3,,,,,,1002.0,2026-05-01 17:06:42-07:00
119.06,1.0,9.0,2026-05-02 00:08:36,37.68876,-121.43687,182.0,0.0,38.2,-12.7,,,,,00:08:36,10.5,1.0,298.7,0.0,232.0,0.0,0.02,1.0,99.0,15.0,36.0,0.0,29.85,2758.0,,,39.0,,,,,0.0,0.0,,,,,,,-6.0,,,-31.0,,,,,,,,,52.0,88.0,930.0,930.0,14.3,2.4,,2.4,25.0,,,42.0,0.0,0.0,60.2,14.2,11.8,,,,,113.0,481.0,124.0,473.0,114.0,519.0,121.0,509.0,,,-9.0,0.0,,25.0,3.0,4.996,,,0.654,1.006,52.3,88.2,,,,,,930.0,2026-05-01 17:06:42-07:00
120.06,1.0,9.0,2026-05-02 00:08:37,37.68876,-121.43687,181.0,0.1,38.2,-12.7,,,,,00:08:37,10.5,1.0,298.8,0.0,232.0,0.0,0.02,1.0,99.0,24.0,36.0,0.0,29.85,2760.0,,,39.0,,,,,0.0,0.0,,,,,,,-5.0,,,-27.0,,,,,,,,,54.0,88.0,1013.0,1013.0,13.9,2.3,,2.3,25.1,,,42.0,0.0,0.0,56.1,14.2,11.8,,,,,114.0,486.0,125.0,472.0,114.0,520.0,121.0,517.0,,,-9.0,0.0,,25.1,3.0,4.996,,,0.656,0.977,54.2,87.8,,,,,,1013.0,2026-05-01 17:06:42-07:00
121.06,1.0,9.0,2026-05-02 00:08:38,37.68876,-121.43687,181.0,0.0,38.2,-12.7,,,,,00:08:38,10.5,1.0,298.8,0.0,232.0,0.0,0.02,1.0,99.0,19.0,36.0,0.0,29.85,2760.0,,,39.0,,,,,0.0,0.0,,,,,,,-4.0,,,-6.0,,,,,,,,,54.0,87.0,1007.0,1007.0,13.8,2.3,,2.3,25.1,,,42.0,0.0,0.0,49.9,14.2,11.8,,,,,114.0,493.0,125.0,482.0,114.0,526.0,121.0,519.0,,,-9.0,0.0,,25.1,3.0,4.996,,,0.654,0.927,54.2,87.5,,,,,,1007.0,2026-05-01 17:06:42-07:00
122.06,1.0,9.0,2026-05-02 00:08:39,37.68876,-121.43687,181.0,0.0,38.2,-12.7,,,,,00:08:39,10.5,1.0,298.8,0.0,232.0,0.0,0.02,1.0,99.0,-8.0,36.0,0.0,29.85,2760.0,,,39.0,,,,,0.0,0.0,,,,,,,-3.0,,,-6.0,,,,,,,,,53.0,87.0,978.0,978.0,13.9,2.3,,2.3,25.1,,,42.0,0.0,0.0,43.4,14.2,11.8,,,,,114.0,498.0,125.0,481.0,114.0,533.0,121.0,525.0,,,-9.0,0.0,,25.1,3.0,4.996,,,0.653,0.933,52.8,87.2,,,,,,978.0,2026-05-01 17:06:42-07:00
123.06,1.0,9.0,2026-05-02 00:08:40,37.68876,-121.43687,181.0,0.0,38.2,-12.7,,,,,00:08:40,10.4,0.9,298.8,0.0,232.0,0.0,0.02,1.0,99.0,17.0,36.0,0.0,29.85,2760.0,,,39.0,,,,,0.0,0.0,,,,,,,-2.0,,,-6.0,,,,,,,,,54.0,87.0,990.0,990.0,14.2,2.2,,2.2,25.2,,,42.0,0.0,0.0,37.2,14.2,11.8,,,,,114.0,497.0,125.0,482.0,114.0,538.0,122.0,529.0,,,-9.0,0.0,,25.2,3.0,4.996,,,0.653,0.936,53.7,87.0,,,,,,990.0,2026-05-01 17:06:42-07:00
124.06,1.0,9.0,2026-05-02 00:08:41,37.68876,-121.43687,181.0,0.1,38.2,-12.7,,,,,00:08:41,10.4,1.0,298.7,0.0,232.0,-0.0,0.02,1.0,99.0,31.0,36.0,0.0,29.85,2760.0,,,39.0,,,,,0.0,0.0,,,,,,,-2.0,,,-6.0,,,,,,,,,53.0,87.0,947.0,947.0,14.1,2.2,,2.2,25.1,,,42.0,0.0,0.0,31.7,14.2,11.8,,,,,114.0,504.0,125.0,489.0,114.0,534.0,122.0,536.0,,,-9.0,0.0,,25.1,3.0,4.996,,,0.653,0.924,52.7,86.9,,,,,,947.0,2026-05-01 17:06:42-07:00
125.06,1.0,9.0,2026-05-02 00:08:42,37.68876,-121.43687,181.0,0.0,38.2,-12.7,,,,,00:08:42,10.4,1.0,298.7,0.0,233.0,-0.0,0.02,0.9,99.0,36.0,36.0,0.0,29.85,2760.0,,,39.0,,,,,0.0,0.0,,,,,,,-2.0,,,-1.0,,,,,,,,,53.0,87.0,1001.0,1001.0,14.1,2.2,,2.2,25.1,,,42.0,0.0,0.0,26.6,14.2,11.8,,,,,114.0,509.0,125.0,486.0,115.0,541.0,122.0,532.0,,,-9.0,0.0,,25.1,3.0,4.996,,,0.656,0.919,53.5,86.7,,,,,,1001.0,2026-05-01 17:06:42-07:00
126.06,1.0,8.0,2026-05-02 00:08:43,37.68874,-121.43689,198.0,0.0,38.2,-12.7,,,,,00:08:43,10.4,1.0,298.7,0.0,233.0,-0.0,0.02,1.0,99.0,19.0,36.0,0.0,29.85,2761.0,,,39.0,,,,,0.0,0.0,,,,,,,-1.0,,,0.0,,,,,,,,,55.0,87.0,1029.0,1029.0,13.6,2.2,,2.2,25.2,,,42.0,0.0,0.0,22.4,14.2,11.8,,,,,114.0,513.0,125.0,490.0,115.0,546.0,123.0,536.0,,,-9.0,0.0,,25.2,3.0,4.996,,,0.653,0.922,54.5,86.6,,,,,,1029.0,2026-05-01 17:06:42-07:00
127.06,1.0,8.0,2026-05-02 00:08:44,37.68874,-121.43689,198.0,0.0,38.2,-12.7,,,,,00:08:44,10.4,1.0,298.7,0.0,233.0,0.0,0.02,0.9,99.0,18.0,36.0,0.0,29.85,2761.0,,,39.0,,,,,0.0,0.0,,,,,,,-1.0,,,0.0,,,,,,,,,55.0,87.0,1024.0,1024.0,13.5,2.2,,2.2,25.2,,,42.0,0.0,0.0,19.2,14.2,11.8,,,,,115.0,516.0,125.0,490.0,115.0,550.0,123.0,543.0,,,-9.0,0.0,,25.2,3.0,4.996,,,0.654,0.913,54.5,86.6,,,,,,1024.0,2026-05-01 17:06:42-07:00
128.06,1.0,8.0,2026-05-02 00:08:45,37.68874,-121.43689,198.0,0.0,38.2,-12.7,,,,,00:08:45,10.4,0.9,298.7,0.0,233.0,0.0,0.02,1.0,99.0,-12.0,36.0,0.0,29.85,2761.0,,,39.0,,,,,0.0,0.0,,,,,,,-1.0,,,0.0,,,,,,,,,55.0,87.0,1058.0,1058.0,13.4,2.2,,2.2,25.2,,,42.0,0.0,0.0,16.6,14.2,11.8,,,,,115.0,521.0,126.0,492.0,115.0,555.0,123.0,546.0,,,-9.0,0.0,,25.2,3.0,4.996,,,0.654,0.911,54.6,86.5,,,,,,1058.0,2026-05-01 17:06:42-07:00
129.06,1.0,8.0,2026-05-02 00:08:46,37.68874,-121.43689,198.0,0.0,38.2,-12.7,,,,,00:08:46,10.5,1.0,298.7,0.0,233.0,0.0,0.02,1.0,99.0,2.0,36.0,0.0,29.85,2761.0,,,39.0,,,,,0.0,0.0,,,,,,,-1.0,,,0.0,,,,,,,,,54.0,86.0,1002.0,1002.0,13.3,2.1,,2.1,25.2,,,42.0,0.0,0.0,14.5,14.2,11.8,,,,,115.0,523.0,126.0,500.0,116.0,559.0,123.0,543.0,,,-9.0,0.0,,25.2,3.0,4.996,,,0.654,0.917,54.2,86.5,,,,,,1002.0,2026-05-01 17:06:42-07:00
130.06,1.0,8.0,2026-05-02 00:08:47,37.68874,-121.43689,198.0,0.0,38.2,-12.7,,,,,00:08:47,10.5,1.0,298.7,0.0,233.0,0.0,0.02,0.9,99.0,-11.0,36.0,0.0,29.85,2761.0,,,39.0,,,,,0.0,0.0,,,,,,,-1.0,,,-1.0,,,,,,,,,55.0,86.0,1029.0,1029.0,13.3,2.1,,2.1,25.2,,,42.0,0.0,0.0,12.8,14.2,11.8,,,,,115.0,527.0,126.0,495.0,116.0,566.0,124.0,543.0,,,-9.0,0.0,,25.2,3.0,4.996,,,0.656,0.955,54.5,86.5,,,,,,1029.0,2026-05-01 17:06:42-07:00
131.06,1.0,8.0,2026-05-02 00:08:48,37.68874,-121.43689,198.0,0.0,38.2,-12.7,,,,,00:08:48,10.4,1.0,298.8,0.0,234.0,0.0,0.02,1.0,99.0,12.0,36.0,0.0,29.85,2761.0,,,39.0,,,,,0.0,0.0,,,,,,,-1.0,,,-1.0,,,,,,,,,54.0,86.0,1025.0,1025.0,13.4,2.1,,2.1,25.2,,,42.0,0.0,0.0,11.5,14.2,11.8,,,,,115.0,532.0,126.0,498.0,116.0,566.0,124.0,547.0,,,-9.0,0.0,,25.2,3.0,4.996,,,0.657,0.924,54.3,86.4,,,,,,1025.0,2026-05-01 17:06:42-07:00
132.06,1.0,8.0,2026-05-02 00:08:49,37.68873,-121.4369,198.0,0.0,38.2,-12.7,,,,,00:08:49,10.4,1.0,298.8,0.0,234.0,0.0,0.02,1.0,99.0,25.0,36.0,0.0,29.85,2762.0,,,39.0,,,,,0.0,0.0,,,,,,,-1.0,,,-8.0,,,,,,,,,55.0,86.0,1049.0,1049.0,13.4,2.1,,2.1,24.8,,,42.0,0.0,0.0,10.5,14.2,11.8,,,,,116.0,536.0,126.0,501.0,117.0,565.0,124.0,551.0,,,-9.0,0.0,,24.8,3.0,4.996,,,0.657,0.925,54.9,86.4,,,,,,1049.0,2026-05-01 17:06:42-07:00
133.06,1.0,8.0,2026-05-02 00:08:50,37.68873,-121.4369,198.0,0.0,38.2,-12.7,,,,,00:08:50,10.5,1.1,298.8,0.0,234.0,0.0,0.02,1.0,99.0,25.0,36.0,0.0,29.85,2762.0,,,39.0,,,,,0.0,0.0,,,,,,,-1.0,,,-8.0,,,,,,,,,53.0,86.0,1002.0,1002.0,14.1,2.1,,2.1,24.9,,,42.0,0.0,0.0,10.0,14.2,11.8,,,,,116.0,540.0,126.0,508.0,117.0,563.0,125.0,550.0,,,-9.0,0.0,,24.9,3.0,4.996,,,0.654,0.977,52.8,86.4,,,,,,1002.0,2026-05-01 17:06:42-07:00
134.06,1.0,8.0,2026-05-02 00:08:51,37.68873,-121.4369,198.0,0.0,38.2,-12.7,,,,,00:08:51,10.5,1.0,298.8,0.0,235.0,0.0,0.02,1.0,99.0,-5.0,36.0,0.0,29.85,2762.0,,,39.0,,,,,0.0,0.0,,,,,,,-2.0,,,-11.0,,,,,,,,,54.0,86.0,1009.0,1009.0,13.9,2.1,,2.1,25.0,,,42.0,0.0,0.0,9.4,14.2,11.8,,,,,116.0,536.0,127.0,510.0,117.0,566.0,125.0,556.0,,,-9.0,0.0,,25.0,3.0,4.996,,,0.654,0.968,53.8,86.4,,,,,,1009.0,2026-05-01 17:06:42-07:00
135.06,1.0,8.0,2026-05-02 00:08:52,37.68873,-121.4369,197.0,0.0,38.2,-12.7,,,,,00:08:52,10.5,1.0,298.8,0.0,235.0,0.0,0.02,1.0,99.0,13.0,36.0,0.0,29.85,2763.0,,,39.0,,,,,0.0,0.0,,,,,,,-2.0,,,-11.0,,,,,,,,,53.0,86.0,958.0,958.0,13.9,2.1,,2.1,25.0,,,42.0,0.0,0.0,9.0,14.2,11.8,,,,,116.0,542.0,127.0,516.0,117.0,565.0,125.0,559.0,,,-9.0,0.0,,25.0,3.0,4.996,,,0.653,0.968,52.9,86.4,,,,,,958.0,2026-05-01 17:06:42-07:00
136.06,1.0,8.0,2026-05-02 00:08:53,37.68873,-121.4369,197.0,0.0,38.2,-12.7,,,,,00:08:53,10.5,1.0,298.8,0.0,235.0,0.0,0.02,1.0,99.0,-34.0,36.0,0.0,29.85,2763.0,,,39.0,,,,,0.0,0.0,,,,,,,-2.0,,,-11.0,,,,,,,,,55.0,86.0,1041.0,1041.0,13.6,2.1,,2.1,25.0,,,42.0,0.0,0.0,8.5,14.2,11.8,,,,,116.0,544.0,127.0,517.0,118.0,561.0,125.0,563.0,,,-9.0,0.0,,25.0,3.0,4.996,,,0.654,0.938,54.7,86.3,,,,,,1041.0,2026-05-01 17:06:42-07:00
137.06,1.0,8.0,2026-05-02 00:08:54,37.68873,-121.4369,197.0,0.0,38.2,-12.7,,,,,00:08:54,10.5,1.0,298.8,0.0,235.0,0.0,0.02,1.0,99.0,-21.0,36.0,0.0,29.85,2763.0,,,39.0,,,,,0.0,0.0,,,,,,,-2.0,,,-11.0,,,,,3.0,1.0,0.0,1200.0,54.0,86.0,1018.0,1018.0,13.6,2.1,,2.1,24.8,,,42.0,0.0,0.0,8.1,14.2,11.8,,,,,117.0,547.0,127.0,519.0,118.0,567.0,126.0,564.0,,,-9.0,0.0,,24.8,3.0,4.996,,,0.653,0.919,54.2,86.3,,,,,,1018.0,2026-05-01 17:06:42-07:00
138.06,1.0,8.0,2026-05-02 00:08:55,37.68873,-121.4369,197.0,0.0,38.2,-12.7,,,,,00:08:55,10.5,1.0,298.8,0.0,235.0,0.0,0.02,1.0,99.0,3.0,36.0,0.0,29.85,2763.0,,,39.0,,,,,0.0,0.0,,,,,,,-2.0,,,-11.0,,,,,1.0,0.0,0.0,1200.0,55.0,86.0,1042.0,1042.0,13.5,2.1,,2.1,24.9,,,42.0,0.0,0.0,7.8,14.2,11.8,,,,,117.0,548.0,127.0,517.0,118.0,566.0,126.0,571.0,,,-9.0,0.0,,24.9,3.0,4.996,,,0.653,0.928,54.7,86.3,,,,,,1042.0,2026-05-01 17:06:42-07:00
139.06,1.0,8.0,2026-05-02 00:08:56,37.68873,-121.4369,196.0,0.0,38.2,-12.7,,,,,00:08:56,10.5,1.0,298.8,0.0,235.0,-0.0,0.02,1.0,99.0,7.0,36.0,0.0,29.85,2761.0,,,39.0,,,,,0.0,0.0,,,,,,,-2.0,,,-12.0,,,,,1.0,0.0,0.0,1200.0,52.0,86.0,942.0,942.0,13.6,2.2,,2.2,24.9,,,42.0,0.0,0.0,7.6,14.2,11.8,,,,,117.0,550.0,128.0,519.0,119.0,571.0,127.0,570.0,,,-9.0,0.0,,24.9,3.0,4.996,,,0.654,0.942,52.3,86.3,,,,,,942.0,2026-05-01 17:06:42-07:00
140.06,1.0,8.0,2026-05-02 00:08:57,37.68873,-121.4369,196.0,0.0,38.2,-12.7,,,,,00:08:57,10.5,1.0,298.8,0.0,235.0,0.0,0.02,1.0,99.0,-5.0,36.0,0.0,29.85,2761.0,,,39.0,,,,,0.0,0.0,,,,,,,-2.0,,,-14.0,,,,,1.0,1.0,0.0,1200.0,54.0,86.0,1033.0,1033.0,13.7,2.2,,2.2,25.0,,,42.0,0.0,0.0,7.3,14.2,11.8,,,,,118.0,553.0,128.0,525.0,119.0,568.0,127.0,569.0,,,-9.0,0.0,,25.0,3.0,4.996,,,0.656,0.928,54.5,86.3,,,,,,1033.0,2026-05-01 17:06:42-07:00
141.06,1.0,8.0,2026-05-02 00:08:58,37.68873,-121.4369,196.0,0.0,38.2,-12.7,,,,,00:08:58,10.5,1.0,298.9,0.0,235.0,0.0,0.02,0.9,99.0,-12.0,36.0,0.0,29.85,2761.0,,,39.0,,,,,0.0,0.0,,,,,,,-2.0,,,-32.0,,,,,1.0,0.0,0.0,1200.0,55.0,86.0,1069.0,1069.0,13.4,2.2,,2.2,24.9,,,42.0,0.0,0.0,7.0,14.2,11.8,,,,,118.0,555.0,128.0,526.0,119.0,568.0,127.0,573.0,,,-9.0,0.0,,24.9,3.0,4.996,,,0.654,0.935,55.2,86.3,,,,,,1069.0,2026-05-01 17:06:42-07:00
142.06,1.0,8.0,2026-05-02 00:08:59,37.68873,-121.4369,196.0,0.1,38.2,-12.7,,,,,00:08:59,10.5,1.0,298.8,0.0,235.0,-0.0,0.02,1.0,99.0,-1.0,36.0,0.0,29.85,2761.0,,,39.0,,,,,0.0,0.0,,,,,,,-3.0,,,-1.0,,,,,1.0,0.0,0.0,1200.0,55.0,86.0,1048.0,1048.0,13.4,2.2,,2.2,24.8,,,42.0,0.0,0.0,6.9,14.2,11.8,,,,,118.0,557.0,128.0,527.0,119.0,564.0,127.0,566.0,,,-9.0,0.0,,24.8,3.0,4.996,,,0.654,0.933,54.9,86.3,,,,,,1048.0,2026-05-01 17:06:42-07:00
143.06,1.0,8.0,2026-05-02 00:09:00,37.68873,-121.4369,196.0,0.2,38.2,-12.7,,,,,00:09:00,10.5,0.9,298.7,0.0,235.0,-0.0,0.02,1.0,99.0,13.0,36.0,0.0,29.85,2761.0,,,39.0,,,,,0.0,0.0,,,,,,,-3.0,,,-1.0,,,,,1.0,0.0,0.0,1200.0,57.0,86.0,1167.0,1167.0,14.1,2.2,,2.2,24.9,,,42.0,0.0,0.0,6.6,14.2,11.8,,,,,118.0,557.0,128.0,531.0,120.0,557.0,128.0,572.0,,,-9.0,0.0,,24.9,3.0,4.996,,,0.654,0.903,56.9,86.3,,,,,,1167.0,2026-05-01 17:06:42-07:00
144.06,1.0,8.0,2026-05-02 00:09:01,37.68873,-121.4369,196.0,0.9,38.2,-12.7,,,,,00:09:01,10.8,1.0,298.5,0.0,235.0,-0.1,0.01,1.0,99.0,-8.0,36.0,0.0,29.85,2761.0,,,39.0,,,,,0.0,0.0,,,,,,,-3.0,,,-1.0,,,,,1.0,0.0,0.0,1200.0,58.0,86.0,1142.0,1142.0,13.0,2.3,,2.3,24.8,,,42.0,0.0,0.0,6.5,14.2,11.8,,,,,118.0,560.0,128.0,540.0,120.0,561.0,128.0,573.0,,,-9.0,0.0,,24.8,3.0,4.996,,,0.653,0.908,57.6,86.3,,,,,,1142.0,2026-05-01 17:06:42-07:00
145.06,1.0,8.0,2026-05-02 00:09:02,37.68874,-121.4369,196.0,1.3,191.7,-12.7,,,,,00:09:02,11.0,1.0,298.3,0.0,235.0,-0.3,0.02,1.0,99.0,-14.0,36.0,0.0,29.85,2754.0,,,39.0,,,,,0.0,0.0,,,,,,,-3.0,,,-1.0,,,,,1.0,0.0,0.0,1200.0,54.0,86.0,1046.0,1046.0,13.0,2.3,,2.3,24.8,,,42.0,0.0,0.0,6.4,14.2,11.8,,,,,119.0,557.0,129.0,543.0,120.0,560.0,128.0,570.0,,,-9.0,0.0,,24.8,3.0,4.996,,,0.654,0.911,54.2,86.3,,,,,,1046.0,2026-05-01 17:06:42-07:00
146.06,1.0,8.0,2026-05-02 00:09:03,37.68874,-121.43691,196.0,1.8,306.6,-12.7,,,,,00:09:03,11.3,1.0,297.9,0.0,235.0,-0.5,0.02,1.0,99.0,-35.0,36.0,0.0,29.85,2754.0,,,39.0,,,,,0.0,0.0,,,,,,,-3.0,,,-1.0,,,,,1.0,0.0,0.0,1200.0,55.0,86.0,1050.0,1050.0,13.2,2.3,,2.3,24.9,,,42.0,0.0,0.0,6.2,14.2,11.8,,,,,119.0,560.0,129.0,544.0,120.0,565.0,129.0,574.0,,,-9.0,0.0,,24.9,3.0,4.996,,,0.654,0.905,55.1,86.3,,,,,,1050.0,2026-05-01 17:06:42-07:00
147.06,1.0,8.0,2026-05-02 00:09:04,37.68875,-121.43692,196.0,2.1,311.0,-12.7,,,,,00:09:04,11.1,1.1,297.4,0.0,235.0,-0.6,0.02,0.9,99.0,-10.0,36.0,0.0,29.85,2754.0,,,39.0,,,,,0.0,0.0,,,,,,,-3.0,,,-1.0,,,,,1.0,0.0,0.0,1200.0,54.0,86.0,996.0,996.0,13.2,2.2,,2.2,25.1,,,42.0,0.0,0.0,6.1,14.2,11.8,,,,,119.0,563.0,129.0,550.0,121.0,570.0,129.0,581.0,,,-9.0,0.0,,25.1,3.0,4.996,,,0.653,0.897,54.2,86.3,,,,,,996.0,2026-05-01 17:06:42-07:00
