Session Time,GPS Fix Quality,Number of Satellites,GPS Date & Time,Latitude (deg),Longitude (deg),GPS Altitude (feet),Ground Speed (knots),Ground Track (deg),Mag Var (deg),Cross Track Error (NM),Destination Waypoint ID,Range to Destination (NM),Bearing to Destination (deg),System Time,Pitch (deg),Roll (deg),Magnetic Heading (deg),Indicated Airspeed (knots),Pressure Altitude (ft),Turn Rate (deg/s),Lateral Accel (g),Vertical Accel(g),Angle of Attack (%),Vertical Speed (ft/min),OAT (deg C),True Airspeed (knots),Barometer Setting (inHg),Density Altitude (ft),Wind Direction (deg),Wind Speed (knots),Heading Bug (deg),Altitude Bug (ft),Airspeed Bug (knots),Vertical Speed Bug (ft/min),Course (deg),CDI Source Type,CDI Source Port,CDI Scale (NM),CDI Deflection (%),Glideslope (%),AP Engaged,AP Roll Mode,AP Roll Force,AP Roll Position (steps),AP Roll Slip (bool),AP Pitch Force,AP Pitch Position (steps),AP Pitch Slip (bool),AP Yaw Force,AP Yaw Position,AP Yaw Slip (bool),Transponder Status,Transponder Reply (bool),Transponder Identing (bool),Transponder Code (octal),Oil Pressure (PSI),Oil Temp (deg C),RPM L,RPM R,Manifold Pressure (inHg),Fuel Flow 1 (gal/hr),Fuel Flow 2 (gal/hr),Total Fuel Flow (gal/hr),Fuel Pressure (PSI),Fuel Level L (gal),Fuel Level R (gal),Fuel Remaining (gal),Volts 1,Volts 2,Amps,Hobbs Time,Tach Time,Thermocouple 1 (deg C),Thermocouple 2 (deg C),Thermocouple 3 (deg C),Thermocouple 4 (deg C),CHT 4 (deg C),EGT 4 (deg C),CHT 3 (deg C),EGT 3 (deg C),CHT 2 (deg C),EGT 2 (deg C),CHT 1 (deg C),EGT 1 (deg C),Thermocouple 13 (deg C),Thermocouple 14 (deg C),ELEV POSITION (%),CO PPM PRESSURE (PSI),GP Input 3,FUEL PRESSURE (PSI),AILERN POSITION (%),CANOPY CONTACT (V),GP Input 7,GP Input 8,LEFT LEVEL (Sensor V),RIGHT LEVEL (Sensor V),OIL PRESSURE (PSI),OIL TEMPERATURE (deg C),GP Input 13,Contacts,Percent Power,EGT Leaning State,Unnamed: 103,RPM,Flight ID
7.06,1.0,8.0,2026-04-03 20:17:48,37.08162,-121.59956,400.0,0.0,137.1,-12.6,,,,,20:17:48,10.7,-1.0,10.8,0.0,134.0,0.0,-0.01,1.0,99.0,-125.0,24.0,0.0,29.96,1183.0,,,79.0,,,,,0.0,0.0,,,,,,,,,,,,,,,,,,,0.0,16.0,0.0,0.0,30.2,0.0,,0.0,0.0,,,33.1,0.0,0.0,-0.6,8.3,6.5,,,,,17.0,18.0,17.0,19.0,17.0,19.0,18.0,19.0,,,4.0,254.5,,0.0,2.0,0.001,,,0.653,0.844,0.0,15.6,,,,,,0.0,2026-04-03 13:17:48-07:00
8.06,1.0,8.0,2026-04-03 20:17:49,37.0816,-121.59958,330.0,0.0,137.1,-12.6,,,,,20:17:49,10.7,-1.0,10.8,0.0,134.0,0.1,-0.01,1.0,99.0,-97.0,24.0,0.0,29.96,1183.0,,,79.0,,,,,0.0,0.0,,,,,,,,,,,,,,,,,,,0.0,16.0,0.0,0.0,30.2,0.0,,0.0,0.0,,,33.1,0.0,0.0,-0.6,8.3,6.5,,,,,17.0,18.0,17.0,19.0,17.0,19.0,18.0,19.0,,,4.0,254.5,,0.0,2.0,0.001,,,0.653,0.844,0.0,15.6,,,,,,0.0,2026-04-03 13:17:48-07:00
9.06,1.0,8.0,2026-04-03 20:17:50,37.0816,-121.59958,330.0,0.0,137.1,-12.6,,,,,20:17:50,10.7,-1.0,10.8,0.0,133.0,0.0,-0.02,1.0,99.0,-68.0,24.0,0.0,29.96,1183.0,,,79.0,,,,,0.0,0.0,,,,,,,,,,,,,,,,,,,0.0,16.0,0.0,0.0,30.2,0.0,,0.0,0.0,,,33.1,0.0,0.0,-0.6,8.3,6.5,,,,,17.0,18.0,17.0,19.0,17.0,18.0,18.0,19.0,,,4.0,254.5,,0.0,2.0,0.001,,,0.653,0.845,0.0,15.6,,,,,,0.0,2026-04-03 13:17:48-07:00
10.06,1.0,8.0,2026-04-03 20:17:51,37.08159,-121.59958,331.0,0.0,137.1,-12.6,,,,,20:17:51,10.7,-1.0,10.8,0.0,130.0,0.1,-0.01,1.0,99.0,-122.0,24.0,0.0,29.96,1189.0,,,79.0,,,,,0.0,0.0,,,,,,,,,,,,,,,,,,,0.0,16.0,0.0,0.0,30.2,0.0,,0.0,0.0,,,33.1,0.0,0.0,-0.6,8.3,6.5,,,,,17.0,18.0,17.0,19.0,17.0,19.0,18.0,19.0,,,4.0,254.5,,0.0,2.0,0.001,,,0.653,0.845,0.0,15.6,,,,,,0.0,2026-04-03 13:17:48-07:00
11.06,1.0,8.0,2026-04-03 20:17:52,37.08159,-121.59958,332.0,0.0,137.1,-12.6,,,,,20:17:52,10.6,-1.0,10.8,0.0,126.0,0.1,-0.02,1.0,99.0,-159.0,24.0,0.0,29.96,1187.0,,,79.0,,,,,0.0,0.0,,,,,,,,,,,,,,,,,,,0.0,16.0,0.0,0.0,30.2,0.0,,0.0,0.0,,,33.1,0.0,0.0,-0.6,8.3,6.5,,,,,17.0,18.0,17.0,19.0,17.0,18.0,18.0,19.0,,,4.0,254.4,,0.0,2.0,0.001,,,0.653,0.845,0.0,15.6,,,,,,0.0,2026-04-03 13:17:48-07:00
12.06,1.0,8.0,2026-04-03 20:17:53,37.08159,-121.59958,332.0,0.0,137.1,-12.6,,,,,20:17:53,10.6,-1.0,10.8,0.0,125.0,0.1,-0.02,1.0,99.0,-124.0,24.0,0.0,29.96,1187.0,,,79.0,,,,,0.0,0.0,,,,,,,,,,,,,,,,,,,0.0,16.0,0.0,0.0,30.2,0.0,,0.0,0.0,,,33.1,0.0,0.0,-0.6,8.3,6.5,,,,,17.0,18.0,17.0,19.0,17.0,18.0,18.0,19.0,,,4.0,254.4,,0.0,2.0,0.001,,,0.654,0.845,0.0,15.6,,,,,,0.0,2026-04-03 13:17:48-07:00
13.06,1.0,8.0,2026-04-03 20:17:54,37.08159,-121.59958,332.0,0.0,137.1,-12.6,,,,,20:17:54,10.7,-1.0,10.8,0.0,124.0,0.1,-0.02,1.0,99.0,-111.0,24.0,0.0,29.96,1187.0,,,79.0,,,,,0.0,0.0,,,,,,,,,,,,,,,,,,,0.0,16.0,0.0,0.0,30.2,0.0,,0.0,0.0,,,33.1,0.0,0.0,-0.6,8.3,6.5,,,,,17.0,18.0,17.0,19.0,17.0,18.0,18.0,19.0,,,4.0,254.4,,0.0,2.0,0.001,,,0.654,0.845,0.0,15.6,,,,,,0.0,2026-04-03 13:17:48-07:00
14.06,1.0,8.0,2026-04-03 20:17:55,37.08158,-121.59958,332.0,0.1,137.1,-12.6,,,,,20:17:55,10.7,-1.0,10.8,0.0,123.0,0.1,-0.01,1.0,99.0,-95.0,24.0,0.0,29.96,1180.0,,,79.0,,,,,0.0,0.0,,,,,,,,,,,,,,,,,,,0.0,16.0,0.0,0.0,30.2,0.0,,0.0,0.0,,,33.1,0.0,0.0,-0.6,8.3,6.5,,,,,17.0,18.0,17.0,19.0,17.0,18.0,18.0,19.0,,,4.0,254.4,,0.0,2.0,0.001,,,0.654,0.846,0.0,15.6,,,,,,0.0,2026-04-03 13:17:48-07:00
15.06,1.0,8.0,2026-04-03 20:17:56,37.08158,-121.59958,332.0,0.0,137.1,-12.6,,,,,20:17:56,10.7,-1.0,10.7,0.0,122.0,0.1,-0.02,1.0,99.0,-80.0,24.0,0.0,29.96,1180.0,,,79.0,,,,,0.0,0.0,,,,,,,,,,,,,,,,,,,0.0,16.0,0.0,0.0,30.2,0.0,,0.0,0.0,,,33.1,0.0,0.0,-0.6,8.3,6.5,,,,,17.0,18.0,17.0,19.0,17.0,18.0,18.0,19.0,,,4.0,254.4,,0.0,2.0,0.001,,,0.654,0.848,0.0,15.6,,,,,,0.0,2026-04-03 13:17:48-07:00
16.06,1.0,8.0,2026-04-03 20:17:57,37.08158,-121.59958,332.0,0.0,137.1,-12.6,,,,,20:17:57,10.7,-1.0,10.7,0.0,121.0,0.1,-0.01,1.0,99.0,-66.0,24.0,0.0,29.96,1180.0,,,79.0,,,,,0.0,0.0,,,,,,,,,,,,,,,,,,,0.0,16.0,0.0,0.0,30.2,0.0,,0.0,0.0,,,33.1,0.0,0.0,-0.6,8.3,6.5,,,,,17.0,19.0,17.0,19.0,17.0,19.0,18.0,19.0,,,4.0,254.4,,0.0,2.0,0.001,,,0.654,0.848,0.0,15.6,,,,,,0.0,2026-04-03 13:17:48-07:00
17.06,1.0,8.0,2026-04-03 20:17:58,37.08158,-121.59958,331.0,0.0,137.1,-12.6,,,,,20:17:58,10.7,-1.0,10.7,0.0,121.0,0.1,-0.02,1.0,99.0,-60.0,24.0,0.0,29.96,1186.0,,,79.0,,,,,0.0,0.0,,,,,,,,,,,,,,,,,,,0.0,16.0,0.0,0.0,30.2,0.0,,0.0,0.0,,,33.1,0.0,0.0,-0.6,8.3,6.5,,,,,17.0,19.0,17.0,19.0,17.0,19.0,18.0,19.0,,,5.0,254.4,,0.0,2.0,0.001,,,0.654,0.85,0.0,15.6,,,,,,0.0,2026-04-03 13:17:48-07:00
18.06,1.0,8.0,2026-04-03 20:17:59,37.08158,-121.59958,330.0,0.0,137.1,-12.6,,,,,20:17:59,10.7,-1.0,10.7,0.0,118.0,0.1,-0.02,1.0,99.0,-89.0,24.0,0.0,29.96,1186.0,,,79.0,,,,,0.0,0.0,,,,,,,,,,,,,,,,,,,0.0,16.0,0.0,0.0,30.2,0.0,,0.0,0.0,,,33.1,0.0,0.0,-0.6,8.3,6.5,,,,,17.0,19.0,17.0,19.0,17.0,19.0,18.0,19.0,,,5.0,254.4,,0.0,2.0,0.001,,,0.654,0.851,0.0,15.6,,,,,,0.0,2026-04-03 13:17:48-07:00
19.06,1.0,8.0,2026-04-03 20:18:00,37.08158,-121.59958,329.0,0.0,137.1,-12.6,,,,,20:18:00,10.7,-1.0,10.6,0.0,117.0,0.0,-0.02,1.0,99.0,-82.0,24.0,0.0,29.96,1186.0,,,79.0,,,,,0.0,0.0,,,,,,,,,,,,,,,,,,,0.0,16.0,0.0,0.0,30.2,0.0,,0.0,0.0,,,33.1,0.0,0.0,-0.6,8.3,6.5,,,,,17.0,19.0,17.0,19.0,17.0,19.0,18.0,19.0,,,5.0,254.4,,0.0,2.0,0.001,,,0.654,0.851,0.0,15.6,,,,,,0.0,2026-04-03 13:17:48-07:00
20.06,1.0,8.0,2026-04-03 20:18:01,37.08158,-121.59958,328.0,0.0,137.1,-12.6,,,,,20:18:01,10.7,-1.0,10.7,0.0,116.0,0.1,-0.02,1.0,99.0,-107.0,24.0,0.0,29.96,1183.0,,,79.0,,,,,0.0,0.0,,,,,,,,,,,,,,,,,,,0.0,16.0,0.0,0.0,30.2,0.0,,0.0,0.0,,,33.1,0.0,0.0,-0.6,8.3,6.5,,,,,17.0,19.0,17.0,19.0,17.0,19.0,18.0,19.0,,,4.0,254.4,,0.0,2.0,0.001,,,0.654,0.851,0.0,15.6,,,,,,0.0,2026-04-03 13:17:48-07:00
21.06,1.0,8.0,2026-04-03 20:18:02,37.08158,-121.59958,327.0,0.0,137.1,-12.6,,,,,20:18:02,10.7,-1.0,10.7,0.0,115.0,0.1,-0.02,1.0,99.0,-69.0,24.0,0.0,29.96,1183.0,,,79.0,,,,,0.0,0.0,,,,,,,,,,,,,,,,,,,0.0,16.0,0.0,0.0,30.2,0.0,,0.0,0.0,,,33.1,0.0,0.0,-0.6,8.3,6.5,,,,,17.0,19.0,17.0,19.0,17.0,19.0,18.0,19.0,,,4.0,254.4,,0.0,2.0,0.001,,,0.654,0.853,0.0,15.6,,,,,,0.0,2026-04-03 13:17:48-07:00
22.06,1.0,8.0,2026-04-03 20:18:03,37.08158,-121.59958,326.0,0.0,137.1,-12.6,,,,,20:18:03,10.7,-1.0,10.7,0.0,115.0,0.1,-0.02,1.0,99.0,-42.0,24.0,0.0,29.96,1183.0,,,79.0,,,,,0.0,0.0,,,,,,,,,,,,,,,,,,,0.0,16.0,0.0,0.0,30.2,0.0,,0.0,0.0,,,33.1,0.0,0.0,-0.6,8.3,6.5,,,,,17.0,19.0,17.0,19.0,17.0,19.0,18.0,19.0,,,4.0,254.4,,0.0,2.0,0.001,,,0.654,0.853,0.0,15.6,,,,,,0.0,2026-04-03 13:17:48-07:00
23.06,1.0,8.0,2026-04-03 20:18:04,37.08159,-121.59958,325.0,0.0,137.1,-12.6,,,,,20:18:04,10.7,-1.0,10.7,0.0,115.0,0.1,-0.02,1.0,99.0,-12.0,24.0,0.0,29.96,1180.0,,,79.0,,,,,0.0,0.0,,,,,,,,,,,,,,,,,,,0.0,16.0,0.0,0.0,30.2,0.0,,0.0,0.0,,,33.1,0.0,0.0,-0.6,8.3,6.5,,,,,17.0,19.0,17.0,19.0,17.0,19.0,18.0,19.0,,,4.0,254.4,,0.0,2.0,0.001,,,0.653,0.853,0.0,15.6,,,,,,0.0,2026-04-03 13:17:48-07:00
24.06,1.0,8.0,2026-04-03 20:18:05,37.08159,-121.59958,324.0,0.0,137.1,-12.6,,,,,20:18:05,10.7,-1.0,10.7,0.0,115.0,0.1,-0.02,1.0,99.0,-35.0,24.0,0.0,29.96,1180.0,,,79.0,,,,,0.0,0.0,,,,,,,,,,,,,,,,,,,0.0,16.0,0.0,0.0,30.2,0.0,,0.0,0.0,,,33.1,0.0,0.0,-0.6,8.3,6.5,,,,,17.0,19.0,17.0,19.0,17.0,19.0,18.0,19.0,,,4.0,254.4,,0.0,2.0,0.001,,,0.654,0.853,0.0,15.6,,,,,,0.0,2026-04-03 13:17:48-07:00
25.06,1.0,8.0,2026-04-03 20:18:06,37.08159,-121.59958,323.0,0.0,137.1,-12.6,,,,,20:18:06,10.7,-1.0,10.7,0.0,115.0,0.1,-0.02,1.0,99.0,-2.0,24.0,0.0,29.96,1180.0,,,79.0,,,,,0.0,0.0,,,,,,,,,,,,,,,,,,,0.0,16.0,0.0,0.0,30.2,0.0,,0.0,0.0,,,33.1,0.0,0.0,-0.6,8.3,6.5,,,,,17.0,19.0,17.0,19.0,17.0,19.0,18.0,19.0,,,3.0,254.4,,0.0,2.0,0.001,,,0.653,0.853,0.0,15.6,,,,,,0.0,2026-04-03 13:17:48-07:00
26.06,1.0,8.0,2026-04-03 20:18:07,37.08159,-121.59958,322.0,0.0,137.1,-12.6,,,,,20:18:07,10.7,-1.0,10.7,0.0,114.0,0.1,-0.02,1.0,99.0,-27.0,24.0,0.0,29.96,1190.0,,,79.0,,,,,0.0,0.0,,,,,,,,,,,,,,,,,,,0.0,16.0,0.0,0.0,30.2,0.0,,0.0,0.0,,,33.1,0.0,0.0,-0.6,8.3,6.5,,,,,17.0,19.0,17.0,19.0,17.0,19.0,18.0,19.0,,,3.0,254.4,,0.0,2.0,0.001,,,0.653,0.853,0.0,15.6,,,,,,0.0,2026-04-03 13:17:48-07:00
27.06,1.0,8.0,2026-04-03 20:18:08,37.08159,-121.59958,321.0,0.0,137.1,-12.6,,,,,20:18:08,10.7,-1.0,10.6,0.0,114.0,0.1,-0.02,1.0,99.0,8.0,24.0,0.0,29.96,1190.0,,,79.0,,,,,0.0,0.0,,,,,,,,,,,,,,,,,,,0.0,16.0,0.0,0.0,30.2,0.0,,0.0,0.0,,,33.1,0.0,0.0,-0.6,8.3,6.5,,,,,17.0,18.0,17.0,19.0,17.0,19.0,18.0,19.0,,,3.0,254.4,,0.0,2.0,0.001,,,0.653,0.853,0.0,15.6,,,,,,0.0,2026-04-03 13:17:48-07:00
28.06,1.0,8.0,2026-04-03 20:18:09,37.08159,-121.59958,321.0,0.0,137.1,-12.6,,,,,20:18:09,10.7,-1.1,10.6,0.0,114.0,0.1,-0.02,1.0,99.0,-25.0,24.0,0.0,29.96,1190.0,,,79.0,,,,,0.0,0.0,,,,,,,,,,,,,,,,,,,0.0,16.0,0.0,0.0,30.2,0.0,,0.0,0.0,,,33.1,0.0,0.0,-0.6,8.3,6.5,,,,,17.0,19.0,17.0,19.0,18.0,19.0,18.0,19.0,,,3.0,254.4,,0.0,2.0,0.001,,,0.654,0.853,0.0,15.6,,,,,,0.0,2026-04-03 13:17:48-07:00
29.06,1.0,8.0,2026-04-03 20:18:10,37.08159,-121.59958,320.0,0.0,137.1,-12.6,,,,,20:18:10,10.7,-1.1,10.6,0.0,114.0,0.1,-0.02,1.0,99.0,-22.0,24.0,0.0,29.96,1189.0,,,79.0,,,,,0.0,0.0,,,,,,,,,,,,,,,,,,,0.0,16.0,0.0,0.0,30.2,0.0,,0.0,0.0,,,33.1,0.0,0.0,-0.6,8.3,6.5,,,,,17.0,18.0,17.0,19.0,17.0,19.0,18.0,19.0,,,3.0,254.4,,0.0,2.0,0.001,,,0.653,0.85,0.0,15.6,,,,,,0.0,2026-04-03 13:17:48-07:00
30.06,1.0,8.0,2026-04-03 20:18:11,37.08159,-121.59958,320.0,0.0,137.1,-12.6,,,,,20:18:11,10.7,-1.1,10.5,0.0,114.0,0.1,-0.02,1.0,99.0,-30.0,24.0,0.0,29.96,1190.0,,,79.0,,,,,0.0,0.0,,,,,,,,,,,,,,,,,,,0.0,16.0,0.0,0.0,30.2,0.0,,0.0,0.0,,,33.1,0.0,0.0,-0.6,8.3,6.5,,,,,17.0,18.0,17.0,19.0,17.0,19.0,18.0,19.0,,,3.0,254.4,,0.0,2.0,0.001,,,0.653,0.85,0.0,15.6,,,,,,0.0,2026-04-03 13:17:48-07:00
31.06,1.0,8.0,2026-04-03 20:18:12,37.08159,-121.59959,320.0,0.0,137.1,-12.6,,,,,20:18:12,10.7,-1.0,10.6,0.0,113.0,0.1,-0.02,1.0,99.0,-42.0,24.0,0.0,29.96,1190.0,,,79.0,,,,,0.0,0.0,,,,,,,,,,,,,,,,,,,0.0,16.0,0.0,0.0,30.2,0.0,,0.0,0.0,,,33.1,0.0,0.0,-0.6,8.3,6.5,,,,,17.0,18.0,17.0,19.0,17.0,19.0,18.0,19.0,,,3.0,254.4,,0.0,2.0,0.001,,,0.653,0.85,0.0,15.6,,,,,,0.0,2026-04-03 13:17:48-07:00
32.06,1.0,8.0,2026-04-03 20:18:13,37.08159,-121.59959,320.0,0.0,137.1,-12.6,,,,,20:18:13,10.7,-1.0,10.6,0.0,111.0,0.1,-0.02,1.0,99.0,-88.0,24.0,0.0,29.96,1190.0,,,79.0,,,,,0.0,0.0,,,,,,,,,,,,,,,,,,,0.0,16.0,0.0,0.0,30.2,0.0,,0.0,0.0,,,33.1,0.0,0.0,-0.6,8.3,6.5,,,,,17.0,18.0,17.0,19.0,17.0,19.0,18.0,19.0,,,3.0,254.4,,0.0,2.0,0.001,,,0.653,0.851,0.0,15.6,,,,,,0.0,2026-04-03 13:17:48-07:00
33.06,1.0,8.0,2026-04-03 20:18:14,37.08159,-121.59959,320.0,0.0,137.1,-12.6,,,,,20:18:14,10.7,-1.0,10.6,0.0,110.0,0.0,-0.02,1.0,99.0,-77.0,24.0,0.0,29.96,1195.0,,,79.0,,,,,0.0,0.0,,,,,,,,,,,,,,,,,,,0.0,16.0,0.0,0.0,30.2,0.0,,0.0,0.0,,,33.1,0.0,0.0,-0.6,8.3,6.5,,,,,17.0,19.0,17.0,19.0,18.0,19.0,18.0,19.0,,,3.0,254.4,,0.0,2.0,0.001,,,0.653,0.851,0.0,15.6,,,,,,0.0,2026-04-03 13:17:48-07:00
34.06,1.0,8.0,2026-04-03 20:18:15,37.08159,-121.59959,321.0,0.1,137.1,-12.6,,,,,20:18:15,10.6,-1.1,10.6,0.0,108.0,0.0,-0.02,1.0,99.0,-96.0,24.0,0.0,29.96,1195.0,,,79.0,,,,,0.0,0.0,,,,,,,,,,,,,,,,,,,0.0,16.0,0.0,0.0,30.2,0.0,,0.0,0.0,,,33.1,0.0,0.0,-0.6,8.3,6.5,,,,,17.0,19.0,17.0,19.0,18.0,19.0,18.0,19.0,,,3.0,254.4,,0.0,2.0,0.001,,,0.653,0.853,0.0,15.6,,,,,,0.0,2026-04-03 13:17:48-07:00
35.06,1.0,8.0,2026-04-03 20:18:16,37.08158,-121.59959,321.0,0.0,137.1,-12.6,,,,,20:18:16,10.7,-1.0,10.6,0.0,107.0,0.1,-0.01,1.0,99.0,-82.0,24.0,0.0,29.96,1195.0,,,79.0,,,,,0.0,0.0,,,,,,,,,,,,,,,,,,,0.0,16.0,0.0,0.0,30.2,0.0,,0.0,0.0,,,33.1,0.0,0.0,-0.6,8.3,6.5,,,,,17.0,19.0,17.0,19.0,18.0,19.0,18.0,19.0,,,2.0,254.4,,0.0,2.0,0.001,,,0.653,0.854,0.0,15.6,,,,,,0.0,2026-04-03 13:17:48-07:00
36.06,1.0,8.0,2026-04-03 20:18:17,37.08158,-121.59959,321.0,0.0,137.1,-12.6,,,,,20:18:17,10.7,-1.0,10.5,0.0,105.0,0.1,-0.02,1.0,99.0,-109.0,24.0,0.0,29.96,1190.0,,,79.0,,,,,0.0,0.0,,,,,,,,,,,,,,,,,,,0.0,16.0,0.0,0.0,30.2,0.0,,0.0,0.0,,,33.1,0.0,0.0,-0.6,8.3,6.5,,,,,17.0,19.0,17.0,19.0,18.0,19.0,18.0,19.0,,,2.0,254.4,,0.0,2.0,0.001,,,0.653,0.856,0.0,15.6,,,,,,0.0,2026-04-03 13:17:48-07:00
37.06,1.0,8.0,2026-04-03 20:18:18,37.08158,-121.59959,321.0,0.0,137.1,-12.6,,,,,20:18:18,10.7,-1.0,10.5,0.0,103.0,0.1,-0.02,1.0,99.0,-129.0,24.0,0.0,29.96,1190.0,,,79.0,,,,,0.0,0.0,,,,,,,,,,,,,,,,,,,0.0,16.0,0.0,0.0,30.2,0.0,,0.0,0.0,,,33.1,0.0,0.0,-0.6,8.3,6.5,,,,,17.0,19.0,17.0,19.0,18.0,19.0,18.0,19.0,,,1.0,254.4,,0.0,2.0,0.001,,,0.653,0.852,0.0,15.6,,,,,,0.0,2026-04-03 13:17:48-07:00
38.06,1.0,8.0,2026-04-03 20:18:19,37.08158,-121.59959,321.0,0.0,137.1,-12.6,,,,,20:18:19,10.7,-1.0,10.6,0.0,102.0,0.1,-0.02,1.0,99.0,-102.0,24.0,0.0,29.96,1190.0,,,79.0,,,,,0.0,0.0,,,,,,,,,,,,,,,,,,,0.0,16.0,0.0,0.0,30.2,0.0,,0.0,0.0,,,33.1,0.0,0.0,-0.6,8.3,6.5,,,,,17.0,19.0,17.0,19.0,18.0,19.0,18.0,19.0,,,0.0,254.4,,0.0,2.0,0.001,,,0.654,0.853,0.0,15.6,,,,,,0.0,2026-04-03 13:17:48-07:00
39.06,1.0,8.0,2026-04-03 20:18:20,37.08158,-121.59959,321.0,0.0,137.1,-12.6,,,,,20:18:20,10.7,-1.1,10.6,0.0,100.0,0.1,-0.02,1.0,99.0,-99.0,24.0,0.0,29.96,1194.0,,,79.0,,,,,0.0,0.0,,,,,,,,,,,,,,,,,,,0.0,16.0,0.0,0.0,30.2,0.0,,0.0,0.0,,,33.1,0.0,0.0,-0.6,8.3,6.5,,,,,17.0,19.0,17.0,19.0,18.0,19.0,18.0,19.0,,,-1.0,254.4,,0.0,2.0,0.001,,,0.653,0.856,0.0,15.6,,,,,,0.0,2026-04-03 13:17:48-07:00
40.06,1.0,8.0,2026-04-03 20:18:21,37.08158,-121.59959,321.0,0.0,137.1,-12.6,,,,,20:18:21,10.7,-1.0,10.6,0.0,100.0,0.1,-0.02,1.0,99.0,-73.0,24.0,0.0,29.96,1194.0,,,79.0,,,,,0.0,0.0,,,,,,,,,,,,,,,,,,,0.0,16.0,0.0,0.0,30.2,0.0,,0.0,0.0,,,33.1,0.0,0.0,-0.6,8.3,6.5,,,,,17.0,19.0,18.0,19.0,18.0,19.0,18.0,19.0,,,-1.0,254.4,,0.0,2.0,0.001,,,0.653,0.858,0.0,15.6,,,,,,0.0,2026-04-03 13:17:48-07:00
41.06,1.0,8.0,2026-04-03 20:18:22,37.08158,-121.59959,321.0,0.0,137.1,-12.6,,,,,20:18:22,10.7,-1.1,10.6,0.0,98.0,0.1,-0.02,1.0,99.0,-72.0,24.0,0.0,29.96,1194.0,,,79.0,,,,,0.0,0.0,,,,,,,,,,,,,,,,,,,0.0,16.0,0.0,0.0,30.2,0.0,,0.0,0.0,,,33.1,0.0,0.0,-0.6,8.3,6.5,,,,,17.0,19.0,17.0,19.0,17.0,19.0,18.0,19.0,,,-1.0,254.3,,0.0,2.0,0.001,,,0.653,0.865,0.0,15.6,,,,,,0.0,2026-04-03 13:17:48-07:00
42.06,1.0,8.0,2026-04-03 20:18:23,37.08158,-121.59959,321.0,0.0,137.1,-12.6,,,,,20:18:23,10.7,-1.1,10.6,0.0,98.0,0.1,-0.02,1.0,99.0,-53.0,24.0,0.0,29.96,1190.0,,,79.0,,,,,0.0,0.0,,,,,,,,,,,,,,,,,,,0.0,16.0,0.0,0.0,30.2,0.0,,0.0,0.0,,,33.1,0.0,0.0,-0.6,8.3,6.5,,,,,17.0,19.0,17.0,19.0,17.0,19.0,18.0,19.0,,,-1.0,244.0,,0.0,2.0,0.001,,,0.653,0.867,0.0,15.6,,,,,,0.0,2026-04-03 13:17:48-07:00
43.06,1.0,8.0,2026-04-03 20:18:24,37.08158,-121.59959,321.0,0.0,137.1,-12.6,,,,,20:18:24,10.8,-1.1,10.5,0.0,98.0,0.0,-0.02,1.0,99.0,-18.0,24.0,0.0,29.96,1190.0,,,79.0,,,,,0.0,0.0,,,,,,,,,,,,,,,,,,,0.0,16.0,0.0,0.0,30.2,0.0,,0.0,0.0,,,33.1,0.0,0.0,-0.6,8.3,6.5,,,,,17.0,19.0,17.0,19.0,17.0,19.0,18.0,19.0,,,-1.0,189.9,,0.0,2.0,0.001,,,0.653,0.868,0.0,15.6,,,,,,0.0,2026-04-03 13:17:48-07:00
44.06,1.0,8.0,2026-04-03 20:18:25,37.08158,-121.59959,321.0,0.0,137.1,-12.6,,,,,20:18:25,10.7,-1.0,10.6,0.0,98.0,0.1,-0.02,1.0,99.0,-12.0,24.0,0.0,29.96,1191.0,,,79.0,,,,,0.0,0.0,,,,,,,,,,,,,,,,,,,0.0,16.0,0.0,0.0,30.2,0.0,,0.0,0.0,,,33.1,0.0,0.0,-0.6,8.3,6.5,,,,,17.0,19.0,17.0,19.0,17.0,19.0,18.0,19.0,,,-1.0,147.9,,0.0,2.0,0.001,,,0.653,0.87,0.0,15.6,,,,,,0.0,2026-04-03 13:17:48-07:00
45.06,1.0,8.0,2026-04-03 20:18:26,37.08157,-121.59959,322.0,0.0,137.1,-12.6,,,,,20:18:26,10.7,-1.0,10.6,0.0,98.0,0.1,-0.02,1.0,99.0,-26.0,24.0,0.0,29.96,1191.0,,,79.0,,,,,0.0,0.0,,,,,,,,,,,,,,,,,,,0.0,16.0,0.0,0.0,30.2,0.0,,0.0,0.0,,,33.1,0.0,0.0,-0.6,8.3,6.5,,,,,17.0,19.0,18.0,19.0,18.0,19.0,18.0,19.0,,,-1.0,115.1,,0.0,2.0,0.001,,,0.653,0.869,0.0,15.6,,,,,,0.0,2026-04-03 13:17:48-07:00
46.06,1.0,8.0,2026-04-03 20:18:27,37.08157,-121.59959,322.0,0.0,137.1,-12.6,,,,,20:18:27,10.7,-1.0,10.7,0.0,98.0,0.1,-0.02,1.0,99.0,-25.0,24.0,0.0,29.96,1191.0,,,79.0,,,,,0.0,0.0,,,,,,,,,,,,,,,,,,,0.0,16.0,0.0,0.0,30.2,0.0,,0.0,0.0,,,33.1,0.0,0.0,-0.6,8.3,6.5,,,,,17.0,19.0,18.0,19.0,18.0,19.0,18.0,19.0,,,-1.0,89.7,,0.0,2.0,0.001,,,0.653,0.875,0.0,15.6,,,,,,0.0,2026-04-03 13:17:48-07:00
47.06,1.0,8.0,2026-04-03 20:18:28,37.08157,-121.59959,322.0,0.0,137.1,-12.6,,,,,20:18:28,10.7,-1.0,10.7,0.0,97.0,0.1,-0.02,1.0,99.0,-44.0,24.0,0.0,29.96,1200.0,,,79.0,,,,,0.0,0.0,,,,,,,,,,,,,,,,,,,0.0,16.0,0.0,0.0,30.2,0.0,,0.0,0.0,,,33.1,0.0,0.0,-0.6,8.3,6.5,,,,,17.0,19.0,18.0,19.0,18.0,19.0,18.0,19.0,,,-1.0,69.9,,0.0,2.0,0.001,,,0.653,0.884,0.0,15.6,,,,,,0.0,2026-04-03 13:17:48-07:00
48.06,1.0,8.0,2026-04-03 20:18:29,37.08157,-121.59959,322.0,0.1,137.1,-12.6,,,,,20:18:29,10.7,-1.0,10.7,0.0,97.0,0.1,-0.02,1.0,99.0,-3.0,24.0,0.0,29.96,1200.0,,,79.0,,,,,0.0,0.0,,,,,,,,,,,,,,,,,,,0.0,16.0,0.0,0.0,30.2,0.0,,0.0,0.0,,,33.1,0.0,0.0,-0.7,8.3,6.5,,,,,17.0,19.0,18.0,19.0,18.0,19.0,18.0,19.0,,,-1.0,54.6,,0.0,2.0,0.001,,,0.653,0.887,0.0,15.6,,,,,,0.0,2026-04-03 13:17:48-07:00
49.06,1.0,8.0,2026-04-03 20:18:30,37.08157,-121.59959,322.0,0.0,137.1,-12.6,,,,,20:18:30,10.7,-1.0,10.7,0.0,97.0,0.1,-0.02,1.0,99.0,5.0,24.0,0.0,29.96,1200.0,,,79.0,,,,,0.0,0.0,,,,,,,,,,,,,,,,,,,0.0,16.0,0.0,0.0,30.2,0.0,,0.0,0.0,,,33.1,0.0,0.0,-0.7,8.3,6.5,,,,,17.0,19.0,18.0,19.0,18.0,19.0,18.0,19.0,,,-1.0,42.6,,0.0,2.0,0.001,,,0.654,0.885,0.0,15.6,,,,,,0.0,2026-04-03 13:17:48-07:00
50.06,1.0,8.0,2026-04-03 20:18:31,37.08157,-121.59959,323.0,0.0,137.1,-12.6,,,,,20:18:31,10.7,-1.0,10.7,0.0,97.0,0.1,-0.02,1.0,99.0,-34.0,24.0,0.0,29.96,1199.0,,,79.0,,,,,0.0,0.0,,,,,,,,,,,,,,,,,,,0.0,16.0,0.0,0.0,30.2,0.0,,0.0,0.0,,,33.1,0.0,0.0,-0.7,8.3,6.5,,,,,17.0,19.0,17.0,19.0,18.0,19.0,18.0,19.0,,,-1.0,33.3,,0.0,2.0,0.001,,,0.653,0.863,0.0,15.6,,,,,,0.0,2026-04-03 13:17:48-07:00
51.06,1.0,8.0,2026-04-03 20:18:32,37.08157,-121.59959,323.0,0.0,137.1,-12.6,,,,,20:18:32,10.7,-1.0,10.7,0.0,96.0,0.1,-0.02,1.0,99.0,-42.0,24.0,0.0,29.96,1199.0,,,79.0,,,,,0.0,0.0,,,,,,,,,,,,,,,,,,,0.0,16.0,0.0,0.0,30.2,0.0,,0.0,0.0,,,33.1,0.0,0.0,-0.7,8.3,6.5,,,,,17.0,19.0,17.0,19.0,18.0,19.0,18.0,19.0,,,-1.0,26.1,,0.0,2.0,0.001,,,0.653,0.857,0.0,15.6,,,,,,0.0,2026-04-03 13:17:48-07:00
52.06,1.0,8.0,2026-04-03 20:18:33,37.08157,-121.59959,323.0,0.0,137.1,-12.6,,,,,20:18:33,10.7,-1.0,10.7,0.0,96.0,0.1,-0.02,1.0,99.0,8.0,24.0,0.0,29.96,1199.0,,,79.0,,,,,0.0,0.0,,,,,,,,,,,,,,,,,,,0.0,16.0,0.0,0.0,30.2,0.0,,0.0,0.0,,,33.1,0.0,0.0,-0.7,8.3,6.5,,,,,17.0,19.0,17.0,19.0,18.0,19.0,18.0,19.0,,,-1.0,20.5,,0.0,2.0,0.001,,,0.653,0.85,0.0,15.6,,,,,,0.0,2026-04-03 13:17:48-07:00
53.06,1.0,8.0,2026-04-03 20:18:34,37.08157,-121.59959,323.0,0.0,137.1,-12.6,,,,,20:18:34,10.7,-1.0,10.7,0.0,96.0,0.1,-0.02,1.0,99.0,-2.0,24.0,0.0,29.96,1208.0,,,79.0,,,,,0.0,0.0,,,,,,,,,,,,,,,,,,,0.0,16.0,0.0,0.0,30.2,0.0,,0.0,0.0,,,33.1,0.0,0.0,-0.7,8.3,6.5,,,,,17.0,19.0,17.0,19.0,18.0,19.0,18.0,19.0,,,-1.0,16.2,,0.0,2.0,0.001,,,0.653,0.85,0.0,15.6,,,,,,0.0,2026-04-03 13:17:48-07:00
54.06,1.0,8.0,2026-04-03 20:18:35,37.08157,-121.59959,323.0,0.0,137.1,-12.6,,,,,20:18:35,10.7,-1.0,10.7,0.0,96.0,0.1,-0.02,1.0,99.0,-4.0,24.0,0.0,29.96,1208.0,,,79.0,,,,,0.0,0.0,,,,,,,,,,,,,,,,,,,0.0,16.0,0.0,0.0,30.2,0.0,,0.0,0.0,,,33.1,0.0,0.0,-0.7,8.3,6.5,,,,,17.0,19.0,17.0,19.0,18.0,19.0,18.0,19.0,,,-1.0,12.8,,0.0,2.0,0.001,,,0.653,0.846,0.0,15.6,,,,,,0.0,2026-04-03 13:17:48-07:00
55.06,1.0,8.0,2026-04-03 20:18:36,37.08157,-121.59959,323.0,0.0,137.1,-12.6,,,,,20:18:36,10.7,-1.0,10.7,0.0,96.0,0.1,-0.02,1.0,99.0,-28.0,24.0,0.0,29.96,1208.0,,,79.0,,,,,0.0,0.0,,,,,,,,,,,,,,,,,,,0.0,16.0,0.0,0.0,30.2,0.0,,0.0,0.0,,,33.1,0.0,0.0,-0.7,8.3,6.5,,,,,17.0,19.0,17.0,19.0,18.0,19.0,18.0,19.0,,,-1.0,10.1,,0.0,2.0,0.001,,,0.653,0.847,0.0,15.6,,,,,,0.0,2026-04-03 13:17:48-07:00
56.06,1.0,8.0,2026-04-03 20:18:37,37.08157,-121.59959,324.0,0.0,137.1,-12.6,,,,,20:18:37,10.7,-1.0,10.6,0.0,96.0,0.1,-0.02,1.0,99.0,-52.0,24.0,0.0,29.96,1208.0,,,79.0,,,,,0.0,0.0,,,,,,,,,,,,,,,,,,,0.0,16.0,0.0,0.0,30.2,0.0,,0.0,0.0,,,33.1,0.0,0.0,-0.7,8.3,6.5,,,,,17.0,19.0,17.0,19.0,18.0,19.0,18.0,19.0,,,-2.0,8.1,,0.0,2.0,0.001,,,0.653,0.846,0.0,15.6,,,,,,0.0,2026-04-03 13:17:48-07:00
57.06,1.0,8.0,2026-04-03 20:18:38,37.08157,-121.59959,324.0,0.0,137.1,-12.6,,,,,20:18:38,10.7,-1.1,10.6,0.0,95.0,0.1,-0.02,1.0,99.0,-41.0,24.0,0.0,29.96,1208.0,,,79.0,,,,,0.0,0.0,,,,,,,,,,,,,,,,,,,0.0,16.0,0.0,0.0,30.2,0.0,,0.0,0.0,,,33.1,0.0,0.0,-0.7,8.3,6.5,,,,,17.0,19.0,18.0,19.0,18.0,19.0,18.0,20.0,,,-2.0,6.5,,0.0,2.0,0.001,,,0.653,0.848,0.0,15.6,,,,,,0.0,2026-04-03 13:17:48-07:00
58.06,1.0,8.0,2026-04-03 20:18:39,37.08157,-121.59959,324.0,0.0,137.1,-12.6,,,,,20:18:39,10.7,-1.0,10.7,0.0,95.0,0.1,-0.02,1.0,99.0,-35.0,24.0,0.0,29.96,1208.0,,,79.0,,,,,0.0,0.0,,,,,,,,,,,,,,,,,,,0.0,16.0,0.0,0.0,30.2,0.0,,0.0,0.0,,,33.1,0.0,0.0,-0.7,8.3,6.5,,,,,17.0,19.0,18.0,19.0,18.0,19.0,18.0,20.0,,,-3.0,5.3,,0.0,2.0,0.001,,,0.653,0.847,0.0,15.6,,,,,,0.0,2026-04-03 13:17:48-07:00
59.06,1.0,8.0,2026-04-03 20:18:40,37.08157,-121.59959,324.0,0.0,137.1,-12.6,,,,,20:18:40,10.7,-1.0,10.7,0.0,95.0,0.1,-0.02,1.0,99.0,-28.0,24.0,0.0,29.96,1217.0,,,79.0,,,,,0.0,0.0,,,,,,,,,,,,,,,,,,,0.0,16.0,0.0,0.0,30.2,0.0,,0.0,0.0,,,33.1,0.0,0.0,-0.7,8.3,6.5,,,,,17.0,19.0,18.0,19.0,18.0,19.0,18.0,20.0,,,-3.0,4.3,,0.0,2.0,0.001,,,0.653,0.844,0.0,15.6,,,,,,0.0,2026-04-03 13:17:48-07:00
60.06,1.0,8.0,2026-04-03 20:18:41,37.08157,-121.59959,324.0,0.0,137.1,-12.6,,,,,20:18:41,10.7,-1.0,10.7,0.0,95.0,0.1,-0.02,1.0,99.0,-17.0,24.0,0.0,29.96,1217.0,,,79.0,,,,,0.0,0.0,,,,,,,,,,,,,,,,,,,0.0,16.0,0.0,0.0,30.2,0.0,,0.0,0.0,,,33.1,0.0,0.0,-0.7,8.3,6.5,,,,,17.0,19.0,18.0,19.0,18.0,19.0,18.0,20.0,,,-3.0,3.6,,0.0,2.0,0.001,,,0.653,0.842,0.0,15.6,,,,,,0.0,2026-04-03 13:17:48-07:00
61.06,1.0,8.0,2026-04-03 20:18:42,37.08157,-121.59959,325.0,0.0,137.1,-12.6,,,,,20:18:42,10.7,-1.0,10.7,0.0,94.0,0.1,-0.02,1.0,99.0,-46.0,24.0,0.0,29.96,1217.0,,,79.0,,,,,0.0,0.0,,,,,,,,,,,,,,,,,,,0.0,16.0,0.0,0.0,30.2,0.0,,0.0,0.0,,,33.1,0.0,0.0,-0.7,8.3,6.5,,,,,17.0,19.0,18.0,19.0,18.0,19.0,18.0,20.0,,,-1.0,3.0,,0.0,2.0,0.001,,,0.653,0.842,0.0,15.6,,,,,,0.0,2026-04-03 13:17:48-07:00
62.06,1.0,8.0,2026-04-03 20:18:43,37.08157,-121.59959,325.0,0.0,137.1,-12.6,,,,,20:18:43,10.7,-1.0,10.7,0.0,92.0,0.1,-0.02,1.0,99.0,-59.0,24.0,0.0,29.96,1214.0,,,79.0,,,,,0.0,0.0,,,,,,,,,,,,,,,,,,,0.0,16.0,0.0,0.0,30.2,0.0,,0.0,0.0,,,33.1,0.0,0.0,-0.7,8.3,6.5,,,,,17.0,19.0,18.0,19.0,18.0,19.0,18.0,20.0,,,0.0,2.5,,0.0,2.0,0.001,,,0.653,0.842,0.0,15.6,,,,,,0.0,2026-04-03 13:17:48-07:00
63.06,1.0,8.0,2026-04-03 20:18:44,37.08157,-121.59959,325.0,0.0,137.1,-12.6,,,,,20:18:44,10.7,-0.9,10.7,0.0,90.0,0.1,-0.02,1.0,99.0,-103.0,24.0,0.0,29.96,1214.0,,,79.0,,,,,0.0,0.0,,,,,,,,,,,,,,,,,,,0.0,16.0,0.0,0.0,30.2,0.0,,0.0,0.0,,,33.1,0.0,0.0,-0.7,8.3,6.5,,,,,17.0,19.0,18.0,19.0,18.0,19.0,18.0,20.0,,,0.0,2.2,,0.0,2.0,0.001,,,0.653,0.842,0.0,15.6,,,,,,0.0,2026-04-03 13:17:48-07:00
64.06,1.0,8.0,2026-04-03 20:18:45,37.08157,-121.59959,326.0,0.1,137.1,-12.6,,,,,20:18:45,10.7,-1.0,10.8,0.0,88.0,0.1,-0.02,1.0,99.0,-125.0,24.0,0.0,29.96,1214.0,,,79.0,,,,,0.0,0.0,,,,,,,,,,,,,,,,,,,0.0,16.0,0.0,0.0,30.2,0.0,,0.0,0.0,,,33.1,0.0,0.0,-0.7,8.3,6.5,,,,,17.0,19.0,18.0,19.0,18.0,19.0,18.0,20.0,,,1.0,1.9,,0.0,2.0,0.001,,,0.653,0.842,0.0,15.6,,,,,,0.0,2026-04-03 13:17:48-07:00
65.06,1.0,8.0,2026-04-03 20:18:46,37.08157,-121.59959,326.0,0.0,137.1,-12.6,,,,,20:18:46,10.7,-1.0,10.8,0.0,88.0,0.1,-0.02,1.0,99.0,-80.0,24.0,0.0,29.96,1218.0,,,79.0,,,,,0.0,0.0,,,,,,,,,,,,,,,,,,,0.0,16.0,0.0,0.0,30.2,0.0,,0.0,0.0,,,33.1,0.0,0.0,-0.7,8.3,6.5,,,,,17.0,19.0,18.0,19.0,18.0,19.0,18.0,20.0,,,1.0,1.7,,0.0,2.0,0.001,,,0.653,0.84,0.0,15.6,,,,,,0.0,2026-04-03 13:17:48-07:00
66.06,1.0,8.0,2026-04-03 20:18:47,37.08157,-121.59959,327.0,0.0,137.1,-12.6,,,,,20:18:47,10.7,-1.0,10.7,0.0,87.0,0.1,-0.02,1.0,99.0,-42.0,24.0,0.0,29.96,1218.0,,,79.0,,,,,0.0,0.0,,,,,,,,,,,,,,,,,,,0.0,16.0,0.0,0.0,30.2,0.0,,0.0,0.0,,,33.1,0.0,0.0,-0.7,8.3,6.5,,,,,17.0,19.0,18.0,19.0,18.0,19.0,18.0,20.0,,,2.0,1.5,,0.0,2.0,0.001,,,0.653,0.841,0.0,15.6,,,,,,0.0,2026-04-03 13:17:48-07:00
67.06,1.0,8.0,2026-04-03 20:18:48,37.08155,-121.59959,327.0,0.0,137.1,-12.6,,,,,20:18:48,10.7,-1.0,10.7,0.0,87.0,0.1,-0.02,1.0,99.0,-12.0,24.0,0.0,29.96,1218.0,,,79.0,,,,,0.0,0.0,,,,,,,,,,,,,,,,,,,0.0,16.0,0.0,0.0,30.2,0.0,,0.0,0.0,,,33.1,0.0,0.0,-0.7,8.3,6.5,,,,,17.0,19.0,18.0,19.0,18.0,19.0,18.0,20.0,,,2.0,1.4,,0.0,2.0,0.001,,,0.653,0.842,0.0,15.6,,,,,,0.0,2026-04-03 13:17:48-07:00
68.06,1.0,8.0,2026-04-03 20:18:49,37.08155,-121.59959,333.0,0.0,137.1,-12.6,,,,,20:18:49,10.7,-1.0,10.7,0.0,87.0,0.1,-0.02,1.0,99.0,5.0,24.0,0.0,29.96,1218.0,,,79.0,,,,,0.0,0.0,,,,,,,,,,,,,,,,,,,0.0,16.0,0.0,0.0,30.2,0.0,,0.0,0.0,,,33.1,0.0,0.0,-0.7,8.3,6.5,,,,,18.0,19.0,18.0,19.0,18.0,19.0,18.0,20.0,,,2.0,1.3,,0.0,2.0,0.001,,,0.653,0.842,0.0,15.6,,,,,,0.0,2026-04-03 13:17:48-07:00
69.06,1.0,8.0,2026-04-03 20:18:50,37.08155,-121.59959,334.0,0.0,137.1,-12.6,,,,,20:18:50,10.8,-1.0,10.7,0.0,87.0,0.1,-0.02,1.0,99.0,42.0,24.0,0.0,29.96,1218.0,,,79.0,,,,,0.0,0.0,,,,,,,,,,,,,,,,,,,0.0,16.0,0.0,0.0,30.2,0.0,,0.0,0.0,,,33.1,0.0,0.0,-0.7,8.3,6.5,,,,,18.0,19.0,18.0,19.0,18.0,19.0,18.0,20.0,,,2.0,1.2,,0.0,2.0,0.001,,,0.653,0.842,0.0,15.6,,,,,,0.0,2026-04-03 13:17:48-07:00
70.06,1.0,8.0,2026-04-03 20:18:51,37.08155,-121.59959,334.0,0.0,137.1,-12.6,,,,,20:18:51,10.7,-1.0,10.7,0.0,87.0,0.0,-0.02,1.0,99.0,10.0,24.0,0.0,29.96,1218.0,,,79.0,,,,,0.0,0.0,,,,,,,,,,,,,,,,,,,0.0,16.0,0.0,0.0,30.2,0.0,,0.0,0.0,,,33.1,0.0,0.0,-0.7,8.3,6.5,,,,,18.0,19.0,18.0,19.0,18.0,19.0,18.0,20.0,,,2.0,1.2,,0.0,2.0,0.001,,,0.653,0.844,0.0,15.6,,,,,,0.0,2026-04-03 13:17:48-07:00
71.06,1.0,8.0,2026-04-03 20:18:52,37.08155,-121.59959,335.0,0.0,137.1,-12.6,,,,,20:18:52,10.8,-1.0,10.7,0.0,87.0,0.1,-0.02,1.0,99.0,-16.0,24.0,0.0,29.96,1219.0,,,79.0,,,,,0.0,0.0,,,,,,,,,,,,,,,,,,,0.0,16.0,0.0,0.0,30.2,0.0,,0.0,0.0,,,33.1,0.0,0.0,-0.7,8.3,6.5,,,,,18.0,19.0,18.0,19.0,18.0,19.0,18.0,20.0,,,2.0,1.2,,0.0,2.0,0.001,,,0.653,0.845,0.0,15.6,,,,,,0.0,2026-04-03 13:17:48-07:00
72.06,1.0,8.0,2026-04-03 20:18:53,37.08155,-121.59959,335.0,0.0,137.1,-12.6,,,,,20:18:53,10.8,-1.0,10.7,0.0,87.0,0.1,-0.02,1.0,99.0,-26.0,24.0,0.0,29.96,1219.0,,,79.0,,,,,0.0,0.0,,,,,,,,,,,,,,,,,,,0.0,16.0,0.0,0.0,30.2,0.0,,0.0,0.0,,,33.1,0.0,0.0,-0.7,8.3,6.5,,,,,18.0,19.0,18.0,19.0,18.0,19.0,18.0,20.0,,,2.0,1.1,,0.0,2.0,0.001,,,0.653,0.845,0.0,15.6,,,,,,0.0,2026-04-03 13:17:48-07:00
73.06,1.0,8.0,2026-04-03 20:18:54,37.08155,-121.59959,336.0,0.0,137.1,-12.6,,,,,20:18:54,10.8,-1.0,10.7,0.0,87.0,0.1,-0.02,1.0,99.0,-4.0,24.0,0.0,29.96,1219.0,,,79.0,,,,,0.0,0.0,,,,,,,,,,,,,,,,,,,0.0,16.0,0.0,0.0,30.2,0.0,,0.0,0.0,,,33.1,0.0,0.0,-0.7,8.3,6.5,,,,,18.0,19.0,18.0,19.0,18.0,19.0,18.0,20.0,,,2.0,1.1,,0.0,2.0,0.001,,,0.653,0.845,0.0,15.6,,,,,,0.0,2026-04-03 13:17:48-07:00
74.06,1.0,8.0,2026-04-03 20:18:55,37.08155,-121.59959,336.0,0.0,137.1,-12.6,,,,,20:18:55,10.7,-1.0,10.7,0.0,87.0,0.1,-0.02,1.0,99.0,6.0,24.0,0.0,29.96,1228.0,,,79.0,,,,,0.0,0.0,,,,,,,,,,,,,,,,,,,0.0,16.0,0.0,0.0,30.2,0.0,,0.0,0.0,,,33.1,0.0,0.0,-0.7,8.3,6.5,,,,,18.0,19.0,18.0,20.0,18.0,19.0,19.0,20.0,,,2.0,1.0,,0.0,2.0,0.001,,,0.653,0.846,0.0,15.6,,,,,,0.0,2026-04-03 13:17:48-07:00
75.06,1.0,8.0,2026-04-03 20:18:56,37.08155,-121.59959,336.0,0.0,137.1,-12.6,,,,,20:18:56,10.8,-1.0,10.7,0.0,87.0,0.1,-0.02,1.0,99.0,41.0,24.0,0.0,29.96,1228.0,,,79.0,,,,,0.0,0.0,,,,,,,,,,,,,,,,,,,0.0,16.0,0.0,0.0,30.2,0.0,,0.0,0.0,,,33.1,0.0,0.0,-0.7,8.3,6.5,,,,,18.0,19.0,18.0,20.0,18.0,19.0,19.0,20.0,,,2.0,1.0,,0.0,2.0,0.001,,,0.653,0.848,0.0,15.6,,,,,,0.0,2026-04-03 13:17:48-07:00
76.06,1.0,8.0,2026-04-03 20:18:57,37.08155,-121.59959,336.0,0.0,137.1,-12.6,,,,,20:18:57,10.7,-1.0,10.7,0.0,87.0,0.0,-0.02,1.0,99.0,58.0,24.0,0.0,29.96,1228.0,,,79.0,,,,,0.0,0.0,,,,,,,,,,,,,,,,,,,0.0,16.0,0.0,0.0,30.2,0.0,,0.0,0.0,,,33.1,0.0,0.0,-0.7,8.3,6.5,,,,,17.0,19.0,18.0,20.0,18.0,19.0,19.0,20.0,,,1.0,1.0,,0.0,2.0,0.001,,,0.653,0.85,0.0,15.6,,,,,,0.0,2026-04-03 13:17:48-07:00
77.06,1.0,8.0,2026-04-03 20:18:58,37.08155,-121.59959,336.0,0.0,137.1,-12.6,,,,,20:18:58,10.7,-1.0,10.7,0.0,87.0,0.1,-0.02,1.0,99.0,40.0,25.0,0.0,29.96,1229.0,,,79.0,,,,,0.0,0.0,,,,,,,,,,,,,,,,,,,0.0,16.0,0.0,0.0,30.2,0.0,,0.0,0.0,,,33.1,0.0,0.0,-0.7,8.3,6.5,,,,,18.0,19.0,18.0,20.0,18.0,19.0,19.0,20.0,,,1.0,1.0,,0.0,2.0,0.001,,,0.653,0.853,0.0,15.6,,,,,,0.0,2026-04-03 13:17:48-07:00
78.06,1.0,8.0,2026-04-03 20:18:59,37.08155,-121.59959,336.0,0.0,137.1,-12.6,,,,,20:18:59,10.7,-1.0,10.7,0.0,87.0,0.1,-0.02,1.0,99.0,26.0,25.0,0.0,29.96,1229.0,,,79.0,,,,,0.0,0.0,,,,,,,,,,,,,,,,,,,0.0,16.0,0.0,0.0,30.2,0.0,,0.0,0.0,,,33.1,0.0,0.0,-0.7,8.3,6.5,,,,,18.0,19.0,18.0,20.0,18.0,19.0,19.0,20.0,,,1.0,1.0,,0.0,2.0,0.001,,,0.653,0.856,0.0,15.6,,,,,,0.0,2026-04-03 13:17:48-07:00
79.06,1.0,8.0,2026-04-03 20:19:00,37.08156,-121.59959,335.0,0.0,137.1,-12.6,,,,,20:19:00,10.7,-1.0,10.7,0.0,87.0,0.1,-0.02,1.0,99.0,36.0,25.0,0.0,29.96,1229.0,,,79.0,,,,,0.0,0.0,,,,,,,,,,,,,,,,,,,0.0,16.0,0.0,0.0,30.2,0.0,,0.0,0.0,,,33.1,0.0,0.0,-0.7,8.3,6.5,,,,,17.0,19.0,18.0,20.0,18.0,19.0,19.0,20.0,,,1.0,1.0,,0.0,2.0,0.001,,,0.653,0.858,0.0,15.6,,,,,,0.0,2026-04-03 13:17:48-07:00
80.06,1.0,8.0,2026-04-03 20:19:01,37.08156,-121.59959,335.0,0.0,137.1,-12.6,,,,,20:19:01,10.7,-1.0,10.7,0.0,87.0,0.1,-0.02,1.0,99.0,12.0,25.0,0.0,29.96,1239.0,,,79.0,,,,,0.0,0.0,,,,,,,,,,,,,,,,,,,0.0,16.0,0.0,0.0,30.2,0.0,,0.0,2.3,,,33.1,0.0,0.0,-0.6,8.3,6.5,,,,,17.0,19.0,18.0,19.0,18.0,19.0,19.0,20.0,,,1.0,1.0,,2.3,2.0,0.001,,,0.653,0.868,0.0,15.6,,,,,,0.0,2026-04-03 13:17:48-07:00
81.06,1.0,8.0,2026-04-03 20:19:02,37.08156,-121.59959,335.0,0.0,137.1,-12.6,,,,,20:19:02,10.7,-1.0,10.7,0.0,87.0,0.1,-0.02,1.0,99.0,2.0,25.0,0.0,29.96,1239.0,,,79.0,,,,,0.0,0.0,,,,,,,,,,,,,,,,,,,0.0,16.0,0.0,0.0,30.2,0.1,,0.1,18.7,,,33.1,0.0,0.0,-0.6,8.3,6.5,,,,,18.0,19.0,18.0,20.0,18.0,19.0,19.0,20.0,,,1.0,1.0,,18.7,2.0,0.001,,,0.653,0.89,0.0,15.6,,,,,,0.0,2026-04-03 13:17:48-07:00
82.06,1.0,8.0,2026-04-03 20:19:03,37.08156,-121.59959,334.0,0.0,137.1,-12.6,,,,,20:19:03,10.8,-1.0,10.7,0.0,87.0,0.1,-0.02,1.0,99.0,-12.0,25.0,0.0,29.96,1239.0,,,79.0,,,,,0.0,0.0,,,,,,,,,,,,,,,,,,,0.0,16.0,0.0,0.0,30.2,0.2,,0.2,30.2,,,33.1,0.0,0.0,-0.6,8.3,6.5,,,,,17.0,19.0,18.0,19.0,18.0,19.0,19.0,20.0,,,1.0,1.0,,30.2,2.0,0.001,,,0.653,0.889,0.0,15.6,,,,,,0.0,2026-04-03 13:17:48-07:00
83.06,1.0,8.0,2026-04-03 20:19:04,37.08157,-121.59959,334.0,0.0,137.1,-12.6,,,,,20:19:04,10.8,-1.0,10.7,0.0,87.0,0.1,-0.02,1.0,99.0,-22.0,25.0,0.0,29.96,1239.0,,,79.0,,,,,0.0,0.0,,,,,,,,,,,,,,,,,,,0.0,16.0,0.0,0.0,30.2,0.9,,0.9,31.4,,,33.1,0.0,0.0,-0.6,8.3,6.5,,,,,18.0,19.0,18.0,20.0,18.0,19.0,19.0,20.0,,,1.0,1.0,,31.4,2.0,0.001,,,0.653,0.869,0.0,15.6,,,,,,0.0,2026-04-03 13:17:48-07:00
84.06,1.0,8.0,2026-04-03 20:19:05,37.08157,-121.59959,334.0,0.0,137.1,-12.6,,,,,20:19:05,10.8,-1.0,10.7,0.0,87.0,0.1,-0.02,1.0,99.0,-11.0,25.0,0.0,29.96,1239.0,,,79.0,,,,,0.0,0.0,,,,,,,,,,,,,,,,,,,0.0,16.0,0.0,0.0,30.2,1.7,,1.7,31.4,,,33.1,0.0,0.0,-0.6,8.3,6.5,,,,,17.0,19.0,18.0,20.0,18.0,19.0,18.0,20.0,,,1.0,1.0,,31.4,2.0,0.001,,,0.653,0.862,0.0,15.6,,,,,,0.0,2026-04-03 13:17:48-07:00
85.06,1.0,8.0,2026-04-03 20:19:06,37.08157,-121.59959,334.0,0.0,137.1,-12.6,,,,,20:19:06,10.8,-1.0,10.7,0.0,87.0,0.1,-0.02,1.0,99.0,-39.0,25.0,0.0,29.96,1239.0,,,79.0,,,,,0.0,0.0,,,,,,,,,,,,,,,,,,,0.0,16.0,0.0,0.0,30.2,2.3,,2.3,31.1,,,33.1,0.0,0.0,-0.6,8.3,6.5,,,,,18.0,19.0,18.0,19.0,18.0,19.0,19.0,20.0,,,1.0,1.0,,31.1,2.0,0.001,,,0.653,0.859,0.0,15.6,,,,,,0.0,2026-04-03 13:17:48-07:00
86.06,2.0,8.0,2026-04-03 20:19:07,37.08157,-121.59959,340.0,0.0,137.1,-12.6,,,,,20:19:07,10.8,-1.0,10.7,0.0,87.0,0.1,-0.02,1.0,99.0,-65.0,25.0,0.0,29.96,1239.0,,,79.0,,,,,0.0,0.0,,,,,,,,,,,,,,,,,,,0.0,16.0,0.0,0.0,30.2,2.8,,2.8,32.0,,,33.1,0.0,0.0,-0.6,8.3,6.5,,,,,18.0,19.0,18.0,19.0,18.0,19.0,19.0,20.0,,,1.0,1.0,,32.0,2.0,0.001,,,0.653,0.858,0.0,15.6,,,,,,0.0,2026-04-03 13:17:48-07:00
87.06,2.0,8.0,2026-04-03 20:19:08,37.08157,-121.59959,338.0,0.0,137.1,-12.6,,,,,20:19:08,10.9,-1.0,10.7,0.0,87.0,0.1,-0.02,1.0,99.0,-72.0,25.0,0.0,29.96,1239.0,,,79.0,,,,,0.0,0.0,,,,,,,,,,,,,,,,,,,0.0,16.0,0.0,0.0,30.2,3.3,,3.3,31.3,,,33.1,0.0,0.0,-0.6,8.3,6.5,,,,,18.0,19.0,18.0,19.0,18.0,19.0,19.0,20.0,,,0.0,0.0,,31.3,2.0,0.001,,,0.653,0.857,0.0,15.6,,,,,,0.0,2026-04-03 13:17:48-07:00
88.06,2.0,8.0,2026-04-03 20:19:09,37.08157,-121.59958,337.0,0.0,137.1,-12.6,,,,,20:19:09,10.8,-1.0,10.6,0.0,87.0,0.1,-0.02,1.0,99.0,-27.0,25.0,0.0,29.96,1249.0,,,79.0,,,,,0.0,0.0,,,,,,,,,,,,,,,,,,,0.0,16.0,0.0,0.0,30.2,3.1,,3.1,32.2,,,33.1,0.0,0.0,-0.6,8.3,6.5,,,,,18.0,19.0,18.0,19.0,18.0,19.0,19.0,20.0,,,0.0,0.0,,32.2,2.0,0.001,,,0.653,0.857,0.0,15.6,,,,,,0.0,2026-04-03 13:17:48-07:00
89.06,2.0,8.0,2026-04-03 20:19:10,37.08157,-121.59958,337.0,0.0,137.1,-12.6,,,,,20:19:10,10.8,-1.0,10.6,0.0,87.0,0.1,-0.02,1.0,99.0,-61.0,25.0,0.0,29.96,1249.0,,,79.0,,,,,0.0,0.0,,,,,,,,,,,,,,,,,,,0.0,16.0,0.0,0.0,30.2,2.8,,2.8,31.7,,,33.1,0.0,0.0,-0.6,8.3,6.5,,,,,18.0,19.0,18.0,19.0,18.0,19.0,19.0,20.0,,,0.0,0.0,,31.7,2.0,0.001,,,0.653,0.856,0.0,15.6,,,,,,0.0,2026-04-03 13:17:48-07:00
90.06,2.0,8.0,2026-04-03 20:19:11,37.08157,-121.59959,337.0,0.0,137.1,-12.6,,,,,20:19:11,10.8,-1.0,10.6,0.0,87.0,0.1,-0.02,1.0,99.0,-20.0,25.0,0.0,29.96,1249.0,,,79.0,,,,,0.0,0.0,,,,,,,,,,,,,,,,,,,0.0,16.0,0.0,0.0,30.2,2.5,,2.5,31.4,,,33.1,0.0,0.0,-0.6,8.3,6.5,,,,,18.0,19.0,18.0,20.0,18.0,20.0,19.0,20.0,,,0.0,0.0,,31.4,2.0,0.001,,,0.653,0.856,0.0,15.6,,,,,,0.0,2026-04-03 13:17:48-07:00
91.06,2.0,8.0,2026-04-03 20:19:12,37.08157,-121.59959,336.0,0.0,137.1,-12.6,,,,,20:19:12,10.8,-1.0,10.6,0.0,87.0,0.1,-0.02,1.0,99.0,-30.0,25.0,0.0,29.96,1250.0,,,79.0,,,,,0.0,0.0,,,,,,,,,,,,,,,,,,,0.0,16.0,0.0,0.0,30.2,2.5,,2.5,31.1,,,33.1,0.0,0.0,-0.6,8.3,6.5,,,,,18.0,19.0,18.0,19.0,18.0,19.0,19.0,20.0,,,-1.0,0.0,,31.1,2.0,0.001,,,0.653,0.856,0.0,15.6,,,,,,0.0,2026-04-03 13:17:48-07:00
92.06,2.0,8.0,2026-04-03 20:19:13,37.08157,-121.59958,336.0,0.0,137.1,-12.6,,,,,20:19:13,10.8,-1.0,10.7,0.0,87.0,0.1,-0.02,1.0,99.0,-38.0,25.0,0.0,29.96,1250.0,,,79.0,,,,,0.0,0.0,,,,,,,,,,,,,,,,,,,0.0,16.0,0.0,0.0,30.2,0.0,,0.0,30.9,,,33.1,0.0,0.0,-0.7,8.3,6.5,,,,,18.0,19.0,18.0,20.0,18.0,19.0,19.0,20.0,,,-1.0,0.0,,30.9,2.0,0.001,,,0.653,0.854,0.0,15.6,,,,,,0.0,2026-04-03 13:17:48-07:00
93.06,2.0,8.0,2026-04-03 20:19:14,37.08157,-121.59958,336.0,0.0,137.1,-12.6,,,,,20:19:14,10.8,-1.0,10.7,0.0,87.0,0.1,-0.02,1.0,99.0,-42.0,25.0,0.0,29.96,1250.0,,,79.0,,,,,0.0,0.0,,,,,,,,,,,,,,,,,,,0.0,16.0,0.0,0.0,30.2,0.0,,0.0,30.7,,,33.1,0.0,0.0,-0.7,8.3,6.5,,,,,18.0,19.0,18.0,20.0,18.0,19.0,19.0,20.0,,,-1.0,0.0,,30.7,2.0,0.001,,,0.653,0.854,0.0,15.6,,,,,,0.0,2026-04-03 13:17:48-07:00
94.06,2.0,8.0,2026-04-03 20:19:15,37.08157,-121.59958,337.0,0.1,137.1,-12.6,,,,,20:19:15,10.8,-1.0,10.7,0.0,87.0,0.1,-0.02,1.0,99.0,-38.0,25.0,0.0,29.96,1259.0,,,79.0,,,,,0.0,0.0,,,,,,,,,,,,,,,,,,,0.0,16.0,0.0,0.0,30.2,0.0,,0.0,30.6,,,33.1,0.0,0.0,-0.7,8.3,6.5,,,,,18.0,19.0,18.0,20.0,18.0,19.0,19.0,20.0,,,-1.0,0.0,,30.6,2.0,0.001,,,0.653,0.854,0.0,15.6,,,,,,0.0,2026-04-03 13:17:48-07:00
95.06,2.0,8.0,2026-04-03 20:19:16,37.08157,-121.59958,337.0,0.0,137.1,-12.6,,,,,20:19:16,10.8,-1.0,10.7,0.0,86.0,0.0,-0.02,1.0,99.0,-28.0,25.0,0.0,29.96,1259.0,,,79.0,,,,,0.0,0.0,,,,,,,,,,,,,,,,,,,0.0,16.0,0.0,0.0,30.2,0.0,,0.0,30.4,,,33.1,0.0,0.0,-0.7,8.3,6.5,,,,,18.0,19.0,18.0,20.0,18.0,19.0,19.0,20.0,,,-1.0,0.0,,30.4,2.0,0.001,,,0.653,0.854,0.0,15.6,,,,,,0.0,2026-04-03 13:17:48-07:00
96.06,2.0,8.0,2026-04-03 20:19:17,37.08158,-121.59958,337.0,0.0,137.1,-12.6,,,,,20:19:17,10.8,-1.0,10.7,0.0,86.0,0.1,-0.02,1.0,99.0,11.0,25.0,0.0,29.96,1259.0,,,79.0,,,,,0.0,0.0,,,,,,,,,,,,,,,,,,,0.0,16.0,0.0,0.0,30.2,0.0,,0.0,30.3,,,33.1,0.0,0.0,-0.7,8.3,6.5,,,,,18.0,19.0,18.0,20.0,18.0,19.0,19.0,20.0,,,-2.0,0.0,,30.3,2.0,0.001,,,0.653,0.854,0.0,15.6,,,,,,0.0,2026-04-03 13:17:48-07:00
97.06,2.0,8.0,2026-04-03 20:19:18,37.0816,-121.59957,336.0,0.0,137.1,-12.6,,,,,20:19:18,10.8,-0.9,10.8,0.0,86.0,0.1,-0.02,1.0,99.0,30.0,25.0,0.0,29.96,1259.0,,,79.0,,,,,0.0,0.0,,,,,,,,,,,,,,,,,,,0.0,16.0,0.0,0.0,30.2,0.0,,0.0,30.1,,,33.1,0.0,0.0,-0.7,8.3,6.5,,,,,18.0,19.0,18.0,20.0,18.0,19.0,19.0,20.0,,,-2.0,0.0,,30.1,2.0,0.001,,,0.653,0.856,0.0,15.6,,,,,,0.0,2026-04-03 13:17:48-07:00
98.06,2.0,8.0,2026-04-03 20:19:19,37.0816,-121.59957,337.0,0.0,137.1,-12.6,,,,,20:19:19,10.8,-0.9,10.8,0.0,86.0,0.1,-0.02,1.0,99.0,26.0,25.0,0.0,29.96,1259.0,,,79.0,,,,,0.0,0.0,,,,,,,,,,,,,,,,,,,0.0,16.0,0.0,0.0,30.2,0.0,,0.0,30.0,,,33.1,0.0,0.0,-0.7,8.3,6.5,,,,,18.0,19.0,18.0,20.0,18.0,19.0,19.0,20.0,,,-2.0,0.0,,30.0,2.0,0.001,,,0.653,0.856,0.0,15.6,,,,,,0.0,2026-04-03 13:17:48-07:00
99.06,2.0,8.0,2026-04-03 20:19:20,37.0816,-121.59956,337.0,0.0,137.1,-12.6,,,,,20:19:20,10.8,-0.9,10.8,0.0,86.0,0.1,-0.02,1.0,99.0,22.0,25.0,0.0,29.96,1259.0,,,79.0,,,,,0.0,0.0,,,,,,,,,,,,,,,,,,,0.0,16.0,0.0,0.0,30.2,0.0,,0.0,29.9,,,33.1,0.0,0.0,-0.7,8.3,6.5,,,,,18.0,19.0,18.0,20.0,18.0,19.0,19.0,20.0,,,-2.0,0.0,,29.9,2.0,0.001,,,0.653,0.856,0.0,15.6,,,,,,0.0,2026-04-03 13:17:48-07:00
100.06,2.0,8.0,2026-04-03 20:19:21,37.0816,-121.59957,337.0,0.1,137.1,-12.6,,,,,20:19:21,10.8,-1.0,10.8,0.0,86.0,0.1,-0.02,1.0,99.0,-7.0,25.0,0.0,29.96,1269.0,,,79.0,,,,,0.0,0.0,,,,,,,,,,,,,,,,,,,0.0,16.0,0.0,0.0,30.2,0.0,,0.0,29.8,,,33.1,0.0,0.0,-0.7,8.3,6.5,,,,,18.0,19.0,18.0,20.0,18.0,19.0,19.0,20.0,,,-1.0,0.0,,29.8,2.0,0.001,,,0.653,0.854,0.0,15.6,,,,,,0.0,2026-04-03 13:17:48-07:00
101.06,2.0,8.0,2026-04-03 20:19:22,37.0816,-121.59957,337.0,0.0,137.1,-12.6,,,,,20:19:22,10.7,-1.0,10.8,0.0,86.0,0.1,-0.02,1.0,99.0,2.0,25.0,0.0,29.96,1269.0,,,79.0,,,,,0.0,0.0,,,,,,,,,,,,,,,,,,,0.0,16.0,0.0,0.0,30.2,0.0,,0.0,29.7,,,33.1,0.0,0.0,-0.7,8.3,6.5,,,,,18.0,19.0,18.0,20.0,18.0,19.0,19.0,20.0,,,-1.0,0.0,,29.7,2.0,0.001,,,0.653,0.856,0.0,15.6,,,,,,0.0,2026-04-03 13:17:48-07:00
102.06,2.0,8.0,2026-04-03 20:19:23,37.0816,-121.59957,337.0,0.0,137.1,-12.6,,,,,20:19:23,10.7,-1.0,10.8,0.0,86.0,0.1,-0.02,1.0,99.0,-13.0,25.0,0.0,29.96,1269.0,,,79.0,,,,,0.0,0.0,,,,,,,,,,,,,,,,,,,0.0,16.0,0.0,0.0,30.2,0.0,,0.0,29.6,,,33.1,0.0,0.0,-0.7,8.3,6.5,,,,,18.0,19.0,18.0,20.0,18.0,19.0,19.0,20.0,,,-1.0,0.0,,29.6,2.0,0.001,,,0.653,0.856,0.0,15.6,,,,,,0.0,2026-04-03 13:17:48-07:00
103.06,2.0,8.0,2026-04-03 20:19:24,37.0816,-121.59956,337.0,0.0,137.1,-12.6,,,,,20:19:24,10.7,-1.0,10.8,0.0,86.0,0.1,-0.02,1.0,99.0,16.0,25.0,0.0,29.96,1269.0,,,79.0,,,,,0.0,0.0,,,,,,,,,,,,,,,,,,,0.0,16.0,0.0,0.0,30.2,0.0,,0.0,29.5,,,33.1,0.0,0.0,-0.7,8.3,6.5,,,,,18.0,19.0,18.0,20.0,18.0,20.0,19.0,20.0,,,-1.0,0.0,,29.5,2.0,0.001,,,0.653,0.856,0.0,15.6,,,,,,0.0,2026-04-03 13:17:48-07:00
104.06,2.0,8.0,2026-04-03 20:19:25,37.0816,-121.59956,337.0,0.0,137.1,-12.6,,,,,20:19:25,10.7,-1.0,10.8,0.0,86.0,0.1,-0.02,1.0,99.0,31.0,25.0,0.0,29.96,1279.0,,,79.0,,,,,0.0,0.0,,,,,,,,,,,,,,,,,,,0.0,16.0,0.0,0.0,30.2,0.0,,0.0,29.4,,,33.1,0.0,0.0,-0.7,8.3,6.5,,,,,18.0,19.0,18.0,20.0,18.0,20.0,19.0,20.0,,,-2.0,0.0,,29.4,2.0,0.001,,,0.653,0.856,0.0,15.6,,,,,,0.0,2026-04-03 13:17:48-07:00
105.06,2.0,8.0,2026-04-03 20:19:26,37.0816,-121.59956,337.0,0.0,137.1,-12.6,,,,,20:19:26,10.7,-1.0,10.8,0.0,86.0,0.1,-0.02,1.0,99.0,41.0,25.0,0.0,29.96,1280.0,,,79.0,,,,,0.0,0.0,,,,,,,,,,,,,,,,,,,0.0,16.0,0.0,0.0,30.2,0.0,,0.0,29.2,,,33.1,0.0,0.0,-0.7,8.3,6.5,,,,,18.0,19.0,18.0,20.0,18.0,20.0,19.0,20.0,,,-3.0,0.0,,29.2,2.0,0.001,,,0.653,0.856,0.0,15.6,,,,,,0.0,2026-04-03 13:17:48-07:00
106.06,2.0,8.0,2026-04-03 20:19:27,37.0816,-121.59956,338.0,0.1,137.1,-12.6,,,,,20:19:27,10.7,-1.0,10.8,0.0,86.0,0.1,-0.02,1.0,99.0,45.0,25.0,0.0,29.96,1280.0,,,79.0,,,,,0.0,0.0,,,,,,,,,,,,,,,,,,,0.0,16.0,0.0,0.0,30.2,0.0,,0.0,29.2,,,33.1,0.0,0.0,-0.7,8.3,6.5,,,,,18.0,19.0,18.0,20.0,18.0,20.0,19.0,20.0,,,-4.0,0.0,,29.2,2.0,0.001,,,0.653,0.856,0.0,15.6,,,,,,0.0,2026-04-03 13:17:48-07:00
107.06,2.0,8.0,2026-04-03 20:19:28,37.0816,-121.59956,337.0,0.1,137.1,-12.6,,,,,20:19:28,10.7,-0.9,10.8,0.0,86.0,0.1,-0.02,1.0,99.0,35.0,25.0,0.0,29.96,1280.0,,,79.0,,,,,0.0,0.0,,,,,,,,,,,,,,,,,,,0.0,16.0,0.0,0.0,30.2,0.0,,0.0,29.1,,,33.1,0.0,0.0,-0.7,8.3,6.5,,,,,18.0,19.0,18.0,20.0,18.0,20.0,19.0,20.0,,,-5.0,0.0,,29.1,2.0,0.001,,,0.653,0.856,0.0,15.6,,,,,,0.0,2026-04-03 13:17:48-07:00
108.06,2.0,8.0,2026-04-03 20:19:29,37.0816,-121.59956,336.0,0.0,137.1,-12.6,,,,,20:19:29,10.7,-1.0,10.7,0.0,86.0,0.1,-0.02,1.0,99.0,41.0,25.0,0.0,29.96,1290.0,,,79.0,,,,,0.0,0.0,,,,,,,,,,,,,,,,,,,0.0,16.0,0.0,0.0,30.2,0.0,,0.0,29.0,,,33.1,0.0,0.0,-0.7,8.3,6.5,,,,,18.0,19.0,18.0,20.0,18.0,20.0,19.0,20.0,,,-5.0,0.0,,29.0,2.0,0.001,,,0.653,0.856,0.0,15.6,,,,,,0.0,2026-04-03 13:17:48-07:00
109.06,2.0,8.0,2026-04-03 20:19:30,37.0816,-121.59956,338.0,0.0,137.1,-12.6,,,,,20:19:30,10.7,-0.9,10.7,0.0,86.0,0.1,-0.02,1.0,99.0,63.0,25.0,0.0,29.96,1290.0,,,79.0,,,,,0.0,0.0,,,,,,,,,,,,,,,,,,,0.0,16.0,0.0,0.0,30.2,0.0,,0.0,28.9,,,33.1,0.0,0.0,-0.7,8.3,6.5,,,,,18.0,19.0,18.0,20.0,18.0,20.0,19.0,20.0,,,-5.0,0.0,,28.9,2.0,0.001,,,0.653,0.857,0.0,15.6,,,,,,0.0,2026-04-03 13:17:48-07:00
110.06,2.0,8.0,2026-04-03 20:19:31,37.0816,-121.59956,334.0,0.0,137.1,-12.6,,,,,20:19:31,10.7,-1.0,10.7,0.0,87.0,0.1,-0.02,1.0,99.0,32.0,25.0,0.0,29.96,1291.0,,,79.0,,,,,0.0,0.0,,,,,,,,,,,,,,,,,,,0.0,16.0,0.0,0.0,30.2,0.0,,0.0,28.8,,,33.1,0.0,0.0,-0.7,8.3,6.5,,,,,18.0,19.0,18.0,20.0,18.0,20.0,19.0,20.0,,,-6.0,0.0,,28.8,2.0,0.001,,,0.653,0.857,0.0,15.6,,,,,,0.0,2026-04-03 13:17:48-07:00
111.06,2.0,8.0,2026-04-03 20:19:32,37.0816,-121.59956,334.0,0.1,137.1,-12.6,,,,,20:19:32,10.7,-1.0,10.7,0.0,87.0,0.1,-0.02,1.0,99.0,8.0,25.0,0.0,29.96,1291.0,,,79.0,,,,,0.0,0.0,,,,,,,,,,,,,,,,,,,0.0,16.0,0.0,0.0,30.2,0.0,,0.0,28.7,,,33.1,0.0,0.0,-0.7,8.3,6.5,,,,,18.0,19.0,18.0,20.0,18.0,20.0,19.0,20.0,,,-6.0,0.0,,28.7,2.0,0.001,,,0.653,0.857,0.0,15.6,,,,,,0.0,2026-04-03 13:17:48-07:00
112.06,2.0,8.0,2026-04-03 20:19:33,37.0816,-121.59956,334.0,0.1,137.1,-12.6,,,,,20:19:33,10.7,-1.0,10.7,0.0,87.0,0.1,-0.02,1.0,99.0,-12.0,25.0,0.0,29.96,1291.0,,,79.0,,,,,0.0,0.0,,,,,,,,,,,,,,,,,,,0.0,16.0,0.0,0.0,30.2,0.0,,0.0,28.6,,,33.1,0.0,0.0,-0.7,8.3,6.5,,,,,18.0,19.0,18.0,20.0,18.0,20.0,19.0,20.0,,,-6.0,0.0,,28.6,2.0,0.001,,,0.653,0.858,0.0,15.6,,,,,,0.0,2026-04-03 13:17:48-07:00
113.06,2.0,8.0,2026-04-03 20:19:34,37.0816,-121.59956,335.0,0.0,137.1,-12.6,,,,,20:19:34,10.8,-1.0,10.8,0.0,87.0,0.1,-0.02,1.0,99.0,5.0,25.0,0.0,29.96,1301.0,,,79.0,,,,,0.0,0.0,,,,,,,,,,,,,,,,,,,0.0,16.0,0.0,0.0,30.2,0.0,,0.0,28.5,,,33.1,0.0,0.0,-0.7,8.3,6.5,,,,,18.0,19.0,18.0,20.0,18.0,20.0,19.0,20.0,,,-6.0,0.0,,28.5,2.0,0.001,,,0.653,0.859,0.0,15.6,,,,,,0.0,2026-04-03 13:17:48-07:00
114.06,2.0,8.0,2026-04-03 20:19:35,37.0816,-121.59956,336.0,0.0,137.1,-12.6,,,,,20:19:35,10.8,-1.0,10.8,0.0,87.0,0.1,-0.01,1.0,99.0,7.0,25.0,0.0,29.96,1301.0,,,79.0,,,,,0.0,0.0,,,,,,,,,,,,,,,,,,,0.0,13.0,0.0,0.0,30.2,0.0,,0.0,28.6,,,33.1,0.0,0.0,-0.7,8.3,6.5,,,,,15.0,16.0,15.0,16.0,15.0,16.0,16.0,16.0,,,-4.0,0.0,,28.6,2.0,0.0,,,0.652,0.859,0.0,12.7,,,,,,0.0,2026-04-03 13:17:48-07:00
115.06,2.0,8.0,2026-04-03 20:19:36,37.0816,-121.59956,336.0,0.1,137.1,-12.6,,,,,20:19:36,10.7,-0.9,10.8,0.0,87.0,0.1,-0.01,1.0,99.0,-16.0,25.0,0.0,29.96,1301.0,,,79.0,,,,,0.0,0.0,,,,,,,,,,,,,,,,,,,2.0,15.0,816.0,816.0,27.4,0.7,,0.7,24.0,,,33.1,0.0,0.0,-0.6,8.3,6.5,,,,,17.0,41.0,17.0,44.0,17.0,33.0,18.0,43.0,,,-3.0,0.0,,24.0,2.0,0.0,,,0.657,0.862,2.4,14.5,,,,,,816.0,2026-04-03 13:17:48-07:00
116.06,2.0,8.0,2026-04-03 20:19:37,37.08159,-121.59956,336.0,0.0,137.1,-12.6,,,,,20:19:37,10.7,-1.0,10.8,0.0,87.0,0.1,-0.02,1.0,99.0,-20.0,25.0,0.0,29.96,1311.0,,,79.0,,,,,0.0,0.0,,,,,,,,,,,,,,,,,,,4.0,16.0,918.0,918.0,21.8,2.3,,2.3,25.7,,,33.1,0.0,0.0,-0.6,8.3,6.5,,,,,18.0,76.0,18.0,74.0,18.0,89.0,19.0,95.0,,,-3.0,0.0,,25.7,2.0,0.0,,,0.659,0.862,3.9,15.6,,,7.0,R,,918.0,2026-04-03 13:17:48-07:00
117.06,2.0,8.0,2026-04-03 20:19:38,37.08159,-121.59956,336.0,0.1,137.1,-12.6,,,,,20:19:38,10.8,-0.9,10.7,0.0,87.0,0.1,-0.02,1.0,99.0,-43.0,25.0,0.0,29.96,1311.0,,,79.0,,,,,0.0,0.0,,,,,,,,,,,,,,,,,,,6.0,16.0,489.0,489.0,18.5,2.9,,2.9,26.0,,,33.1,0.0,0.0,-0.7,8.3,6.5,,,,,18.0,104.0,18.0,93.0,19.0,132.0,20.0,137.0,,,-3.0,0.0,,26.0,2.0,0.0,,,0.656,0.863,6.0,15.6,,,,,,489.0,2026-04-03 13:17:48-07:00
118.06,2.0,8.0,2026-04-03 20:19:39,37.08159,-121.59956,336.0,0.1,137.1,-12.6,,,,,20:19:39,10.8,-1.0,10.7,0.0,87.0,0.0,-0.02,1.0,99.0,-77.0,25.0,0.0,29.96,1311.0,,,79.0,,,,,0.0,0.0,,,,,,,,,,,,,,,,,,,8.0,16.0,903.0,903.0,21.5,3.2,,3.2,25.5,,,33.1,0.0,0.0,-0.7,8.3,6.5,,,,,18.0,128.0,19.0,108.0,19.0,154.0,20.0,156.0,,,-3.0,0.0,,25.5,2.0,0.0,,,0.665,0.854,8.3,15.6,,,0.0,R,,903.0,2026-04-03 13:17:48-07:00
119.06,2.0,8.0,2026-04-03 20:19:40,37.08159,-121.59956,335.0,0.0,137.1,-12.6,,,,,20:19:40,10.8,-1.0,10.7,0.0,87.0,0.0,-0.02,1.0,99.0,-85.0,25.0,0.0,29.96,1312.0,,,79.0,,,,,0.0,0.0,,,,,,,,,,,,,,,,,,,11.0,16.0,932.0,932.0,19.4,3.5,,3.5,25.7,,,33.1,0.0,0.0,-0.7,8.3,6.5,,,,,18.0,169.0,19.0,137.0,19.0,195.0,20.0,197.0,,,-3.0,0.0,,25.7,2.0,0.0,,,0.662,0.857,11.3,15.6,,,,,,932.0,2026-04-03 13:17:48-07:00
120.06,2.0,8.0,2026-04-03 20:19:41,37.08159,-121.59956,334.0,0.0,137.1,-12.6,,,,,20:19:41,10.7,-0.9,10.7,0.0,87.0,0.0,-0.02,1.0,99.0,-106.0,25.0,0.0,29.96,1312.0,,,79.0,,,,,0.0,0.0,,,,,,,,,,,,,,,,,,,15.0,16.0,958.0,958.0,19.4,3.7,,3.7,25.7,,,33.1,0.0,0.0,-0.7,8.3,6.5,,,,,18.0,187.0,19.0,159.0,20.0,232.0,21.0,233.0,,,-3.0,0.0,,25.7,2.0,0.0,,,0.658,0.856,14.9,15.6,,,,,,958.0,2026-04-03 13:17:48-07:00
121.06,2.0,8.0,2026-04-03 20:19:42,37.08159,-121.59956,334.0,0.1,137.1,-12.6,,,,,20:19:42,10.7,-0.9,10.7,0.0,87.0,0.0,-0.02,1.0,99.0,-80.0,25.0,0.0,29.96,1312.0,,,79.0,,,,,0.0,0.0,,,,,,,,,,,,,,,,,,,19.0,16.0,971.0,971.0,19.1,3.8,,3.8,25.8,,,33.1,0.0,0.0,-0.7,8.3,6.5,,,,,19.0,206.0,19.0,178.0,20.0,265.0,21.0,266.0,,,-3.0,0.0,,25.8,2.0,0.0,,,0.657,0.857,19.2,15.6,,,,,,971.0,2026-04-03 13:17:48-07:00
122.06,2.0,8.0,2026-04-03 20:19:43,37.08159,-121.59956,334.0,0.0,137.1,-12.6,,,,,20:19:43,10.7,-0.9,10.8,0.0,87.0,0.0,-0.02,1.0,99.0,-73.0,25.0,0.0,29.96,1321.0,,,79.0,,,,,0.0,0.0,,,,,,,,,,,,,,,,,,,24.0,16.0,1032.0,1032.0,18.6,3.8,,3.8,26.0,,,33.1,0.0,0.0,-0.7,8.3,6.5,,,,,19.0,232.0,19.0,195.0,20.0,294.0,22.0,294.0,,,-3.0,0.0,,26.0,2.0,0.0,,,0.657,0.869,24.3,15.6,,,,,,1032.0,2026-04-03 13:17:48-07:00
123.06,2.0,8.0,2026-04-03 20:19:44,37.08159,-121.59956,334.0,0.1,137.1,-12.6,,,,,20:19:44,10.8,-0.9,10.8,0.0,86.0,0.1,-0.02,1.0,99.0,-73.0,25.0,0.0,29.96,1321.0,,,79.0,,,,,0.0,0.0,,,,,,,,,,,,,,,,,,,30.0,16.0,1089.0,1089.0,17.9,3.7,,3.7,26.4,,,33.1,0.0,0.0,-0.7,8.3,6.5,,,,,19.0,265.0,20.0,213.0,20.0,322.0,22.0,317.0,,,-3.0,0.0,,26.4,2.0,0.0,,,0.656,0.858,30.4,15.6,,,,,,1089.0,2026-04-03 13:17:48-07:00
124.06,2.0,8.0,2026-04-03 20:19:45,37.08159,-121.59956,333.0,0.0,137.1,-12.6,,,,,20:19:45,10.8,-0.9,10.8,0.0,85.0,0.1,-0.02,1.0,99.0,-51.0,25.0,0.0,29.96,1321.0,,,79.0,,,,,0.0,0.0,,,,,,,,,,,,,,,,,,,37.0,16.0,1163.0,1163.0,16.7,3.5,,3.5,26.5,,,33.1,0.0,0.0,-0.7,8.3,6.5,,,,,19.0,302.0,20.0,250.0,21.0,347.0,23.0,343.0,,,-3.0,0.0,,26.5,2.0,0.0,,,0.658,0.859,37.4,15.6,,,,,,1163.0,2026-04-03 13:17:48-07:00
125.06,2.0,8.0,2026-04-03 20:19:46,37.08159,-121.59956,334.0,0.0,137.1,-12.6,,,,,20:19:46,10.8,-0.9,10.8,0.0,85.0,0.1,-0.02,1.0,99.0,-40.0,25.0,0.0,29.96,1330.0,,,79.0,,,,,0.0,0.0,,,,,,,,,,,,,,,,,,,45.0,16.0,1266.0,1266.0,15.8,3.3,,3.3,26.7,,,33.1,0.0,0.0,-0.7,8.3,6.5,,,,,19.0,332.0,20.0,287.0,21.0,373.0,23.0,368.0,,,-3.0,0.0,,26.7,2.0,0.0,,,0.656,0.858,45.0,15.6,,,,,,1266.0,2026-04-03 13:17:48-07:00
126.06,2.0,8.0,2026-04-03 20:19:47,37.08158,-121.59956,334.0,0.0,137.1,-12.6,,,,,20:19:47,10.8,-0.9,10.8,0.0,85.0,0.0,-0.02,1.0,99.0,2.0,25.0,0.0,29.96,1330.0,,,79.0,,,,,0.0,0.0,,,,,,,,,,,,,,,,,,,53.0,16.0,1199.0,1199.0,14.5,3.2,,3.2,26.8,,,33.1,0.0,0.0,-0.7,8.3,6.5,,,,,20.0,360.0,21.0,318.0,22.0,404.0,24.0,399.0,,,-3.0,0.0,,26.8,2.0,0.0,,,0.656,0.858,52.6,15.6,,,,,,1199.0,2026-04-03 13:17:48-07:00
127.06,2.0,8.0,2026-04-03 20:19:48,37.08156,-121.59953,334.0,0.0,137.1,-12.6,,,,,20:19:48,10.8,-0.9,10.8,0.0,85.0,0.0,-0.02,1.0,99.0,-22.0,25.0,0.0,29.96,1330.0,,,79.0,,,,,0.0,0.0,,,,,,,,,,,,,,,,,,,59.0,16.0,1149.0,1149.0,13.6,3.0,,3.0,26.5,,,33.1,0.0,0.0,-0.7,8.3,6.5,,,,,20.0,381.0,21.0,342.0,22.0,428.0,25.0,417.0,,,-3.0,0.0,,26.5,2.0,0.0,,,0.654,0.857,59.3,15.6,,,,,,1149.0,2026-04-03 13:17:48-07:00
128.06,2.0,8.0,2026-04-03 20:19:49,37.08156,-121.59953,334.0,0.0,137.1,-12.6,,,,,20:19:49,10.8,-0.9,10.9,0.0,85.0,0.1,-0.02,0.9,99.0,-11.0,25.0,0.0,29.96,1330.0,,,79.0,,,,,0.0,0.0,,,,,,,,,,,,,,,,,,,65.0,16.0,1105.0,1105.0,13.5,2.9,,2.9,26.5,,,33.1,0.0,0.0,-0.7,8.3,6.5,,,,,20.0,400.0,21.0,363.0,23.0,449.0,25.0,438.0,,,-3.0,0.0,,26.5,2.0,0.0,,,0.656,0.863,64.7,15.6,,,,,,1105.0,2026-04-03 13:17:48-07:00
129.06,2.0,8.0,2026-04-03 20:19:50,37.08156,-121.59953,334.0,0.0,137.1,-12.6,,,,,20:19:50,10.8,-1.0,10.8,0.0,85.0,0.1,-0.02,1.0,99.0,2.0,25.0,0.0,29.96,1330.0,,,79.0,,,,,0.0,0.0,,,,,,,,,,,,,,,,,,,68.0,16.0,1008.0,1008.0,13.9,2.8,,2.8,26.6,,,33.1,0.0,0.0,-0.7,8.3,6.5,,,,,21.0,418.0,22.0,381.0,23.0,464.0,26.0,458.0,,,-3.0,0.0,,26.6,2.0,0.0,,,0.656,0.864,68.4,15.6,,,,,,1008.0,2026-04-03 13:17:48-07:00
130.06,2.0,8.0,2026-04-03 20:19:51,37.08155,-121.59953,334.0,0.1,137.1,-12.6,,,,,20:19:51,10.8,-0.9,10.7,0.0,85.0,0.1,-0.02,1.0,99.0,0.0,25.0,0.0,29.96,1340.0,,,79.0,,,,,0.0,0.0,,,,,,,,,,,,,,,,,,,71.0,16.0,1052.0,1052.0,14.3,2.6,,2.6,26.6,,,33.1,0.0,0.0,-0.7,8.3,6.5,,,,,21.0,433.0,23.0,396.0,23.0,489.0,26.0,477.0,,,-4.0,0.0,,26.6,2.0,0.0,,,0.656,0.874,71.0,15.6,,,,,,1052.0,2026-04-03 13:17:48-07:00
131.06,2.0,8.0,2026-04-03 20:19:52,37.08156,-121.59953,334.0,0.0,137.1,-12.6,,,,,20:19:52,10.8,-0.9,10.7,0.0,85.0,0.1,-0.02,1.0,99.0,-12.0,25.0,0.0,29.96,1341.0,,,79.0,,,,,0.0,0.0,,,,,,,,,,,,,,,,,,,73.0,16.0,1061.0,1061.0,14.2,2.5,,2.5,26.6,,,33.1,0.0,0.0,-0.7,8.3,6.5,,,,,22.0,446.0,23.0,412.0,24.0,515.0,27.0,498.0,,,-3.0,0.0,,26.6,2.0,0.0,,,0.654,0.861,72.6,15.7,,,,,,1061.0,2026-04-03 13:17:48-07:00
132.06,2.0,8.0,2026-04-03 20:19:53,37.08156,-121.59953,333.0,0.1,137.1,-12.6,,,,,20:19:53,10.8,-0.9,10.7,0.0,85.0,0.0,-0.02,1.0,99.0,-15.0,25.0,0.0,29.96,1341.0,,,79.0,,,,,0.0,0.0,,,,,,,,,,,,,,,,,,,74.0,16.0,943.0,943.0,13.4,2.4,,2.4,26.8,,,33.1,0.0,0.0,-0.7,8.3,6.5,,,,,22.0,458.0,24.0,426.0,24.0,521.0,28.0,512.0,,,-4.0,0.0,,26.8,2.0,0.0,,,0.654,0.863,73.6,15.7,,,,,,943.0,2026-04-03 13:17:48-07:00
133.06,2.0,8.0,2026-04-03 20:19:54,37.08155,-121.59953,329.0,0.1,137.1,-12.6,,,,,20:19:54,10.8,-0.9,10.7,0.0,85.0,0.1,-0.02,1.0,99.0,21.0,25.0,0.0,29.96,1341.0,,,79.0,,,,,0.0,0.0,,,,,,,,,,,,,,,,,,,72.0,16.0,636.0,636.0,14.1,2.1,,2.1,26.6,,,33.1,0.0,0.0,-0.7,8.3,6.5,,,,,23.0,447.0,24.0,420.0,25.0,519.0,28.0,511.0,,,-4.0,0.0,,26.6,2.0,0.0,,,0.654,0.861,72.5,15.7,,,,,,636.0,2026-04-03 13:17:48-07:00
134.06,2.0,8.0,2026-04-03 20:19:55,37.08155,-121.59953,330.0,0.1,137.1,-12.6,,,,,20:19:55,10.7,-0.9,10.7,0.0,85.0,0.1,-0.02,1.0,99.0,49.0,25.0,0.0,29.96,1350.0,,,79.0,,,,,0.0,0.0,,,,,,,,,,,,,,,,,,,71.0,16.0,583.0,583.0,15.9,2.0,,2.0,26.5,,,33.1,0.0,0.0,-0.7,8.3,6.5,,,,,23.0,448.0,25.0,427.0,25.0,514.0,28.0,509.0,,,-3.0,0.0,,26.5,2.0,0.0,,,0.654,0.863,71.0,15.7,,,,,,583.0,2026-04-03 13:17:48-07:00
135.06,2.0,8.0,2026-04-03 20:19:56,37.0814,-121.59949,332.0,0.1,137.1,-12.6,,,,,20:19:56,10.8,-0.9,10.8,0.0,85.0,0.1,-0.02,1.0,99.0,67.0,25.0,0.0,29.96,1350.0,,,79.0,,,,,0.0,0.0,,,,,,,,,,,,,,,,,,,70.0,16.0,624.0,624.0,16.2,1.9,,1.9,26.5,,,33.1,0.0,0.0,-0.7,8.3,6.5,,,,,23.0,448.0,25.0,431.0,25.0,510.0,29.0,507.0,,,-2.0,0.0,,26.5,2.0,0.0,,,0.654,0.868,70.1,15.7,,,,,,624.0,2026-04-03 13:17:48-07:00
136.06,2.0,8.0,2026-04-03 20:19:57,37.08136,-121.59947,463.0,0.1,137.1,-12.6,,,,,20:19:57,10.7,-0.9,10.8,0.0,85.0,0.1,-0.02,1.0,99.0,65.0,25.0,0.0,29.96,1351.0,,,79.0,,,,,0.0,0.0,,,,,,,,,,,,,,,,,,,70.0,16.0,628.0,628.0,16.3,1.7,,1.7,26.5,,,33.1,0.0,0.0,-0.7,8.3,6.5,,,,,24.0,450.0,26.0,435.0,26.0,509.0,29.0,505.0,,,0.0,0.0,,26.5,2.0,0.0,,,0.654,0.87,69.9,15.7,,,,,,628.0,2026-04-03 13:17:48-07:00
137.06,2.0,8.0,2026-04-03 20:19:58,37.08131,-121.59946,494.0,0.1,137.1,-12.6,,,,,20:19:58,10.7,-0.9,10.8,0.0,85.0,0.1,-0.02,1.0,99.0,84.0,26.0,0.0,29.96,1351.0,,,79.0,,,,,0.0,0.0,,,,,,,,,,,,,,,,,,,69.0,16.0,609.0,609.0,16.9,1.7,,1.7,26.4,,,33.1,0.0,0.0,-0.7,8.3,6.5,,,,,24.0,451.0,26.0,439.0,26.0,506.0,30.0,511.0,,,0.0,0.0,,26.4,2.0,0.0,,,0.654,0.873,68.9,15.7,,,,,,609.0,2026-04-03 13:17:48-07:00
138.06,2.0,8.0,2026-04-03 20:19:59,37.08128,-121.59946,519.0,0.1,137.1,-12.6,,,,,20:19:59,10.7,-0.9,10.8,0.0,85.0,0.1,-0.02,1.0,99.0,53.0,26.0,0.0,29.96,1351.0,,,79.0,,,,,0.0,0.0,,,,,,,,,,,,,,,,,,,69.0,16.0,591.0,591.0,17.0,1.6,,1.6,26.4,,,33.1,0.0,0.0,-0.7,8.3,6.5,,,,,24.0,452.0,26.0,442.0,27.0,504.0,30.0,506.0,,,0.0,0.0,,26.4,2.0,0.0,,,0.654,0.876,68.8,15.7,,,,,,591.0,2026-04-03 13:17:48-07:00
139.06,2.0,8.0,2026-04-03 20:20:00,37.08129,-121.59946,522.0,0.0,137.1,-12.6,,,,,20:20:00,10.7,-0.9,10.8,0.0,85.0,0.1,-0.02,1.0,99.0,54.0,26.0,0.0,29.96,1361.0,,,79.0,,,,,0.0,0.0,,,,,,,,,,,,,,,,,,,68.0,16.0,580.0,580.0,17.7,1.7,,1.7,26.5,,,33.1,0.0,0.0,-0.7,8.3,6.5,,,,,25.0,452.0,27.0,445.0,27.0,488.0,30.0,504.0,,,0.0,0.0,,26.5,2.0,0.0,,,0.654,0.906,68.2,15.7,,,,,,580.0,2026-04-03 13:17:48-07:00
140.06,2.0,8.0,2026-04-03 20:20:01,37.08129,-121.59946,528.0,0.1,137.1,-12.6,,,,,20:20:01,10.7,-0.9,10.8,0.0,87.0,0.0,-0.02,1.0,99.0,49.0,26.0,0.0,29.96,1361.0,,,79.0,,,,,0.0,0.0,,,,,,,,,,,,,,,,,,,69.0,16.0,660.0,660.0,16.8,1.7,,1.7,27.4,,,33.1,0.0,0.0,-0.7,8.3,6.5,,,,,25.0,452.0,27.0,443.0,27.0,472.0,31.0,505.0,,,0.0,0.0,,27.4,2.0,0.0,,,0.654,0.88,69.1,15.7,,,,,,660.0,2026-04-03 13:17:48-07:00
141.06,2.0,8.0,2026-04-03 20:20:02,37.0813,-121.59947,524.0,0.1,137.1,-12.6,,,,,20:20:02,10.7,-0.9,10.8,0.0,88.0,0.0,-0.02,1.0,99.0,65.0,26.0,0.0,29.96,1364.0,,,79.0,,,,,0.0,0.0,,,,,,,,,,,,,,,,,,,68.0,16.0,327.0,327.0,18.4,1.5,,1.5,27.3,,,33.1,0.0,0.0,-0.7,8.3,6.5,,,,,26.0,449.0,28.0,445.0,28.0,463.0,31.0,492.0,,,0.0,0.0,,27.3,2.0,0.0,,,0.654,0.879,68.1,15.7,,,,,,327.0,2026-04-03 13:17:48-07:00
142.06,2.0,8.0,2026-04-03 20:20:03,37.0813,-121.59947,523.0,0.1,137.1,-12.6,,,,,20:20:03,10.7,-1.0,10.8,0.0,89.0,0.1,-0.02,1.0,99.0,50.0,26.0,0.0,29.96,1366.0,,,79.0,,,,,0.0,0.0,,,,,,,,,,,,,,,,,,,56.0,16.0,185.0,185.0,28.3,1.3,,1.3,27.2,,,33.1,0.0,0.0,-0.7,8.3,6.5,,,,,26.0,432.0,28.0,432.0,28.0,441.0,31.0,476.0,,,0.0,0.0,,27.2,2.0,0.0,,,0.654,0.874,55.6,15.7,,,0.0,L,,185.0,2026-04-03 13:17:48-07:00
143.06,2.0,8.0,2026-04-03 20:20:04,37.08132,-121.59948,507.0,0.0,137.1,-12.6,,,,,20:20:04,10.7,-0.9,10.8,0.0,90.0,0.0,-0.02,1.0,99.0,53.0,26.0,0.0,29.96,1367.0,,,79.0,,,,,0.0,0.0,,,,,,,,,,,,,,,,,,,46.0,16.0,185.0,185.0,29.8,1.3,,1.3,27.0,,,33.1,0.0,0.0,-0.7,8.3,6.5,,,,,26.0,423.0,28.0,424.0,28.0,430.0,32.0,468.0,,,0.0,0.0,,27.0,2.0,0.0,,,0.654,0.88,45.8,15.7,,,6.0,L,,185.0,2026-04-03 13:17:48-07:00
144.06,2.0,8.0,2026-04-03 20:20:05,37.08134,-121.59948,490.0,0.1,137.1,-12.6,,,,,20:20:05,10.8,-0.9,10.7,0.0,90.0,0.0,-0.02,1.0,99.0,37.0,26.0,0.0,29.96,1367.0,,,79.0,,,,,0.0,0.0,,,,,,,,,,,,,,,,,,,39.0,16.0,0.0,0.0,30.0,0.0,,0.0,26.9,,,33.1,0.0,0.0,-0.7,8.3,6.5,,,,,26.0,415.0,28.0,416.0,28.0,422.0,32.0,458.0,,,0.0,0.0,,26.9,2.0,0.0,,,0.654,0.881,39.0,15.7,,,,,,0.0,2026-04-03 13:17:48-07:00
145.06,2.0,8.0,2026-04-03 20:20:06,37.0815,-121.59953,373.0,0.1,137.1,-12.6,,,,,20:20:06,10.8,-0.8,10.8,0.0,90.0,0.0,-0.02,1.0,99.0,15.0,26.0,0.0,29.96,1367.0,,,79.0,,,,,0.0,0.0,,,,,,,,,,,,,,,,,,,34.0,16.0,0.0,0.0,30.0,0.0,,0.0,26.8,,,33.1,0.0,0.0,-0.7,8.3,6.5,,,,,27.0,407.0,28.0,408.0,29.0,414.0,32.0,450.0,,,0.0,0.0,,26.8,2.0,0.0,,,0.654,0.858,34.1,15.7,,,,,,0.0,2026-04-03 13:17:48-07:00
146.06,2.0,8.0,2026-04-03 20:20:07,37.08149,-121.59953,375.0,0.1,137.1,-12.6,,,,,20:20:07,10.7,-0.9,10.8,0.0,90.0,0.1,-0.01,1.0,99.0,4.0,26.0,0.0,29.96,1377.0,,,79.0,,,,,0.0,0.0,,,,,,,,,,,,,,,,,,,30.0,16.0,0.0,0.0,30.2,0.0,,0.0,26.7,,,33.1,0.0,0.0,-0.7,8.3,6.5,,,,,27.0,399.0,28.0,400.0,29.0,407.0,32.0,442.0,,,0.0,0.0,,26.7,2.0,4.999,,,0.654,0.854,30.2,15.7,,,,,,0.0,2026-04-03 13:17:48-07:00
147.06,2.0,8.0,2026-04-03 20:20:08,37.08149,-121.59953,377.0,0.1,137.1,-12.6,,,,,20:20:08,10.7,-0.9,10.8,0.0,90.0,0.1,-0.01,1.0,99.0,-32.0,26.0,0.0,29.96,1378.0,,,79.0,,,,,0.0,0.0,,,,,,,,,,,,,,,,,,,27.0,16.0,0.0,0.0,30.2,0.0,,0.0,26.6,,,33.1,0.0,0.0,-0.7,8.3,6.5,,,,,27.0,391.0,29.0,393.0,29.0,399.0,32.0,433.0,,,0.0,0.0,,26.6,2.0,4.998,,,0.654,0.854,27.2,15.7,,,,,,0.0,2026-04-03 13:17:48-07:00
148.06,2.0,8.0,2026-04-03 20:20:09,37.08149,-121.59953,378.0,0.1,137.1,-12.6,,,,,20:20:09,10.7,-0.8,10.7,0.0,90.0,0.1,-0.02,1.0,99.0,-24.0,26.0,0.0,29.96,1378.0,,,79.0,,,,,0.0,0.0,,,,,,,,,,,,,,,,,,,25.0,16.0,0.0,0.0,30.2,0.0,,0.0,26.5,,,33.1,0.0,0.0,-0.7,8.3,6.5,,,,,27.0,384.0,29.0,385.0,29.0,393.0,32.0,425.0,,,0.0,0.0,,26.5,2.0,4.998,,,0.654,0.854,24.7,15.7,,,,,,0.0,2026-04-03 13:17:48-07:00
149.06,2.0,8.0,2026-04-03 20:20:10,37.08149,-121.59953,381.0,0.0,137.1,-12.6,,,,,20:20:10,10.7,-0.9,10.7,0.0,90.0,0.1,-0.02,1.0,99.0,-49.0,26.0,0.0,29.96,1378.0,,,79.0,,,,,0.0,0.0,,,,,,,,,,,,,,,,,,,23.0,16.0,0.0,0.0,30.2,0.0,,0.0,26.5,,,33.1,0.0,0.0,-0.7,8.3,6.5,,,,,27.0,376.0,29.0,377.0,29.0,385.0,32.0,417.0,,,0.0,0.0,,26.5,2.0,4.998,,,0.654,0.852,22.7,15.7,,,,,,0.0,2026-04-03 13:17:48-07:00
150.06,2.0,8.0,2026-04-03 20:20:11,37.08149,-121.59953,382.0,0.1,137.1,-12.6,,,,,20:20:11,10.7,-0.9,10.6,0.0,90.0,0.1,-0.02,1.0,99.0,-58.0,26.0,0.0,29.96,1387.0,,,79.0,,,,,0.0,0.0,,,,,,,,,,,,,,,,,,,21.0,16.0,0.0,0.0,30.2,0.0,,0.0,26.3,,,33.1,0.0,0.0,-0.7,8.3,6.5,,,,,27.0,368.0,29.0,370.0,29.0,378.0,33.0,410.0,,,0.0,0.0,,26.3,2.0,4.998,,,0.654,0.85,21.0,15.7,,,,,,0.0,2026-04-03 13:17:48-07:00
151.06,2.0,8.0,2026-04-03 20:20:12,37.08149,-121.59953,384.0,0.1,137.1,-12.6,,,,,20:20:12,10.7,-0.9,10.7,0.0,90.0,0.1,-0.02,1.0,99.0,-53.0,26.0,0.0,29.96,1387.0,,,79.0,,,,,0.0,0.0,,,,,,,,,,,,,,,,,,,19.0,16.0,0.0,0.0,30.2,0.0,,0.0,26.3,,,33.1,0.0,0.0,-0.7,8.3,6.5,,,,,28.0,362.0,29.0,364.0,29.0,371.0,33.0,402.0,,,-1.0,0.0,,26.3,2.0,4.998,,,0.654,0.848,19.5,15.7,,,,,,0.0,2026-04-03 13:17:48-07:00
152.06,2.0,8.0,2026-04-03 20:20:13,37.08149,-121.59953,384.0,0.0,137.1,-12.6,,,,,20:20:13,10.7,-0.9,10.7,0.0,90.0,0.1,-0.02,1.0,99.0,-57.0,26.0,0.0,29.96,1387.0,,,79.0,,,,,0.0,0.0,,,,,,,,,,,,,,,,,,,18.0,16.0,0.0,0.0,30.2,0.0,,0.0,26.2,,,33.1,0.0,0.0,-0.7,8.3,6.5,,,,,28.0,356.0,29.0,357.0,30.0,365.0,33.0,395.0,,,-1.0,0.0,,26.2,2.0,4.998,,,0.654,0.848,18.1,15.7,,,,,,0.0,2026-04-03 13:17:48-07:00
153.06,2.0,8.0,2026-04-03 20:20:14,37.08149,-121.59954,385.0,0.1,137.1,-12.6,,,,,20:20:14,10.7,-0.9,10.7,0.0,90.0,0.1,-0.02,1.0,99.0,-33.0,26.0,0.0,29.96,1387.0,,,79.0,,,,,0.0,0.0,,,,,,,,,,,,,,,,,,,17.0,16.0,0.0,0.0,30.2,0.0,,0.0,26.1,,,33.1,0.0,0.0,-0.7,8.3,6.5,,,,,28.0,349.0,29.0,350.0,30.0,358.0,33.0,388.0,,,-1.0,0.0,,26.1,2.0,4.998,,,0.654,0.847,17.0,15.7,,,,,,0.0,2026-04-03 13:17:48-07:00
154.06,2.0,8.0,2026-04-03 20:20:15,37.08149,-121.59954,386.0,0.1,137.1,-12.6,,,,,20:20:15,10.7,-0.8,10.7,0.0,90.0,0.1,-0.01,1.0,99.0,-53.0,26.0,0.0,29.96,1387.0,,,79.0,,,,,0.0,0.0,,,,,,,,,,,,,,,,,,,16.0,16.0,0.0,0.0,30.2,0.0,,0.0,26.0,,,33.1,0.0,0.0,-0.7,8.3,6.5,,,,,28.0,343.0,29.0,344.0,30.0,352.0,33.0,381.0,,,-1.0,0.0,,26.0,2.0,4.998,,,0.654,0.847,15.9,15.7,,,,,,0.0,2026-04-03 13:17:48-07:00
