Session Time,GPS Fix Quality,Number of Satellites,GPS Date & Time,Latitude (deg),Longitude (deg),GPS Altitude (feet),Ground Speed (knots),Ground Track (deg),Mag Var (deg),Cross Track Error (NM),Destination Waypoint ID,Range to Destination (NM),Bearing to Destination (deg),System Time,Pitch (deg),Roll (deg),Magnetic Heading (deg),Indicated Airspeed (knots),Pressure Altitude (ft),Turn Rate (deg/s),Lateral Accel (g),Vertical Accel(g),Angle of Attack (%),Vertical Speed (ft/min),OAT (deg C),True Airspeed (knots),Barometer Setting (inHg),Density Altitude (ft),Wind Direction (deg),Wind Speed (knots),Heading Bug (deg),Altitude Bug (ft),Airspeed Bug (knots),Vertical Speed Bug (ft/min),Course (deg),CDI Source Type,CDI Source Port,CDI Scale (NM),CDI Deflection (%),Glideslope (%),AP Engaged,AP Roll Mode,AP Roll Force,AP Roll Position (steps),AP Roll Slip (bool),AP Pitch Force,AP Pitch Position (steps),AP Pitch Slip (bool),AP Yaw Force,AP Yaw Position,AP Yaw Slip (bool),Transponder Status,Transponder Reply (bool),Transponder Identing (bool),Transponder Code (octal),Oil Pressure (PSI),Oil Temp (deg C),RPM L,RPM R,Manifold Pressure (inHg),Fuel Flow 1 (gal/hr),Fuel Flow 2 (gal/hr),Total Fuel Flow (gal/hr),Fuel Pressure (PSI),Fuel Level L (gal),Fuel Level R (gal),Fuel Remaining (gal),Volts 1,Volts 2,Amps,Hobbs Time,Tach Time,Thermocouple 1 (deg C),Thermocouple 2 (deg C),Thermocouple 3 (deg C),Thermocouple 4 (deg C),CHT 4 (deg C),EGT 4 (deg C),CHT 3 (deg C),EGT 3 (deg C),CHT 2 (deg C),EGT 2 (deg C),CHT 1 (deg C),EGT 1 (deg C),Thermocouple 13 (deg C),Thermocouple 14 (deg C),ELEV POSITION (%),CO PPM PRESSURE (PSI),GP Input 3,FUEL PRESSURE (PSI),AILERN POSITION (%),CANOPY CONTACT (V),GP Input 7,GP Input 8,LEFT LEVEL (Sensor V),RIGHT LEVEL (Sensor V),OIL PRESSURE (PSI),OIL TEMPERATURE (deg C),GP Input 13,Contacts,Percent Power,EGT Leaning State,Unnamed: 103,RPM,Flight ID
1.06,1.0,8.0,2026-02-14 00:03:49,37.08159,-121.59959,355.0,0.0,248.3,-12.6,,,,,00:03:48,10.9,-1.2,51.9,0.0,151.0,-0.0,-0.02,1.0,,-39.0,17.0,0.0,30.11,387.0,,,326.0,,110.0,0.0,,0.0,0.0,,,,,,,,,,,,,,,,,,,,,0.0,0.0,,,,0.0,,,,36.2,0.0,0.0,-0.6,1.3,0.5,,,,,16.0,17.0,16.0,17.0,16.0,17.0,16.0,17.0,,,-17.0,254.5,,0.0,-7.0,4.998,,,0.654,0.791,0.0,54.2,,,,,,0.0,2026-02-13 16:03:49-08:00
2.06,1.0,8.0,2026-02-14 00:03:50,37.08159,-121.59959,329.0,0.0,248.3,-12.6,,,,,00:03:49,10.9,-1.1,51.9,0.0,150.0,-0.0,-0.02,1.0,,-32.0,17.0,0.0,30.11,387.0,,,326.0,,110.0,0.0,,0.0,0.0,,,,,,,,,,,,,,,,,,,,,0.0,0.0,,,,0.0,,,,36.2,0.0,0.0,-0.6,1.3,0.5,,,,,16.0,17.0,16.0,17.0,16.0,17.0,16.0,17.0,,,-17.0,254.5,,0.0,-7.0,4.998,,,0.654,0.79,0.0,14.8,,,,,,0.0,2026-02-13 16:03:49-08:00
3.06,1.0,8.0,2026-02-14 00:03:51,37.08159,-121.59959,329.0,0.0,248.3,-12.6,,,,,00:03:50,10.9,-1.2,51.9,0.0,149.0,-0.0,-0.02,1.0,,-52.0,17.0,0.0,30.11,385.0,,,326.0,,110.0,0.0,,0.0,0.0,,,,,,,,,,,,,,,,,,,,,0.0,0.0,,0.0,,0.0,,,,36.2,0.0,0.0,-0.6,1.3,0.5,,,,,16.0,17.0,16.0,17.0,16.0,17.0,16.0,17.0,,,-17.0,254.5,,0.0,-7.0,4.998,,,0.654,0.791,0.0,14.8,,,,,,0.0,2026-02-13 16:03:49-08:00
4.06,1.0,8.0,2026-02-14 00:03:52,37.08159,-121.59959,328.0,0.0,248.3,-12.6,,,,,00:03:51,10.9,-1.1,52.0,0.0,147.0,0.0,-0.02,1.0,,-74.0,17.0,0.0,30.11,385.0,,,326.0,,,,,0.0,0.0,,,,,,,,,,,,,,,,,,,0.0,15.0,0.0,0.0,30.2,0.0,,0.0,0.0,,,36.2,0.0,0.0,-0.6,1.3,0.5,,,,,16.0,17.0,16.0,17.0,16.0,17.0,16.0,17.0,,,-17.0,254.5,,0.0,-7.0,4.998,,,0.654,0.79,0.0,14.8,,,,,,0.0,2026-02-13 16:03:49-08:00
5.06,1.0,8.0,2026-02-14 00:03:53,37.08159,-121.59959,327.0,0.0,248.3,-12.6,,,,,00:03:52,10.9,-1.2,52.0,0.0,145.0,0.0,-0.02,1.0,,-84.0,17.0,0.0,30.11,385.0,,,326.0,,,,,0.0,0.0,,,,,,,,,,,,,,,,,,,0.0,15.0,0.0,0.0,30.2,0.0,,0.0,0.0,,,36.2,0.0,0.0,-0.6,1.3,0.5,,,,,16.0,17.0,16.0,17.0,16.0,17.0,16.0,17.0,,,-17.0,254.5,,0.0,-7.0,4.998,,,0.654,0.79,0.0,14.8,,,,,,0.0,2026-02-13 16:03:49-08:00
6.06,1.0,8.0,2026-02-14 00:03:54,37.08158,-121.59959,326.0,0.0,248.3,-12.6,,,,,00:03:53,10.9,-1.2,52.0,0.0,145.0,0.0,-0.02,1.0,,-65.0,17.0,0.0,30.11,380.0,,,326.0,,,,,0.0,0.0,,,,,,,,,,,,,,,,,,,0.0,15.0,0.0,0.0,30.2,0.0,,0.0,0.0,,,36.2,0.0,0.0,-0.6,1.3,0.5,,,,,16.0,17.0,16.0,17.0,16.0,17.0,16.0,17.0,,,-17.0,254.5,,0.0,-7.0,4.998,,,0.654,0.79,0.0,14.8,,,,,,0.0,2026-02-13 16:03:49-08:00
7.06,1.0,8.0,2026-02-14 00:03:55,37.08158,-121.59959,325.0,0.0,248.3,-12.6,,,,,00:03:54,10.9,-1.2,51.9,0.0,144.0,-0.0,-0.02,1.0,,-66.0,17.0,0.0,30.11,380.0,,,326.0,,,,,0.0,0.0,,,,,,,,,,,,,,,,,,,0.0,15.0,0.0,0.0,30.2,0.0,,0.0,0.0,,,36.2,0.0,0.0,-0.6,1.3,0.5,,,,,16.0,17.0,16.0,17.0,16.0,17.0,16.0,17.0,,,-17.0,254.5,,0.0,-7.0,4.998,,,0.654,0.79,0.0,14.8,,,,,,0.0,2026-02-13 16:03:49-08:00
8.06,1.0,8.0,2026-02-14 00:03:56,37.08158,-121.59959,325.0,0.0,248.3,-12.6,,,,,00:03:55,10.9,-1.2,51.9,0.0,144.0,-0.0,-0.02,1.0,,-44.0,17.0,0.0,30.11,380.0,,,326.0,,,,,0.0,0.0,,,,,,,,,,,,,,,,,,,0.0,15.0,0.0,0.0,30.2,0.0,,0.0,0.0,,,36.2,0.0,0.0,-0.6,1.3,0.5,,,,,16.0,17.0,16.0,17.0,16.0,17.0,16.0,17.0,,,-17.0,254.5,,0.0,-7.0,4.998,,,0.654,0.791,0.0,14.8,,,,,,0.0,2026-02-13 16:03:49-08:00
9.06,1.0,8.0,2026-02-14 00:03:57,37.08158,-121.59959,324.0,0.0,248.3,-12.6,,,,,00:03:56,10.9,-1.2,51.9,0.0,144.0,0.0,-0.02,1.0,,-18.0,17.0,0.0,30.11,378.0,,,326.0,,,,,0.0,0.0,,,,,,,,,,,,,,,,,,,0.0,15.0,0.0,0.0,30.2,0.0,,0.0,0.0,,,36.2,0.0,0.0,-0.6,1.3,0.5,,,,,16.0,17.0,16.0,17.0,16.0,17.0,16.0,17.0,,,-17.0,254.5,,0.0,-7.0,4.998,,,0.654,0.79,0.0,14.8,,,,,,0.0,2026-02-13 16:03:49-08:00
10.06,1.0,8.0,2026-02-14 00:03:58,37.08158,-121.59959,324.0,0.0,248.3,-12.6,,,,,00:03:57,10.9,-1.2,51.9,0.0,144.0,-0.0,-0.02,1.0,,-32.0,17.0,0.0,30.11,378.0,,,326.0,,,,,0.0,0.0,,,,,,,,,,,,,,,,,,,0.0,15.0,0.0,0.0,30.2,0.0,,0.0,0.0,,,36.2,0.0,0.0,-0.6,1.3,0.5,,,,,16.0,17.0,16.0,17.0,16.0,17.0,16.0,17.0,,,-17.0,254.5,,0.0,-7.0,4.998,,,0.654,0.79,0.0,14.8,,,,,,0.0,2026-02-13 16:03:49-08:00
11.06,1.0,8.0,2026-02-14 00:03:59,37.08158,-121.59959,325.0,0.0,248.3,-12.6,,,,,00:03:58,10.9,-1.2,51.9,0.0,144.0,-0.0,-0.02,1.0,,-17.0,17.0,0.0,30.11,378.0,,,326.0,,,,,0.0,0.0,,,,,,,,,,,,,,,,,,,0.0,15.0,0.0,0.0,30.2,0.0,,0.0,0.0,,,36.2,0.0,0.0,-0.6,1.3,0.5,,,,,16.0,17.0,16.0,17.0,16.0,17.0,16.0,17.0,,,-17.0,254.4,,0.0,-7.0,4.998,,,0.654,0.79,0.0,14.8,,,,,,0.0,2026-02-13 16:03:49-08:00
12.06,1.0,8.0,2026-02-14 00:04:00,37.08158,-121.59959,326.0,0.0,248.3,-12.6,,,,,00:03:59,10.9,-1.2,51.9,0.0,143.0,0.0,-0.02,1.0,,-5.0,17.0,0.0,30.11,377.0,,,326.0,,,,,0.0,0.0,,,,,,,,,,,,,,,,,,,0.0,15.0,0.0,0.0,30.2,0.0,,0.0,0.0,,,36.2,0.0,0.0,-0.6,1.3,0.5,,,,,16.0,17.0,16.0,17.0,16.0,17.0,16.0,17.0,,,-17.0,254.4,,0.0,-7.0,4.998,,,0.654,0.791,0.0,14.8,,,,,,0.0,2026-02-13 16:03:49-08:00
13.06,1.0,8.0,2026-02-14 00:04:01,37.08158,-121.59959,327.0,0.0,248.3,-12.6,,,,,00:04:00,10.9,-1.2,51.9,0.0,143.0,0.0,-0.02,1.0,,-1.0,17.0,0.0,30.11,377.0,,,326.0,,,,,0.0,0.0,,,,,,,,,,,,,,,,,,,0.0,15.0,0.0,0.0,30.2,0.0,,0.0,0.0,,,36.2,0.0,0.0,-0.6,1.3,0.5,,,,,16.0,17.0,16.0,17.0,16.0,17.0,16.0,17.0,,,-17.0,254.4,,0.0,-7.0,4.998,,,0.654,0.791,0.0,14.8,,,,,,0.0,2026-02-13 16:03:49-08:00
14.06,1.0,8.0,2026-02-14 00:04:02,37.08158,-121.59959,328.0,0.0,248.3,-12.6,,,,,00:04:01,10.9,-1.2,52.0,0.0,143.0,0.0,-0.02,1.0,,-31.0,17.0,0.0,30.11,377.0,,,326.0,,,,,0.0,0.0,,,,,,,,,,,,,,,,,,,0.0,15.0,0.0,0.0,30.2,0.0,,0.0,0.0,,,36.2,0.0,0.0,-0.6,1.3,0.5,,,,,16.0,17.0,16.0,17.0,16.0,17.0,16.0,17.0,,,-17.0,254.4,,0.0,-7.0,4.998,,,0.654,0.791,0.0,14.8,,,,,,0.0,2026-02-13 16:03:49-08:00
15.06,1.0,8.0,2026-02-14 00:04:03,37.08158,-121.59958,330.0,0.0,248.3,-12.6,,,,,00:04:02,10.9,-1.2,52.0,0.0,142.0,0.0,-0.02,1.0,,-15.0,17.0,0.0,30.11,376.0,,,326.0,,,,,0.0,0.0,,,,,,,,,,,,,,,,,,,0.0,15.0,0.0,0.0,30.2,0.0,,0.0,0.0,,,36.2,0.0,0.0,-0.6,1.3,0.5,,,,,16.0,17.0,16.0,17.0,16.0,17.0,16.0,17.0,,,-17.0,254.4,,0.0,-7.0,4.998,,,0.654,0.79,0.0,14.8,,,,,,0.0,2026-02-13 16:03:49-08:00
16.06,1.0,8.0,2026-02-14 00:04:04,37.08157,-121.59958,332.0,0.0,248.3,-12.6,,,,,00:04:03,11.0,-1.1,52.0,0.0,140.0,0.0,-0.02,1.0,,-68.0,17.0,0.0,30.11,377.0,,,326.0,,,,,0.0,0.0,,,,,,,,,,,,,,,,,,,0.0,15.0,0.0,0.0,30.2,0.0,,0.0,0.0,,,36.2,0.0,0.0,-0.6,1.3,0.5,,,,,16.0,17.0,16.0,17.0,16.0,17.0,16.0,17.0,,,-17.0,254.4,,0.0,-7.0,4.998,,,0.654,0.791,0.0,14.8,,,,,,0.0,2026-02-13 16:03:49-08:00
17.06,1.0,8.0,2026-02-14 00:04:05,37.08157,-121.59958,334.0,0.0,248.3,-12.6,,,,,00:04:04,11.0,-1.1,52.0,0.0,138.0,0.0,-0.02,1.0,,-72.0,17.0,0.0,30.11,377.0,,,326.0,,,,,0.0,0.0,,,,,,,,,,,,,,,,,,,0.0,15.0,0.0,0.0,30.2,0.0,,0.0,0.0,,,36.2,0.0,0.0,-0.6,1.3,0.5,,,,,16.0,17.0,16.0,17.0,16.0,17.0,16.0,17.0,,,-17.0,254.4,,0.0,-7.0,4.998,,,0.654,0.79,0.0,14.8,,,,,,0.0,2026-02-13 16:03:49-08:00
18.06,1.0,8.0,2026-02-14 00:04:06,37.08157,-121.59958,336.0,0.0,248.3,-12.6,,,,,00:04:05,11.0,-1.1,52.0,0.0,138.0,0.0,-0.02,1.0,,-26.0,17.0,0.0,30.11,377.0,,,326.0,,,,,0.0,0.0,,,,,,,,,,,,,,,,,,,0.0,15.0,0.0,0.0,30.2,0.0,,0.0,0.0,,,36.2,0.0,0.0,-0.6,1.3,0.5,,,,,16.0,17.0,16.0,17.0,16.0,17.0,16.0,17.0,,,-17.0,254.4,,0.0,-7.0,4.998,,,0.654,0.791,0.0,14.8,,,,,,0.0,2026-02-13 16:03:49-08:00
19.06,1.0,8.0,2026-02-14 00:04:07,37.08157,-121.59958,338.0,0.0,248.3,-12.6,,,,,00:04:06,10.9,-1.2,51.9,0.0,138.0,0.0,-0.02,1.0,,-26.0,17.0,0.0,30.11,372.0,,,326.0,,,,,0.0,0.0,,,,,,,,,,,,,,,,,,,0.0,15.0,0.0,0.0,30.2,0.0,,0.0,0.0,,,36.2,0.0,0.0,-0.6,1.3,0.5,,,,,16.0,17.0,16.0,17.0,16.0,17.0,16.0,17.0,,,-17.0,254.4,,0.0,-7.0,4.998,,,0.654,0.791,0.0,14.8,,,,,,0.0,2026-02-13 16:03:49-08:00
20.06,1.0,8.0,2026-02-14 00:04:08,37.08157,-121.59958,339.0,0.0,248.3,-12.6,,,,,00:04:07,11.0,-1.2,51.9,0.0,138.0,0.0,-0.02,1.0,,-42.0,17.0,0.0,30.11,372.0,,,326.0,,,,,0.0,0.0,,,,,,,,,,,,,,,,,,,0.0,15.0,0.0,0.0,30.2,0.0,,0.0,0.0,,,36.2,0.0,0.0,-0.6,1.3,0.5,,,,,16.0,17.0,16.0,17.0,16.0,17.0,16.0,17.0,,,-17.0,254.4,,0.0,-7.0,4.998,,,0.654,0.791,0.0,14.8,,,,,,0.0,2026-02-13 16:03:49-08:00
21.06,1.0,8.0,2026-02-14 00:04:09,37.08157,-121.59958,341.0,0.0,248.3,-12.6,,,,,00:04:08,11.0,-1.2,51.8,0.0,136.0,-0.0,-0.02,1.0,,-70.0,17.0,0.0,30.11,372.0,,,326.0,,,,,0.0,0.0,,,,,,,,,,,,,,,,,,,0.0,15.0,0.0,0.0,30.2,0.0,,0.0,0.0,,,36.2,0.0,0.0,-0.6,1.3,0.5,,,,,16.0,17.0,16.0,17.0,16.0,17.0,16.0,17.0,,,-17.0,254.4,,0.0,-7.0,4.998,,,0.654,0.791,0.0,14.8,,,,,,0.0,2026-02-13 16:03:49-08:00
22.06,1.0,8.0,2026-02-14 00:04:10,37.08157,-121.59959,342.0,0.0,248.3,-12.6,,,,,00:04:09,11.0,-1.2,51.8,0.0,135.0,-0.0,-0.02,1.0,,-52.0,17.0,0.0,30.11,369.0,,,326.0,,,,,0.0,0.0,,,,,,,,,,,,,,,,,,,0.0,15.0,0.0,0.0,30.2,0.0,,0.0,0.0,,,36.2,0.0,0.0,-0.6,1.3,0.5,,,,,16.0,17.0,16.0,17.0,16.0,17.0,16.0,17.0,,,-17.0,254.4,,0.0,-7.0,4.998,,,0.654,0.791,0.0,14.8,,,,,,0.0,2026-02-13 16:03:49-08:00
23.06,1.0,8.0,2026-02-14 00:04:11,37.08157,-121.59959,343.0,0.0,248.3,-12.6,,,,,00:04:10,11.0,-1.2,51.8,0.0,134.0,0.0,-0.02,1.0,,-41.0,17.0,0.0,30.11,369.0,,,326.0,,,,,0.0,0.0,,,,,,,,,,,,,,,,,,,0.0,15.0,0.0,0.0,30.2,0.0,,0.0,0.0,,,36.2,0.0,0.0,-0.6,1.3,0.5,,,,,16.0,17.0,16.0,17.0,16.0,17.0,16.0,17.0,,,-17.0,254.4,,0.0,-7.0,4.998,,,0.654,0.79,0.0,14.8,,,,,,0.0,2026-02-13 16:03:49-08:00
24.06,1.0,8.0,2026-02-14 00:04:12,37.08157,-121.59959,344.0,0.0,248.3,-12.6,,,,,00:04:11,11.0,-1.2,51.9,0.0,133.0,0.0,-0.02,1.0,,-48.0,17.0,0.0,30.11,369.0,,,326.0,,,,,0.0,0.0,,,,,,,,,,,,,,,,,,,0.0,15.0,0.0,0.0,30.2,0.0,,0.0,0.0,,,36.2,0.0,0.0,-0.6,1.3,0.5,,,,,16.0,17.0,16.0,17.0,16.0,17.0,16.0,17.0,,,-17.0,254.4,,0.0,-7.0,4.998,,,0.654,0.791,0.0,14.8,,,,,,0.0,2026-02-13 16:03:49-08:00
25.06,1.0,8.0,2026-02-14 00:04:13,37.08157,-121.59959,344.0,0.0,248.3,-12.6,,,,,00:04:12,11.0,-1.2,51.9,0.0,132.0,0.0,-0.02,1.0,,-54.0,17.0,0.0,30.11,375.0,,,326.0,,,,,0.0,0.0,,,,,,,,,,,,,,,,,,,0.0,15.0,0.0,0.0,30.2,0.0,,0.0,0.0,,,36.2,0.0,0.0,-0.6,1.3,0.5,,,,,16.0,17.0,16.0,17.0,16.0,17.0,16.0,17.0,,,-17.0,254.4,,0.0,-7.0,4.998,,,0.654,0.791,0.0,14.8,,,,,,0.0,2026-02-13 16:03:49-08:00
26.06,1.0,8.0,2026-02-14 00:04:14,37.08157,-121.59959,344.0,0.1,248.3,-12.6,,,,,00:04:13,11.0,-1.2,51.9,0.0,130.0,0.0,-0.02,1.0,,-42.0,17.0,0.0,30.11,375.0,,,326.0,,,,,0.0,0.0,,,,,,,,,,,,,,,,,,,0.0,15.0,0.0,0.0,30.2,0.0,,0.0,0.0,,,36.2,0.0,0.0,-0.6,1.3,0.5,,,,,16.0,17.0,16.0,17.0,16.0,17.0,16.0,17.0,,,-17.0,254.4,,0.0,-7.0,4.998,,,0.654,0.791,0.0,14.8,,,,,,0.0,2026-02-13 16:03:49-08:00
27.06,1.0,8.0,2026-02-14 00:04:15,37.08157,-121.59959,344.0,0.0,248.3,-12.6,,,,,00:04:14,11.0,-1.2,51.8,0.0,129.0,-0.0,-0.02,1.0,,-92.0,17.0,0.0,30.11,375.0,,,326.0,,,,,0.0,0.0,,,,,,,,,,,,,,,,,,,0.0,15.0,0.0,0.0,30.2,0.0,,0.0,0.0,,,36.2,0.0,0.0,-0.6,1.3,0.5,,,,,16.0,17.0,16.0,17.0,16.0,17.0,16.0,17.0,,,-17.0,254.4,,0.0,-7.0,4.998,,,0.654,0.791,0.0,14.8,,,,,,0.0,2026-02-13 16:03:49-08:00
28.06,1.0,8.0,2026-02-14 00:04:16,37.08157,-121.59959,344.0,0.0,248.3,-12.6,,,,,00:04:15,11.0,-1.2,51.9,0.0,125.0,0.0,-0.02,1.0,,-126.0,17.0,0.0,30.11,368.0,,,326.0,,,,,0.0,0.0,,,,,,,,,,,,,,,,,,,0.0,15.0,0.0,0.0,30.2,0.0,,0.0,0.0,,,36.2,0.0,0.0,-0.6,1.3,0.5,,,,,16.0,17.0,16.0,17.0,16.0,17.0,16.0,17.0,,,-17.0,254.4,,0.0,-7.0,4.998,,,0.654,0.791,0.0,14.8,,,,,,0.0,2026-02-13 16:03:49-08:00
29.06,1.0,8.0,2026-02-14 00:04:17,37.08157,-121.59959,343.0,0.0,248.3,-12.6,,,,,00:04:16,11.0,-1.2,51.9,0.0,123.0,0.0,-0.02,1.0,,-119.0,17.0,0.0,30.11,368.0,,,326.0,,,,,0.0,0.0,,,,,,,,,,,,,,,,,,,0.0,15.0,0.0,0.0,30.2,0.0,,0.0,0.0,,,36.2,0.0,0.0,-0.6,1.3,0.5,,,,,16.0,17.0,16.0,17.0,16.0,17.0,16.0,17.0,,,-17.0,254.4,,0.0,-7.0,4.998,,,0.654,0.79,0.0,14.8,,,,,,0.0,2026-02-13 16:03:49-08:00
30.06,1.0,8.0,2026-02-14 00:04:18,37.08157,-121.59959,343.0,0.0,248.3,-12.6,,,,,00:04:17,11.0,-1.1,51.9,0.0,121.0,0.0,-0.02,1.0,,-133.0,17.0,0.0,30.11,368.0,,,326.0,,,,,0.0,0.0,,,,,,,,,,,,,,,,,,,0.0,15.0,0.0,0.0,30.2,0.0,,0.0,0.0,,,36.2,0.0,0.0,-0.6,1.3,0.5,,,,,16.0,17.0,16.0,17.0,16.0,17.0,16.0,17.0,,,-17.0,254.4,,0.0,-7.0,4.998,,,0.654,0.791,0.0,14.8,,,,,,0.0,2026-02-13 16:03:49-08:00
31.06,1.0,8.0,2026-02-14 00:04:19,37.08157,-121.59959,342.0,0.0,248.3,-12.6,,,,,00:04:18,11.0,-1.1,51.9,0.0,120.0,0.0,-0.02,1.0,,-99.0,17.0,0.0,30.11,360.0,,,326.0,,,,,0.0,0.0,,,,,,,,,,,,,,,,,,,0.0,15.0,0.0,0.0,30.2,0.0,,0.0,0.0,,,36.2,0.0,0.0,-0.6,1.3,0.5,,,,,16.0,17.0,16.0,17.0,16.0,17.0,16.0,17.0,,,-17.0,254.4,,0.0,-7.0,4.998,,,0.654,0.79,0.0,14.8,,,,,,0.0,2026-02-13 16:03:49-08:00
32.06,1.0,8.0,2026-02-14 00:04:20,37.08157,-121.59959,341.0,0.0,248.3,-12.6,,,,,00:04:19,11.0,-1.2,51.8,0.0,119.0,0.0,-0.02,1.0,,-99.0,17.0,0.0,30.11,360.0,,,326.0,,,,,0.0,0.0,,,,,,,,,,,,,,,,,,,0.0,15.0,0.0,0.0,30.2,0.0,,0.0,0.0,,,36.2,0.0,0.0,-0.6,1.3,0.5,,,,,16.0,17.0,16.0,17.0,16.0,17.0,16.0,17.0,,,-17.0,254.4,,0.0,-7.0,4.998,,,0.654,0.791,0.0,14.8,,,,,,0.0,2026-02-13 16:03:49-08:00
33.06,1.0,8.0,2026-02-14 00:04:21,37.08157,-121.59959,341.0,0.0,248.3,-12.6,,,,,00:04:20,11.0,-1.2,51.8,0.0,117.0,0.0,-0.02,1.0,,-86.0,17.0,0.0,30.11,360.0,,,326.0,,,,,0.0,0.0,,,,,,,,,,,,,,,,,,,0.0,15.0,0.0,0.0,30.2,0.0,,0.0,0.0,,,36.2,0.0,0.0,-0.6,1.3,0.5,,,,,16.0,17.0,16.0,17.0,16.0,17.0,16.0,17.0,,,-17.0,254.4,,0.0,-7.0,4.998,,,0.654,0.791,0.0,14.8,,,,,,0.0,2026-02-13 16:03:49-08:00
34.06,1.0,8.0,2026-02-14 00:04:22,37.08157,-121.59959,340.0,0.0,248.3,-12.6,,,,,00:04:21,11.0,-1.2,51.8,0.0,116.0,-0.0,-0.02,1.0,,-90.0,17.0,0.0,30.11,357.0,,,326.0,,,,,0.0,0.0,,,,,,,,,,,,,,,,,,,0.0,15.0,0.0,0.0,30.2,0.0,,0.0,0.0,,,36.2,0.0,0.0,-0.6,1.3,0.5,,,,,16.0,17.0,16.0,17.0,16.0,17.0,16.0,17.0,,,-18.0,254.4,,0.0,-7.0,4.998,,,0.654,0.791,0.0,14.8,,,,,,0.0,2026-02-13 16:03:49-08:00
35.06,1.0,8.0,2026-02-14 00:04:23,37.08157,-121.59959,339.0,0.0,248.3,-12.6,,,,,00:04:22,11.0,-1.2,51.8,0.0,116.0,-0.0,-0.02,1.0,,-61.0,17.0,0.0,30.11,357.0,,,326.0,,,,,0.0,0.0,,,,,,,,,,,,,,,,,,,0.0,15.0,0.0,0.0,30.2,0.0,,0.0,0.0,,,36.2,0.0,0.0,-0.6,1.3,0.5,,,,,16.0,17.0,16.0,17.0,16.0,17.0,16.0,17.0,,,-18.0,254.4,,0.0,-7.0,4.998,,,0.654,0.791,0.0,14.8,,,,,,0.0,2026-02-13 16:03:49-08:00
36.06,1.0,8.0,2026-02-14 00:04:24,37.08156,-121.59959,339.0,0.0,248.3,-12.6,,,,,00:04:23,11.0,-1.2,51.8,0.0,115.0,0.0,-0.02,1.0,,-51.0,17.0,0.0,30.11,357.0,,,326.0,,,,,0.0,0.0,,,,,,,,,,,,,,,,,,,0.0,15.0,0.0,0.0,30.2,0.0,,0.0,0.0,,,36.2,0.0,0.0,-0.6,1.3,0.5,,,,,16.0,17.0,16.0,17.0,16.0,17.0,16.0,17.0,,,-19.0,254.4,,0.0,-7.0,4.998,,,0.654,0.79,0.0,14.8,,,,,,0.0,2026-02-13 16:03:49-08:00
37.06,1.0,8.0,2026-02-14 00:04:25,37.08156,-121.59959,338.0,0.0,248.3,-12.6,,,,,00:04:24,11.0,-1.2,51.8,0.0,115.0,0.0,-0.02,1.0,,-22.0,17.0,0.0,30.11,354.0,,,326.0,,,,,0.0,0.0,,,,,,,,,,,,,,,,,,,0.0,15.0,0.0,0.0,30.2,0.0,,0.0,0.0,,,36.2,0.0,0.0,-0.6,1.3,0.5,,,,,16.0,17.0,16.0,17.0,16.0,17.0,16.0,17.0,,,-18.0,254.4,,0.0,-7.0,4.998,,,0.654,0.791,0.0,14.8,,,,,,0.0,2026-02-13 16:03:49-08:00
38.06,1.0,8.0,2026-02-14 00:04:26,37.08156,-121.59959,337.0,0.0,248.3,-12.6,,,,,00:04:25,11.0,-1.2,51.8,0.0,115.0,0.0,-0.02,1.0,,-16.0,17.0,0.0,30.11,354.0,,,326.0,,,,,0.0,0.0,,,,,,,,,,,,,,,,,,,0.0,15.0,0.0,0.0,30.2,0.0,,0.0,0.0,,,36.2,0.0,0.0,-0.6,1.3,0.5,,,,,16.0,17.0,16.0,17.0,16.0,17.0,16.0,17.0,,,-18.0,254.4,,0.0,-7.0,4.998,,,0.654,0.791,0.0,14.8,,,,,,0.0,2026-02-13 16:03:49-08:00
39.06,1.0,8.0,2026-02-14 00:04:27,37.08156,-121.59959,337.0,0.0,248.3,-12.6,,,,,00:04:26,11.0,-1.2,51.8,0.0,114.0,0.0,-0.02,1.0,,-38.0,17.0,0.0,30.11,354.0,,,326.0,,,,,0.0,0.0,,,,,,,,,,,,,,,,,,,0.0,15.0,0.0,0.0,30.2,0.0,,0.0,0.0,,,36.2,0.0,0.0,-0.6,1.3,0.5,,,,,16.0,17.0,16.0,17.0,16.0,17.0,16.0,17.0,,,-18.0,254.4,,0.0,-7.0,4.998,,,0.654,0.791,0.0,14.8,,,,,,0.0,2026-02-13 16:03:49-08:00
40.06,1.0,8.0,2026-02-14 00:04:28,37.08157,-121.59959,336.0,0.0,248.3,-12.6,,,,,00:04:27,11.0,-1.2,51.8,0.0,114.0,0.0,-0.02,1.0,,-5.0,17.0,0.0,30.11,353.0,,,326.0,,,,,0.0,0.0,,,,,,,,,,,,,,,,,,,0.0,15.0,0.0,0.0,30.2,0.0,,0.0,0.0,,,36.2,0.0,0.0,-0.6,1.3,0.5,,,,,16.0,17.0,16.0,17.0,16.0,17.0,16.0,17.0,,,-19.0,254.4,,0.0,-7.0,4.998,,,0.654,0.791,0.0,14.8,,,,,,0.0,2026-02-13 16:03:49-08:00
41.06,1.0,8.0,2026-02-14 00:04:29,37.08157,-121.59959,336.0,0.0,248.3,-12.6,,,,,00:04:28,11.0,-1.2,51.7,0.0,113.0,-0.0,-0.02,1.0,,-28.0,17.0,0.0,30.11,354.0,,,326.0,,,,,0.0,0.0,,,,,,,,,,,,,,,,,,,0.0,15.0,0.0,0.0,30.2,0.0,,0.0,0.0,,,36.2,0.0,0.0,-0.6,1.3,0.5,,,,,16.0,17.0,16.0,17.0,16.0,17.0,16.0,17.0,,,-19.0,254.4,,0.0,-7.0,4.998,,,0.654,0.791,0.0,14.8,,,,,,0.0,2026-02-13 16:03:49-08:00
42.06,1.0,8.0,2026-02-14 00:04:30,37.08157,-121.59959,335.0,0.0,248.3,-12.6,,,,,00:04:29,11.0,-1.3,51.7,0.0,112.0,-0.0,-0.02,1.0,,-18.0,17.0,0.0,30.11,354.0,,,326.0,,,,,0.0,0.0,,,,,,,,,,,,,,,,,,,0.0,15.0,0.0,0.0,30.2,0.0,,0.0,0.0,,,36.2,0.0,0.0,-0.6,1.3,0.5,,,,,16.0,17.0,16.0,17.0,16.0,17.0,16.0,17.0,,,-19.0,229.7,,0.0,-7.0,4.998,,,0.654,0.791,0.0,14.8,,,,,,0.0,2026-02-13 16:03:49-08:00
43.06,1.0,8.0,2026-02-14 00:04:31,37.08157,-121.59959,335.0,0.0,248.3,-12.6,,,,,00:04:30,11.0,-1.2,51.7,0.0,112.0,-0.0,-0.02,1.0,,-48.0,17.0,0.0,30.11,354.0,,,326.0,,,,,0.0,0.0,,,,,,,,,,,,,,,,,,,0.0,15.0,0.0,0.0,30.2,0.0,,0.0,0.0,,,36.2,0.0,0.0,-0.6,1.3,0.5,,,,,16.0,17.0,16.0,17.0,16.0,17.0,16.0,17.0,,,-19.0,178.8,,0.0,-7.0,4.998,,,0.654,0.791,0.0,14.8,,,,,,0.0,2026-02-13 16:03:49-08:00
44.06,1.0,8.0,2026-02-14 00:04:32,37.08157,-121.59959,334.0,0.0,248.3,-12.6,,,,,00:04:31,11.0,-1.2,51.7,0.0,111.0,-0.0,-0.02,1.0,,-38.0,17.0,0.0,30.11,350.0,,,326.0,,,,,0.0,0.0,,,,,,,,,,,,,,,,,,,0.0,15.0,0.0,0.0,30.2,0.0,,0.0,0.0,,,36.2,0.0,0.0,-0.6,1.3,0.5,,,,,16.0,17.0,16.0,17.0,16.0,17.0,16.0,17.0,,,-19.0,139.2,,0.0,-7.0,4.998,,,0.654,0.79,0.0,14.8,,,,,,0.0,2026-02-13 16:03:49-08:00
45.06,1.0,8.0,2026-02-14 00:04:33,37.08157,-121.59959,334.0,0.0,248.3,-12.6,,,,,00:04:32,11.0,-1.2,51.7,0.0,110.0,-0.0,-0.02,1.0,,-48.0,17.0,0.0,30.11,350.0,,,326.0,,,,,0.0,0.0,,,,,,,,,,,,,,,,,,,0.0,15.0,0.0,0.0,30.2,0.0,,0.0,0.0,,,36.2,0.0,0.0,-0.6,1.3,0.5,,,,,16.0,17.0,16.0,17.0,16.0,17.0,16.0,17.0,,,-19.0,108.4,,0.0,-7.0,4.998,,,0.654,0.79,0.0,14.8,,,,,,0.0,2026-02-13 16:03:49-08:00
46.06,1.0,8.0,2026-02-14 00:04:34,37.08157,-121.59959,333.0,0.0,248.3,-12.6,,,,,00:04:33,11.1,-1.2,51.7,0.0,110.0,-0.0,-0.02,1.0,,-27.0,17.0,0.0,30.11,350.0,,,326.0,,,,,0.0,0.0,,,,,,,,,,,,,,,,,,,0.0,15.0,0.0,0.0,30.2,0.0,,0.0,0.0,,,36.2,0.0,0.0,-0.6,1.3,0.5,,,,,16.0,17.0,16.0,17.0,16.0,17.0,16.0,17.0,,,-19.0,84.5,,0.0,-7.0,4.998,,,0.654,0.791,0.0,14.8,,,,,,0.0,2026-02-13 16:03:49-08:00
47.06,1.0,8.0,2026-02-14 00:04:35,37.08157,-121.59959,333.0,0.0,248.3,-12.6,,,,,00:04:34,11.1,-1.2,51.7,0.0,110.0,-0.0,-0.02,1.0,,-5.0,17.0,0.0,30.11,357.0,,,326.0,,,,,0.0,0.0,,,,,,,,,,,,,,,,,,,0.0,15.0,0.0,0.0,30.2,0.0,,0.0,0.0,,,36.2,0.0,0.0,-0.6,1.3,0.5,,,,,16.0,17.0,16.0,17.0,16.0,17.0,16.0,17.0,,,-19.0,65.9,,0.0,-7.0,4.998,,,0.654,0.79,0.0,14.8,,,,,,0.0,2026-02-13 16:03:49-08:00
48.06,1.0,8.0,2026-02-14 00:04:36,37.08157,-121.59959,332.0,0.0,248.3,-12.6,,,,,00:04:35,11.1,-1.2,51.6,0.0,110.0,-0.0,-0.02,1.0,,12.0,17.0,0.0,30.11,357.0,,,326.0,,,,,0.0,0.0,,,,,,,,,,,,,,,,,,,0.0,15.0,0.0,0.0,30.2,0.0,,0.0,0.0,,,36.2,0.0,0.0,-0.6,1.3,0.5,,,,,16.0,17.0,16.0,17.0,16.0,17.0,16.0,17.0,,,-18.0,51.4,,0.0,-7.0,4.998,,,0.654,0.79,0.0,14.8,,,,,,0.0,2026-02-13 16:03:49-08:00
49.06,1.0,8.0,2026-02-14 00:04:37,37.08157,-121.5996,331.0,0.0,248.3,-12.6,,,,,00:04:36,11.1,-1.2,51.7,0.0,110.0,0.0,-0.02,1.0,,38.0,17.0,0.0,30.11,357.0,,,326.0,,,,,0.0,0.0,,,,,,,,,,,,,,,,,,,0.0,15.0,0.0,0.0,30.2,0.0,,0.0,0.0,,,36.2,0.0,0.0,-0.6,1.3,0.5,,,,,16.0,17.0,16.0,17.0,16.0,17.0,16.0,17.0,,,-18.0,40.2,,0.0,-7.0,4.998,,,0.654,0.79,0.0,14.8,,,,,,0.0,2026-02-13 16:03:49-08:00
50.06,1.0,8.0,2026-02-14 00:04:38,37.08157,-121.5996,331.0,0.0,248.3,-12.6,,,,,00:04:37,11.0,-1.2,51.7,0.0,110.0,-0.0,-0.02,1.0,,27.0,17.0,0.0,30.11,357.0,,,326.0,,,,,0.0,0.0,,,,,,,,,,,,,,,,,,,0.0,15.0,0.0,0.0,30.2,0.0,,0.0,0.0,,,36.2,0.0,0.0,-0.6,1.3,0.5,,,,,16.0,17.0,16.0,17.0,16.0,17.0,16.0,17.0,,,-18.0,31.4,,0.0,-7.0,4.998,,,0.654,0.79,0.0,14.8,,,,,,0.0,2026-02-13 16:03:49-08:00
51.06,1.0,8.0,2026-02-14 00:04:39,37.08157,-121.5996,330.0,0.0,248.3,-12.6,,,,,00:04:38,11.1,-1.2,51.7,0.0,110.0,-0.0,-0.02,1.0,,27.0,17.0,0.0,30.11,357.0,,,326.0,,,,,0.0,0.0,,,,,,,,,,,,,,,,,,,0.0,15.0,0.0,0.0,30.2,0.0,,0.0,0.0,,,36.2,0.0,0.0,-0.6,1.3,0.5,,,,,16.0,17.0,16.0,17.0,16.0,17.0,16.0,17.0,,,-18.0,24.7,,0.0,-7.0,4.998,,,0.654,0.79,0.0,14.8,,,,,,0.0,2026-02-13 16:03:49-08:00
52.06,1.0,8.0,2026-02-14 00:04:40,37.08157,-121.5996,330.0,0.0,248.3,-12.6,,,,,00:04:39,11.1,-1.2,51.7,0.0,110.0,0.0,-0.02,1.0,,8.0,17.0,0.0,30.11,357.0,,,326.0,,,,,0.0,0.0,,,,,,,,,,,,,,,,,,,0.0,15.0,0.0,0.0,30.2,0.0,,0.0,0.0,,,36.2,0.0,0.0,-0.6,1.3,0.5,,,,,16.0,17.0,16.0,17.0,16.0,17.0,16.0,17.0,,,-18.0,19.4,,0.0,-7.0,4.998,,,0.654,0.79,0.0,14.8,,,,,,0.0,2026-02-13 16:03:49-08:00
53.06,1.0,8.0,2026-02-14 00:04:41,37.08157,-121.5996,329.0,0.0,248.3,-12.6,,,,,00:04:40,11.1,-1.2,51.7,0.0,110.0,0.0,-0.02,1.0,,18.0,17.0,0.0,30.11,358.0,,,326.0,,,,,0.0,0.0,,,,,,,,,,,,,,,,,,,0.0,15.0,0.0,0.0,30.2,0.0,,0.0,0.0,,,36.2,0.0,0.0,-0.6,1.3,0.5,,,,,16.0,17.0,16.0,17.0,16.0,17.0,16.0,17.0,,,-18.0,15.3,,0.0,-7.0,4.998,,,0.654,0.79,0.0,14.8,,,,,,0.0,2026-02-13 16:03:49-08:00
54.06,1.0,8.0,2026-02-14 00:04:42,37.08157,-121.5996,328.0,0.0,248.3,-12.6,,,,,00:04:41,11.0,-1.2,51.7,0.0,110.0,0.0,-0.02,1.0,,39.0,17.0,0.0,30.11,358.0,,,326.0,,,,,0.0,0.0,,,,,,,,,,,,,,,,,,,0.0,15.0,0.0,0.0,30.2,0.0,,0.0,0.0,,,36.2,0.0,0.0,-0.6,1.3,0.5,,,,,16.0,17.0,16.0,17.0,16.0,17.0,16.0,17.0,,,-18.0,12.1,,0.0,-7.0,4.998,,,0.654,0.79,0.0,14.8,,,,,,0.0,2026-02-13 16:03:49-08:00
55.06,1.0,8.0,2026-02-14 00:04:43,37.08157,-121.5996,328.0,0.0,248.3,-12.6,,,,,00:04:42,11.1,-1.2,51.7,0.0,110.0,0.0,-0.02,1.0,,-3.0,17.0,0.0,30.11,357.0,,,326.0,,,,,0.0,0.0,,,,,,,,,,,,,,,,,,,0.0,15.0,0.0,0.0,30.2,0.0,,0.0,0.0,,,36.2,0.0,0.0,-0.6,1.3,0.5,,,,,16.0,17.0,16.0,17.0,16.0,17.0,16.0,17.0,,,-18.0,9.6,,0.0,-7.0,4.998,,,0.654,0.79,0.0,14.8,,,,,,0.0,2026-02-13 16:03:49-08:00
56.06,1.0,8.0,2026-02-14 00:04:44,37.08157,-121.5996,327.0,0.0,248.3,-12.6,,,,,00:04:43,11.0,-1.2,51.7,0.0,110.0,0.0,-0.02,1.0,,-15.0,17.0,0.0,30.11,357.0,,,326.0,,,,,0.0,0.0,,,,,,,,,,,,,,,,,,,0.0,15.0,0.0,0.0,30.2,0.0,,0.0,0.0,,,36.2,0.0,0.0,-0.6,1.3,0.5,,,,,16.0,17.0,16.0,17.0,16.0,17.0,16.0,17.0,,,-17.0,7.7,,0.0,-7.0,4.998,,,0.654,0.791,0.0,14.8,,,,,,0.0,2026-02-13 16:03:49-08:00
57.06,1.0,8.0,2026-02-14 00:04:45,37.08157,-121.5996,327.0,0.0,248.3,-12.6,,,,,00:04:44,11.0,-1.2,51.7,0.0,110.0,-0.0,-0.02,1.0,,-15.0,17.0,0.0,30.11,357.0,,,326.0,,,,,0.0,0.0,,,,,,,,,,,,,,,,,,,0.0,15.0,0.0,0.0,30.2,0.0,,0.0,0.0,,,36.2,0.0,0.0,-0.6,1.3,0.5,,,,,16.0,17.0,16.0,17.0,16.0,17.0,16.0,17.0,,,-18.0,6.2,,0.0,-7.0,4.998,,,0.654,0.79,0.0,14.8,,,,,,0.0,2026-02-13 16:03:49-08:00
58.06,1.0,8.0,2026-02-14 00:04:46,37.08157,-121.5996,326.0,0.0,248.3,-12.6,,,,,00:04:45,11.0,-1.3,51.7,0.0,110.0,-0.0,-0.02,1.0,,10.0,17.0,0.0,30.11,358.0,,,326.0,,,,,0.0,0.0,,,,,,,,,,,,,,,,,,,0.0,15.0,0.0,0.0,30.2,0.0,,0.0,0.0,,,36.2,0.0,0.0,-0.6,1.3,0.5,,,,,16.0,17.0,16.0,17.0,16.0,17.0,16.0,17.0,,,-18.0,5.0,,0.0,-7.0,4.998,,,0.654,0.791,0.0,14.8,,,,,,0.0,2026-02-13 16:03:49-08:00
59.06,1.0,8.0,2026-02-14 00:04:47,37.08157,-121.5996,325.0,0.0,248.3,-12.6,,,,,00:04:46,11.0,-1.3,51.7,0.0,110.0,-0.0,-0.02,1.0,,-14.0,17.0,0.0,30.11,358.0,,,326.0,,,,,0.0,0.0,,,,,,,,,,,,,,,,,,,0.0,15.0,0.0,0.0,30.2,0.0,,0.0,0.0,,,36.2,0.0,0.0,-0.6,1.3,0.5,,,,,16.0,17.0,16.0,17.0,16.0,17.0,16.0,17.0,,,-18.0,4.1,,0.0,-7.0,4.998,,,0.654,0.791,0.0,14.8,,,,,,0.0,2026-02-13 16:03:49-08:00
60.06,1.0,8.0,2026-02-14 00:04:48,37.08157,-121.5996,324.0,0.0,248.3,-12.6,,,,,00:04:47,11.0,-1.3,51.7,0.0,110.0,-0.0,-0.02,1.0,,-24.0,17.0,0.0,30.11,358.0,,,326.0,,,,,0.0,0.0,,,,,,,,,,,,,,,,,,,0.0,15.0,0.0,0.0,30.2,0.0,,0.0,0.0,,,36.2,0.0,0.0,-0.6,1.3,0.5,,,,,16.0,17.0,16.0,17.0,16.0,17.0,16.0,17.0,,,-18.0,3.4,,0.0,-7.0,4.998,,,0.654,0.79,0.0,14.8,,,,,,0.0,2026-02-13 16:03:49-08:00
61.06,1.0,9.0,2026-02-14 00:04:49,37.08148,-121.59962,401.0,0.0,248.3,-12.6,,,,,00:04:48,11.0,-1.3,51.7,0.0,110.0,0.0,-0.02,1.0,,-17.0,17.0,0.0,30.11,358.0,,,326.0,,,,,0.0,0.0,,,,,,,,,,,,,,,,,,,0.0,15.0,0.0,0.0,30.2,0.0,,0.0,0.0,,,36.2,0.0,0.0,-0.6,1.3,0.5,,,,,16.0,17.0,16.0,17.0,16.0,17.0,16.0,17.0,,,-18.0,2.9,,0.0,-7.0,4.998,,,0.654,0.79,0.0,14.8,,,,,,0.0,2026-02-13 16:03:49-08:00
62.06,1.0,9.0,2026-02-14 00:04:50,37.08152,-121.59962,365.0,0.0,248.3,-12.6,,,,,00:04:49,11.0,-1.3,51.7,0.0,110.0,0.0,-0.02,1.0,,-12.0,17.0,0.0,30.11,358.0,,,326.0,,,,,0.0,0.0,,,,,,,,,,,,,,,,,,,0.0,15.0,0.0,0.0,30.2,0.0,,0.0,0.0,,,36.2,0.0,0.0,-0.6,1.3,0.5,,,,,16.0,17.0,16.0,17.0,16.0,17.0,16.0,17.0,,,-18.0,2.4,,0.0,-7.0,4.998,,,0.654,0.791,0.0,14.8,,,,,,0.0,2026-02-13 16:03:49-08:00
63.06,1.0,9.0,2026-02-14 00:04:51,37.08152,-121.59962,365.0,0.1,248.3,-12.6,,,,,00:04:50,11.0,-1.3,51.7,0.0,109.0,0.0,-0.02,1.0,,-48.0,17.0,0.0,30.11,358.0,,,326.0,,,,,0.0,0.0,,,,,,,,,,,,,,,,,,,0.0,15.0,0.0,0.0,30.2,0.0,,0.0,0.0,,,36.2,0.0,0.0,-0.6,1.3,0.5,,,,,16.0,17.0,16.0,17.0,16.0,17.0,16.0,17.0,,,-18.0,2.1,,0.0,-7.0,4.998,,,0.654,0.79,0.0,14.8,,,,,,0.0,2026-02-13 16:03:49-08:00
64.06,1.0,9.0,2026-02-14 00:04:52,37.08152,-121.59962,364.0,0.0,248.3,-12.6,,,,,00:04:51,11.0,-1.3,51.7,0.0,107.0,0.0,-0.02,1.0,,-78.0,17.0,0.0,30.11,356.0,,,326.0,,,,,0.0,0.0,,,,,,,,,,,,,,,,,,,0.0,15.0,0.0,0.0,30.2,0.0,,0.0,0.0,,,36.2,0.0,0.0,-0.6,1.3,0.5,,,,,16.0,17.0,16.0,17.0,16.0,17.0,16.0,17.0,,,-18.0,1.9,,0.0,-7.0,4.998,,,0.654,0.791,0.0,14.8,,,,,,0.0,2026-02-13 16:03:49-08:00
65.06,1.0,9.0,2026-02-14 00:04:53,37.08152,-121.59962,364.0,0.0,248.3,-12.6,,,,,00:04:52,11.0,-1.2,51.7,0.0,107.0,0.0,-0.02,1.0,,-46.0,17.0,0.0,30.11,356.0,,,326.0,,,,,0.0,0.0,,,,,,,,,,,,,,,,,,,0.0,15.0,0.0,0.0,30.2,0.0,,0.0,0.0,,,36.2,0.0,0.0,-0.6,1.3,0.5,,,,,16.0,17.0,16.0,17.0,16.0,17.0,16.0,17.0,,,-18.0,1.7,,0.0,-7.0,4.998,,,0.654,0.79,0.0,14.8,,,,,,0.0,2026-02-13 16:03:49-08:00
66.06,1.0,9.0,2026-02-14 00:04:54,37.08152,-121.59962,362.0,0.0,248.3,-12.6,,,,,00:04:53,11.0,-1.3,51.7,0.0,107.0,-0.0,-0.02,1.0,,-45.0,17.0,0.0,30.11,356.0,,,326.0,,,,,0.0,0.0,,,,,,,,,,,,,,,,,,,0.0,15.0,0.0,0.0,30.2,0.0,,0.0,0.0,,,36.2,0.0,0.0,-0.6,1.3,0.5,,,,,16.0,17.0,16.0,17.0,16.0,17.0,16.0,17.0,,,-18.0,1.5,,0.0,-7.0,4.998,,,0.654,0.79,0.0,14.8,,,,,,0.0,2026-02-13 16:03:49-08:00
67.06,1.0,9.0,2026-02-14 00:04:55,37.08152,-121.59962,361.0,0.0,248.3,-12.6,,,,,00:04:54,11.0,-1.3,51.7,0.0,107.0,-0.0,-0.02,1.0,,-42.0,17.0,0.0,30.11,354.0,,,326.0,,,,,0.0,0.0,,,,,,,,,,,,,,,,,,,0.0,15.0,0.0,0.0,30.2,0.0,,0.0,0.0,,,36.2,0.0,0.0,-0.6,1.3,0.5,,,,,16.0,17.0,16.0,17.0,16.0,17.0,16.0,17.0,,,-19.0,1.4,,0.0,-7.0,4.998,,,0.654,0.79,0.0,14.8,,,,,,0.0,2026-02-13 16:03:49-08:00
68.06,1.0,9.0,2026-02-14 00:04:56,37.08152,-121.59962,360.0,0.0,248.3,-12.6,,,,,00:04:55,11.1,-1.3,51.7,0.0,105.0,-0.0,-0.02,1.0,,-48.0,17.0,0.0,30.11,354.0,,,326.0,,,,,0.0,0.0,,,,,,,,,,,,,,,,,,,0.0,15.0,0.0,0.0,30.2,0.0,,0.0,0.0,,,36.2,0.0,0.0,-0.6,1.3,0.5,,,,,16.0,17.0,16.0,17.0,16.0,17.0,16.0,17.0,,,-19.0,1.3,,0.0,-7.0,4.998,,,0.654,0.791,0.0,14.8,,,,,,0.0,2026-02-13 16:03:49-08:00
69.06,1.0,8.0,2026-02-14 00:04:57,37.08158,-121.59962,298.0,0.0,248.3,-12.6,,,,,00:04:56,11.0,-1.3,51.7,0.0,104.0,0.0,-0.02,1.0,,-44.0,17.0,0.0,30.11,354.0,,,326.0,,,,,0.0,0.0,,,,,,,,,,,,,,,,,,,0.0,15.0,0.0,0.0,30.2,0.0,,0.0,0.0,,,36.2,0.0,0.0,-0.6,1.3,0.5,,,,,16.0,17.0,16.0,17.0,16.0,17.0,16.0,17.0,,,-19.0,1.2,,0.0,-7.0,4.998,,,0.654,0.79,0.0,14.8,,,,,,0.0,2026-02-13 16:03:49-08:00
70.06,1.0,8.0,2026-02-14 00:04:58,37.08158,-121.59962,298.0,0.0,248.3,-12.6,,,,,00:04:57,11.0,-1.2,51.7,0.0,104.0,0.0,-0.02,1.0,,-42.0,17.0,0.0,30.11,351.0,,,326.0,,,,,0.0,0.0,,,,,,,,,,,,,,,,,,,0.0,15.0,0.0,0.0,30.2,0.0,,0.0,0.0,,,36.2,0.0,0.0,-0.6,1.3,0.5,,,,,16.0,17.0,16.0,17.0,16.0,17.0,16.0,17.0,,,-19.0,1.2,,0.0,-7.0,4.998,,,0.654,0.791,0.0,14.8,,,,,,0.0,2026-02-13 16:03:49-08:00
71.06,1.0,8.0,2026-02-14 00:04:59,37.08158,-121.59962,299.0,0.0,248.3,-12.6,,,,,00:04:58,11.0,-1.2,51.7,0.0,102.0,0.0,-0.02,1.0,,-75.0,17.0,0.0,30.11,351.0,,,326.0,,,,,0.0,0.0,,,,,,,,,,,,,,,,,,,0.0,15.0,0.0,0.0,30.2,0.0,,0.0,0.0,,,36.2,0.0,0.0,-0.6,1.3,0.5,,,,,16.0,17.0,16.0,17.0,16.0,17.0,16.0,17.0,,,-19.0,1.1,,0.0,-7.0,4.998,,,0.654,0.79,0.0,14.8,,,,,,0.0,2026-02-13 16:03:49-08:00
72.06,1.0,8.0,2026-02-14 00:05:00,37.08158,-121.59962,299.0,0.0,248.3,-12.6,,,,,00:04:59,11.0,-1.2,51.8,0.0,102.0,0.0,-0.02,1.0,,-27.0,17.0,0.0,30.11,351.0,,,326.0,,,,,0.0,0.0,,,,,,,,,,,,,,,,,,,0.0,15.0,0.0,0.0,30.2,0.0,,0.0,0.0,,,36.2,0.0,0.0,-0.6,1.3,0.5,,,,,16.0,17.0,16.0,17.0,16.0,17.0,16.0,17.0,,,-18.0,1.1,,0.0,-7.0,4.998,,,0.654,0.791,0.0,14.8,,,,,,0.0,2026-02-13 16:03:49-08:00
73.06,1.0,9.0,2026-02-14 00:05:01,37.08154,-121.59962,343.0,0.0,248.3,-12.6,,,,,00:05:00,11.0,-1.2,51.8,0.0,102.0,0.0,-0.02,1.0,,-19.0,17.0,0.0,30.11,350.0,,,326.0,,,,,0.0,0.0,,,,,,,,,,,,,,,,,,,0.0,15.0,0.0,0.0,30.2,0.0,,0.0,0.0,,,36.2,0.0,0.0,-0.6,1.3,0.5,,,,,16.0,17.0,16.0,17.0,16.0,17.0,16.0,17.0,,,-18.0,1.1,,0.0,-7.0,4.998,,,0.654,0.791,0.0,14.8,,,,,,0.0,2026-02-13 16:03:49-08:00
74.06,1.0,9.0,2026-02-14 00:05:02,37.08155,-121.59962,340.0,0.0,248.3,-12.6,,,,,00:05:01,11.0,-1.2,51.8,0.0,102.0,-0.0,-0.02,1.0,,-31.0,17.0,0.0,30.11,350.0,,,326.0,,,,,0.0,0.0,,,,,,,,,,,,,,,,,,,0.0,15.0,0.0,0.0,30.2,0.0,,0.0,0.0,,,36.2,0.0,0.0,-0.6,1.3,0.5,,,,,16.0,17.0,16.0,17.0,16.0,17.0,16.0,17.0,,,-18.0,1.0,,0.0,-7.0,4.998,,,0.654,0.791,0.0,14.8,,,,,,0.0,2026-02-13 16:03:49-08:00
75.06,1.0,9.0,2026-02-14 00:05:03,37.08155,-121.59962,339.0,0.0,248.3,-12.6,,,,,00:05:02,11.0,-1.3,51.7,0.0,101.0,-0.0,-0.02,1.0,,3.0,17.0,0.0,30.11,350.0,,,326.0,,,,,0.0,0.0,,,,,,,,,,,,,,,,,,,0.0,15.0,0.0,0.0,30.2,0.0,,0.0,0.0,,,36.2,0.0,0.0,-0.7,1.3,0.5,,,,,16.0,17.0,16.0,17.0,16.0,17.0,16.0,17.0,,,-18.0,1.0,,0.0,-7.0,4.998,,,0.654,0.79,0.0,14.8,,,,,,0.0,2026-02-13 16:03:49-08:00
76.06,1.0,9.0,2026-02-14 00:05:04,37.08155,-121.59962,338.0,0.0,248.3,-12.6,,,,,00:05:03,11.1,-1.3,51.7,0.0,101.0,-0.0,-0.02,1.0,,12.0,17.0,0.0,30.11,349.0,,,326.0,,,,,0.0,0.0,,,,,,,,,,,,,,,,,,,0.0,15.0,0.0,0.0,30.2,0.0,,0.0,0.0,,,36.2,0.0,0.0,-0.7,1.3,0.5,,,,,16.0,17.0,16.0,17.0,16.0,17.0,16.0,17.0,,,-18.0,1.0,,0.0,-7.0,4.998,,,0.654,0.79,0.0,14.8,,,,,,0.0,2026-02-13 16:03:49-08:00
77.06,1.0,9.0,2026-02-14 00:05:05,37.08155,-121.59962,339.0,0.0,248.3,-12.6,,,,,00:05:04,11.0,-1.3,51.6,0.0,101.0,-0.0,-0.02,1.0,,-13.0,17.0,0.0,30.11,349.0,,,326.0,,,,,0.0,0.0,,,,,,,,,,,,,,,,,,,0.0,15.0,0.0,0.0,30.2,0.0,,0.0,0.0,,,36.2,0.0,0.0,-0.7,1.3,0.5,,,,,16.0,17.0,16.0,17.0,16.0,17.0,16.0,17.0,,,-18.0,1.0,,0.0,-7.0,4.998,,,0.654,0.791,0.0,14.8,,,,,,0.0,2026-02-13 16:03:49-08:00
78.06,1.0,9.0,2026-02-14 00:05:06,37.08155,-121.59962,339.0,0.0,248.3,-12.6,,,,,00:05:05,11.0,-1.2,51.7,0.0,101.0,0.0,-0.02,1.0,,-13.0,17.0,0.0,30.11,349.0,,,326.0,,,,,0.0,0.0,,,,,,,,,,,,,,,,,,,0.0,15.0,0.0,0.0,30.2,0.0,,0.0,0.0,,,36.2,0.0,0.0,-0.7,1.3,0.5,,,,,16.0,17.0,16.0,17.0,16.0,17.0,16.0,17.0,,,-18.0,1.0,,0.0,-7.0,4.998,,,0.654,0.79,0.0,14.8,,,,,,0.0,2026-02-13 16:03:49-08:00
79.06,1.0,9.0,2026-02-14 00:05:07,37.08155,-121.59962,340.0,0.0,248.3,-12.6,,,,,00:05:06,11.0,-1.2,51.7,0.0,101.0,0.0,-0.02,1.0,,-5.0,17.0,0.0,30.11,358.0,,,326.0,,,,,0.0,0.0,,,,,,,,,,,,,,,,,,,0.0,15.0,0.0,0.0,30.2,0.0,,0.0,0.0,,,36.2,0.0,0.0,-0.7,1.3,0.5,,,,,16.0,17.0,16.0,17.0,16.0,17.0,16.0,17.0,,,-18.0,1.0,,0.0,-7.0,4.998,,,0.654,0.79,0.0,14.8,,,,,,0.0,2026-02-13 16:03:49-08:00
80.06,1.0,9.0,2026-02-14 00:05:08,37.08155,-121.59962,341.0,0.0,248.3,-12.6,,,,,00:05:07,11.0,-1.2,51.7,0.0,101.0,-0.0,-0.02,1.0,,-9.0,17.0,0.0,30.11,357.0,,,326.0,,,,,0.0,0.0,,,,,,,,,,,,,,,,,,,0.0,15.0,0.0,0.0,30.2,0.0,,0.0,0.0,,,36.2,0.0,0.0,-0.7,1.3,0.5,,,,,16.0,17.0,16.0,17.0,16.0,17.0,16.0,17.0,,,-18.0,1.0,,0.0,-7.0,4.998,,,0.654,0.79,0.0,14.8,,,,,,0.0,2026-02-13 16:03:49-08:00
81.06,1.0,9.0,2026-02-14 00:05:09,37.08155,-121.59962,341.0,0.0,248.3,-12.6,,,,,00:05:08,11.0,-1.2,51.7,0.0,101.0,0.0,-0.02,1.0,,17.0,17.0,0.0,30.11,357.0,,,326.0,,,,,0.0,0.0,,,,,,,,,,,,,,,,,,,0.0,15.0,0.0,0.0,30.2,0.0,,0.0,0.0,,,36.2,0.0,0.0,-0.7,1.3,0.5,,,,,16.0,17.0,16.0,17.0,16.0,17.0,16.0,17.0,,,-18.0,1.0,,0.0,-7.0,4.998,,,0.654,0.791,0.0,14.8,,,,,,0.0,2026-02-13 16:03:49-08:00
82.06,1.0,9.0,2026-02-14 00:05:10,37.08155,-121.59962,342.0,0.0,248.3,-12.6,,,,,00:05:09,11.0,-1.2,51.7,0.0,101.0,0.0,-0.02,1.0,,23.0,17.0,0.0,30.11,357.0,,,326.0,,,,,0.0,0.0,,,,,,,,,,,,,,,,,,,0.0,15.0,0.0,0.0,30.2,0.0,,0.0,0.0,,,36.2,0.0,0.0,-0.7,1.3,0.5,,,,,16.0,17.0,16.0,17.0,16.0,17.0,16.0,17.0,,,-18.0,1.0,,0.0,-7.0,4.998,,,0.654,0.791,0.0,14.8,,,,,,0.0,2026-02-13 16:03:49-08:00
83.06,1.0,9.0,2026-02-14 00:05:11,37.08155,-121.59962,344.0,0.0,248.3,-12.6,,,,,00:05:10,11.0,-1.2,51.7,0.0,101.0,0.0,-0.02,1.0,,31.0,17.0,0.0,30.11,358.0,,,326.0,,,,,0.0,0.0,,,,,,,,,,,,,,,,,,,0.0,15.0,0.0,0.0,30.2,0.0,,0.0,0.0,,,36.2,0.0,0.0,-0.7,1.3,0.5,,,,,16.0,17.0,16.0,17.0,16.0,17.0,16.0,17.0,,,-19.0,1.0,,0.0,-7.0,4.998,,,0.654,0.79,0.0,14.8,,,,,,0.0,2026-02-13 16:03:49-08:00
84.06,1.0,9.0,2026-02-14 00:05:12,37.08155,-121.59962,345.0,0.0,248.3,-12.6,,,,,00:05:11,11.0,-1.2,51.7,0.0,101.0,0.0,-0.02,1.0,,14.0,17.0,0.0,30.11,358.0,,,326.0,,,,,0.0,0.0,,,,,,,,,,,,,,,,,,,0.0,15.0,0.0,0.0,30.2,0.5,,0.5,5.6,,,36.2,0.0,0.0,-0.6,1.3,0.5,,,,,16.0,17.0,16.0,17.0,16.0,17.0,16.0,17.0,,,-19.0,1.0,,5.6,-7.0,4.998,,,0.654,0.79,0.0,14.8,,,,,,0.0,2026-02-13 16:03:49-08:00
85.06,1.0,9.0,2026-02-14 00:05:13,37.08155,-121.59962,346.0,0.0,248.3,-12.6,,,,,00:05:12,11.1,-1.2,51.7,0.0,101.0,0.0,-0.02,1.0,,15.0,17.0,0.0,30.11,358.0,,,326.0,,,,,0.0,0.0,,,,,,,,,,,,,,,,,,,0.0,15.0,0.0,0.0,30.2,0.9,,0.9,31.5,,,36.2,0.0,0.0,-0.6,1.3,0.5,,,,,16.0,17.0,16.0,17.0,16.0,17.0,16.0,17.0,,,-19.0,1.0,,31.5,-7.0,4.998,,,0.654,0.79,0.0,14.8,,,,,,0.0,2026-02-13 16:03:49-08:00
86.06,1.0,9.0,2026-02-14 00:05:14,37.08155,-121.59961,347.0,0.0,248.3,-12.6,,,,,00:05:13,11.1,-1.2,51.7,0.0,101.0,0.0,-0.02,1.0,,22.0,17.0,0.0,30.11,358.0,,,326.0,,,,,0.0,0.0,,,,,,,,,,,,,,,,,,,0.0,15.0,0.0,0.0,30.2,1.6,,1.6,32.5,,,36.2,0.0,0.0,-0.6,1.3,0.5,,,,,16.0,17.0,16.0,17.0,16.0,17.0,16.0,17.0,,,-19.0,1.0,,32.5,-7.0,4.998,,,0.654,0.791,0.0,14.8,,,,,,0.0,2026-02-13 16:03:49-08:00
87.06,1.0,9.0,2026-02-14 00:05:15,37.08154,-121.59961,348.0,0.0,248.3,-12.6,,,,,00:05:14,11.1,-1.3,51.7,0.0,101.0,0.0,-0.02,1.0,,-19.0,17.0,0.0,30.11,358.0,,,326.0,,,,,0.0,0.0,,,,,,,,,,,,,,,,,,,0.0,15.0,0.0,0.0,30.2,2.3,,2.3,34.5,,,36.2,0.0,0.0,-0.5,1.3,0.5,,,,,16.0,17.0,16.0,17.0,16.0,17.0,16.0,17.0,,,-19.0,0.0,,34.5,-7.0,4.998,,,0.654,0.79,0.0,14.8,,,,,,0.0,2026-02-13 16:03:49-08:00
88.06,2.0,9.0,2026-02-14 00:05:16,37.08153,-121.59962,345.0,0.0,248.3,-12.6,,,,,00:05:15,11.1,-1.3,51.6,0.0,101.0,0.0,-0.02,1.0,,-12.0,17.0,0.0,30.11,358.0,,,326.0,,,,,0.0,0.0,,,,,,,,,,,,,,,,,,,0.0,15.0,0.0,0.0,30.2,2.0,,2.0,33.6,,,36.2,0.0,0.0,-0.6,1.3,0.5,,,,,16.0,17.0,16.0,17.0,16.0,17.0,16.0,17.0,,,-19.0,0.0,,33.6,-7.0,4.998,,,0.654,0.79,0.0,14.8,,,,,,0.0,2026-02-13 16:03:49-08:00
89.06,2.0,9.0,2026-02-14 00:05:17,37.08153,-121.59962,346.0,0.0,248.3,-12.6,,,,,00:05:16,11.1,-1.3,51.7,0.0,101.0,0.0,-0.02,1.0,,-14.0,17.0,0.0,30.11,358.0,,,326.0,,,,,0.0,0.0,,,,,,,,,,,,,,,,,,,0.0,15.0,0.0,0.0,30.2,2.0,,2.0,33.3,,,36.2,0.0,0.0,-0.6,1.3,0.5,,,,,16.0,17.0,16.0,17.0,16.0,17.0,16.0,17.0,,,-19.0,0.0,,33.3,-7.0,4.998,,,0.654,0.791,0.0,14.8,,,,,,0.0,2026-02-13 16:03:49-08:00
90.06,2.0,9.0,2026-02-14 00:05:18,37.08153,-121.59962,347.0,0.0,248.3,-12.6,,,,,00:05:17,11.1,-1.2,51.6,0.0,101.0,0.0,-0.02,1.0,,-11.0,17.0,0.0,30.11,358.0,,,326.0,,,,,0.0,0.0,,,,,,,,,,,,,,,,,,,0.0,15.0,0.0,0.0,30.2,2.0,,2.0,33.0,,,36.2,0.0,0.0,-0.6,1.3,0.5,,,,,16.0,17.0,16.0,17.0,16.0,17.0,16.0,17.0,,,-19.0,0.0,,33.0,-7.0,4.998,,,0.654,0.791,0.0,14.8,,,,,,0.0,2026-02-13 16:03:49-08:00
91.06,2.0,9.0,2026-02-14 00:05:19,37.08154,-121.59962,354.0,0.0,248.3,-12.6,,,,,00:05:18,11.1,-1.2,51.6,0.0,100.0,-0.0,-0.02,1.0,,-27.0,17.0,0.0,30.11,358.0,,,326.0,,,,,0.0,0.0,,,,,,,,,,,,,,,,,,,0.0,15.0,0.0,0.0,30.2,0.0,,0.0,32.8,,,36.2,0.0,0.0,-0.6,1.3,0.5,,,,,16.0,17.0,16.0,17.0,16.0,17.0,16.0,17.0,,,-19.0,0.0,,32.8,-7.0,4.998,,,0.654,0.791,0.0,14.8,,,,,,0.0,2026-02-13 16:03:49-08:00
92.06,2.0,9.0,2026-02-14 00:05:20,37.08154,-121.59962,355.0,0.0,248.3,-12.6,,,,,00:05:19,11.1,-1.3,51.7,0.0,100.0,0.0,-0.02,1.0,,-18.0,17.0,0.0,30.11,357.0,,,326.0,,,,,0.0,0.0,,,,,,,,,,,,,,,,,,,0.0,15.0,0.0,0.0,30.2,0.0,,0.0,32.6,,,36.2,0.0,0.0,-0.7,1.3,0.5,,,,,16.0,17.0,16.0,17.0,16.0,17.0,16.0,17.0,,,-19.0,0.0,,32.6,-7.0,4.998,,,0.656,0.79,0.0,14.8,,,,,,0.0,2026-02-13 16:03:49-08:00
93.06,2.0,9.0,2026-02-14 00:05:21,37.08154,-121.59962,356.0,0.1,248.3,-12.6,,,,,00:05:20,11.1,-1.3,51.6,0.0,100.0,-0.0,-0.02,1.0,,10.0,17.0,0.0,30.11,357.0,,,326.0,,,,,0.0,0.0,,,,,,,,,,,,,,,,,,,0.0,15.0,0.0,0.0,30.2,0.0,,0.0,32.4,,,36.2,0.0,0.0,-0.7,1.3,0.5,,,,,16.0,17.0,16.0,17.0,16.0,17.0,16.0,17.0,,,-19.0,0.0,,32.4,-7.0,4.998,,,0.656,0.791,0.0,14.8,,,,,,0.0,2026-02-13 16:03:49-08:00
94.06,2.0,9.0,2026-02-14 00:05:22,37.08154,-121.59962,359.0,0.1,248.3,-12.6,,,,,00:05:21,11.1,-1.3,51.7,0.0,100.0,0.0,-0.02,1.0,,32.0,17.0,0.0,30.11,357.0,,,326.0,,,,,0.0,0.0,,,,,,,,,,,,,,,,,,,0.0,15.0,0.0,0.0,30.2,0.0,,0.0,32.3,,,36.2,0.0,0.0,-0.7,1.3,0.5,,,,,16.0,17.0,16.0,17.0,16.0,17.0,16.0,17.0,,,-19.0,0.0,,32.3,-7.0,4.998,,,0.656,0.791,0.0,14.8,,,,,,0.0,2026-02-13 16:03:49-08:00
95.06,2.0,9.0,2026-02-14 00:05:23,37.08155,-121.59962,360.0,0.0,248.3,-12.6,,,,,00:05:22,11.1,-1.3,51.7,0.0,100.0,0.0,-0.02,1.0,,39.0,17.0,0.0,30.11,357.0,,,326.0,,,,,0.0,0.0,,,,,,,,,,,,,,,,,,,0.0,15.0,0.0,0.0,30.2,0.0,,0.0,32.1,,,36.2,0.0,0.0,-0.7,1.3,0.5,,,,,16.0,17.0,16.0,17.0,16.0,17.0,16.0,17.0,,,-19.0,0.0,,32.1,-7.0,4.998,,,0.656,0.791,0.0,14.8,,,,,,0.0,2026-02-13 16:03:49-08:00
96.06,2.0,9.0,2026-02-14 00:05:24,37.08155,-121.59962,361.0,0.0,248.3,-12.6,,,,,00:05:23,11.1,-1.2,51.7,0.0,100.0,0.0,-0.02,1.0,,46.0,17.0,0.0,30.11,357.0,,,326.0,,,,,0.0,0.0,,,,,,,,,,,,,,,,,,,0.0,15.0,0.0,0.0,30.2,0.0,,0.0,32.0,,,36.2,0.0,0.0,-0.7,1.3,0.5,,,,,16.0,17.0,16.0,17.0,16.0,17.0,16.0,17.0,,,-19.0,0.0,,32.0,-7.0,4.998,,,0.656,0.791,0.0,14.8,,,,,,0.0,2026-02-13 16:03:49-08:00
97.06,2.0,9.0,2026-02-14 00:05:25,37.08155,-121.59962,361.0,0.0,248.3,-12.6,,,,,00:05:24,11.1,-1.3,51.6,0.0,100.0,0.0,-0.02,1.0,,39.0,17.0,0.0,30.11,357.0,,,326.0,,,,,0.0,0.0,,,,,,,,,,,,,,,,,,,0.0,15.0,0.0,0.0,30.2,0.0,,0.0,31.8,,,36.2,0.0,0.0,-0.7,1.3,0.5,,,,,16.0,17.0,16.0,17.0,16.0,17.0,16.0,17.0,,,-20.0,0.0,,31.8,-7.0,4.998,,,0.656,0.791,0.0,14.8,,,,,,0.0,2026-02-13 16:03:49-08:00
98.06,2.0,9.0,2026-02-14 00:05:26,37.08155,-121.59962,361.0,0.0,248.3,-12.6,,,,,00:05:25,11.1,-1.3,51.6,0.0,100.0,-0.0,-0.02,1.0,,26.0,17.0,0.0,30.11,357.0,,,326.0,,,,,0.0,0.0,,,,,,,,,,,,,,,,,,,0.0,15.0,0.0,0.0,30.2,0.0,,0.0,31.7,,,36.2,0.0,0.0,-0.7,1.3,0.5,,,,,16.0,17.0,16.0,17.0,16.0,17.0,16.0,17.0,,,-19.0,0.0,,31.7,-7.0,4.998,,,0.656,0.791,0.0,14.8,,,,,,0.0,2026-02-13 16:03:49-08:00
99.06,1.0,9.0,2026-02-14 00:05:27,37.08155,-121.59962,357.0,0.0,248.3,-12.6,,,,,00:05:26,11.1,-1.3,51.6,0.0,100.0,-0.0,-0.02,1.0,,35.0,17.0,0.0,30.11,357.0,,,326.0,,,,,0.0,0.0,,,,,,,,,,,,,,,,,,,0.0,15.0,0.0,0.0,30.2,0.0,,0.0,31.6,,,36.2,0.0,0.0,-0.7,1.3,0.5,,,,,16.0,17.0,16.0,17.0,16.0,17.0,16.0,17.0,,,-19.0,0.0,,31.6,-7.0,4.998,,,0.656,0.791,0.0,14.8,,,,,,0.0,2026-02-13 16:03:49-08:00
100.06,1.0,9.0,2026-02-14 00:05:28,37.08155,-121.59962,360.0,0.0,248.3,-12.6,,,,,00:05:27,11.1,-1.3,51.6,0.0,100.0,-0.0,-0.02,1.0,,38.0,17.0,0.0,30.11,357.0,,,326.0,,,,,0.0,0.0,,,,,,,,,,,,,,,,,,,0.0,15.0,0.0,0.0,30.2,0.0,,0.0,31.4,,,36.2,0.0,0.0,-0.7,1.3,0.5,,,,,16.0,17.0,16.0,17.0,16.0,17.0,16.0,17.0,,,-19.0,0.0,,31.4,-7.0,4.998,,,0.656,0.791,0.0,14.8,,,,,,0.0,2026-02-13 16:03:49-08:00
101.06,1.0,9.0,2026-02-14 00:05:29,37.08155,-121.59962,359.0,0.0,248.3,-12.6,,,,,00:05:28,11.1,-1.2,51.6,0.0,100.0,-0.0,-0.02,1.0,,52.0,17.0,0.0,30.11,357.0,,,326.0,,,,,0.0,0.0,,,,,,,,,,,,,,,,,,,0.0,15.0,0.0,0.0,30.2,0.0,,0.0,31.3,,,36.2,0.0,0.0,-0.7,1.3,0.5,,,,,16.0,17.0,16.0,17.0,16.0,17.0,16.0,17.0,,,-20.0,0.0,,31.3,-7.0,4.998,,,0.656,0.791,0.0,14.8,,,,,,0.0,2026-02-13 16:03:49-08:00
102.06,1.0,9.0,2026-02-14 00:05:30,37.08155,-121.59962,359.0,0.0,248.3,-12.6,,,,,00:05:29,11.1,-1.3,51.6,0.0,100.0,-0.0,-0.02,1.0,,17.0,17.0,0.0,30.11,357.0,,,326.0,,,,,0.0,0.0,,,,,,,,,,,,,,,,,,,0.0,15.0,0.0,0.0,30.2,0.0,,0.0,31.2,,,36.2,0.0,0.0,-0.7,1.3,0.5,,,,,16.0,17.0,16.0,17.0,16.0,17.0,16.0,17.0,,,-20.0,0.0,,31.2,-7.0,4.998,,,0.656,0.791,0.0,14.8,,,,,,0.0,2026-02-13 16:03:49-08:00
103.06,1.0,9.0,2026-02-14 00:05:31,37.08155,-121.59962,358.0,0.1,248.3,-12.6,,,,,00:05:30,11.2,-1.2,51.6,0.0,100.0,-0.0,-0.02,1.0,,41.0,17.0,0.0,30.11,357.0,,,326.0,,,,,0.0,0.0,,,,,,,,,,,,,,,,,,,0.0,15.0,0.0,0.0,30.2,0.0,,0.0,31.0,,,36.2,0.0,0.0,-0.7,1.3,0.5,,,,,16.0,17.0,16.0,17.0,16.0,17.0,16.0,17.0,,,-20.0,0.0,,31.0,-7.0,4.998,,,0.656,0.791,0.0,14.8,,,,,,0.0,2026-02-13 16:03:49-08:00
104.06,1.0,9.0,2026-02-14 00:05:32,37.08155,-121.59962,358.0,0.0,248.3,-12.6,,,,,00:05:31,11.1,-1.2,51.6,0.0,100.0,-0.0,-0.02,1.0,,55.0,17.0,0.0,30.11,358.0,,,326.0,,,,,0.0,0.0,,,,,,,,,,,,,,,,,,,0.0,15.0,0.0,0.0,30.2,0.0,,0.0,30.9,,,36.2,0.0,0.0,-0.7,1.3,0.5,,,,,16.0,17.0,16.0,17.0,16.0,17.0,16.0,17.0,,,-19.0,0.0,,30.9,-7.0,4.998,,,0.656,0.791,0.0,14.8,,,,,,0.0,2026-02-13 16:03:49-08:00
105.06,1.0,9.0,2026-02-14 00:05:33,37.08155,-121.59962,357.0,0.0,248.3,-12.6,,,,,00:05:32,11.2,-1.2,51.6,0.0,102.0,0.0,-0.02,1.0,,83.0,17.0,0.0,30.11,360.0,,,326.0,,,,,0.0,0.0,,,,,,,,,,,,,,,,,,,0.0,15.0,0.0,0.0,30.2,0.0,,0.0,30.8,,,36.2,0.0,0.0,-0.7,1.3,0.5,,,,,16.0,17.0,16.0,17.0,16.0,17.0,16.0,17.0,,,-19.0,0.0,,30.8,-7.0,4.998,,,0.656,0.791,0.0,14.8,,,,,,0.0,2026-02-13 16:03:49-08:00
106.06,1.0,9.0,2026-02-14 00:05:34,37.08155,-121.59962,357.0,0.0,248.3,-12.6,,,,,00:05:33,11.2,-1.3,51.6,0.0,102.0,-0.0,-0.02,1.0,,63.0,17.0,0.0,30.11,360.0,,,326.0,,,,,0.0,0.0,,,,,,,,,,,,,,,,,,,0.0,15.0,0.0,0.0,30.2,0.0,,0.0,30.7,,,36.2,0.0,0.0,-0.7,1.3,0.5,,,,,16.0,17.0,16.0,17.0,16.0,17.0,16.0,17.0,,,-19.0,0.0,,30.7,-7.0,4.998,,,0.656,0.791,0.0,14.8,,,,,,0.0,2026-02-13 16:03:49-08:00
107.06,1.0,9.0,2026-02-14 00:05:35,37.08155,-121.59962,354.0,0.2,248.3,-12.6,,,,,00:05:34,11.1,-1.2,51.6,0.0,103.0,-0.0,-0.02,1.0,,50.0,17.0,0.0,30.11,360.0,,,326.0,,,,,0.0,0.0,,,,,,,,,,,,,,,,,,,0.0,15.0,0.0,0.0,30.2,0.0,,0.0,30.6,,,36.2,0.0,0.0,-0.7,1.3,0.5,,,,,16.0,17.0,16.0,17.0,16.0,17.0,16.0,17.0,,,-18.0,0.0,,30.6,-7.0,4.998,,,0.656,0.791,0.0,14.8,,,,,,0.0,2026-02-13 16:03:49-08:00
108.06,1.0,8.0,2026-02-14 00:05:36,37.0816,-121.59962,310.0,0.1,248.3,-12.6,,,,,00:05:35,11.1,-1.2,51.6,0.0,103.0,-0.0,-0.02,1.0,,41.0,17.0,0.0,30.11,361.0,,,326.0,,,,,0.0,0.0,,,,,,,,,,,,,,,,,,,0.0,15.0,0.0,0.0,30.2,0.0,,0.0,30.5,,,36.2,0.0,0.0,-0.7,1.3,0.5,,,,,16.0,17.0,16.0,17.0,16.0,17.0,16.0,17.0,,,-18.0,0.0,,30.5,-7.0,4.998,,,0.656,0.791,0.0,14.8,,,,,,0.0,2026-02-13 16:03:49-08:00
109.06,1.0,8.0,2026-02-14 00:05:37,37.0816,-121.59962,310.0,0.0,248.3,-12.6,,,,,00:05:36,11.1,-1.2,51.6,0.0,103.0,-0.0,-0.02,1.0,,33.0,17.0,0.0,30.11,362.0,,,326.0,,,,,0.0,0.0,,,,,,,,,,,,,,,,,,,0.0,15.0,0.0,0.0,30.2,0.0,,0.0,30.4,,,36.2,0.0,0.0,-0.7,1.3,0.5,,,,,16.0,17.0,16.0,17.0,16.0,17.0,16.0,17.0,,,-17.0,0.0,,30.4,-7.0,4.998,,,0.656,0.791,0.0,14.8,,,,,,0.0,2026-02-13 16:03:49-08:00
110.06,1.0,8.0,2026-02-14 00:05:38,37.0816,-121.59963,312.0,0.0,248.3,-12.6,,,,,00:05:37,11.1,-1.3,51.6,0.0,104.0,0.0,-0.02,1.0,,58.0,17.0,0.0,30.11,363.0,,,326.0,,,,,0.0,0.0,,,,,,,,,,,,,,,,,,,0.0,15.0,0.0,0.0,30.2,0.0,,0.0,30.3,,,36.2,0.0,0.0,-0.7,1.3,0.5,,,,,16.0,17.0,16.0,17.0,16.0,17.0,16.0,17.0,,,-17.0,0.0,,30.3,-7.0,4.998,,,0.656,0.791,0.0,14.8,,,,,,0.0,2026-02-13 16:03:49-08:00
111.06,1.0,8.0,2026-02-14 00:05:39,37.0816,-121.59962,312.0,0.0,248.3,-12.6,,,,,00:05:38,11.2,-1.2,51.6,0.0,104.0,-0.0,-0.02,1.0,,7.0,17.0,0.0,30.11,363.0,,,326.0,,,,,0.0,0.0,,,,,,,,,,,,,,,,,,,0.0,15.0,0.0,0.0,30.2,0.0,,0.0,30.2,,,36.2,0.0,0.0,-0.7,1.3,0.5,,,,,16.0,17.0,16.0,17.0,16.0,17.0,16.0,17.0,,,-16.0,0.0,,30.2,-7.0,4.998,,,0.656,0.791,0.0,14.8,,,,,,0.0,2026-02-13 16:03:49-08:00
112.06,1.0,9.0,2026-02-14 00:05:40,37.08156,-121.59962,352.0,0.0,248.3,-12.6,,,,,00:05:39,11.1,-1.2,51.6,0.0,105.0,-0.0,-0.02,1.0,,52.0,17.0,0.0,30.11,364.0,,,326.0,,,,,0.0,0.0,,,,,,,,,,,,,,,,,,,0.0,15.0,0.0,0.0,30.2,0.0,,0.0,30.1,,,36.2,0.0,0.0,-0.7,1.3,0.5,,,,,16.0,17.0,16.0,17.0,16.0,17.0,16.0,17.0,,,-16.0,0.0,,30.1,-7.0,4.998,,,0.656,0.791,0.0,14.8,,,,,,0.0,2026-02-13 16:03:49-08:00
113.06,1.0,9.0,2026-02-14 00:05:41,37.08156,-121.59962,354.0,0.0,248.3,-12.6,,,,,00:05:40,11.1,-1.2,51.6,0.0,106.0,-0.0,-0.02,1.0,,32.0,17.0,0.0,30.11,365.0,,,326.0,,,,,0.0,0.0,,,,,,,,,,,,,,,,,,,0.0,15.0,0.0,0.0,30.2,0.0,,0.0,30.0,,,36.2,0.0,0.0,-0.7,1.3,0.5,,,,,16.0,17.0,16.0,17.0,16.0,17.0,16.0,17.0,,,-16.0,0.0,,30.0,-7.0,4.998,,,0.656,0.791,0.0,14.8,,,,,,0.0,2026-02-13 16:03:49-08:00
114.06,1.0,9.0,2026-02-14 00:05:42,37.08156,-121.59962,355.0,0.0,248.3,-12.6,,,,,00:05:41,11.1,-1.2,51.6,0.0,107.0,-0.0,-0.02,1.0,,32.0,17.0,0.0,30.11,366.0,,,326.0,,,,,0.0,0.0,,,,,,,,,,,,,,,,,,,0.0,15.0,0.0,0.0,30.2,0.0,,0.0,29.9,,,36.2,0.0,0.0,-0.7,1.3,0.5,,,,,16.0,17.0,16.0,17.0,16.0,17.0,16.0,17.0,,,-16.0,0.0,,29.9,-7.0,4.998,,,0.656,0.791,0.0,14.9,,,,,,0.0,2026-02-13 16:03:49-08:00
115.06,1.0,9.0,2026-02-14 00:05:43,37.08156,-121.59962,355.0,0.1,248.3,-12.6,,,,,00:05:42,11.1,-1.3,51.6,0.0,107.0,0.0,-0.03,0.9,,27.0,17.0,0.0,30.11,366.0,,,326.0,,,,,0.0,0.0,,,,,,,,,,,,,,,,,,,0.0,13.0,0.0,0.0,30.0,0.0,,0.0,30.0,,,36.2,0.0,0.0,-0.7,1.3,0.5,,,,,12.0,15.0,12.0,12.0,12.0,12.0,12.0,12.0,,,-19.0,0.0,,30.0,-7.0,1.456,,,0.654,0.791,0.0,12.6,,,,,,0.0,2026-02-13 16:03:49-08:00
116.06,1.0,9.0,2026-02-14 00:05:44,37.08156,-121.59962,355.0,0.1,248.3,-12.6,,,,,00:05:43,11.1,-1.2,51.6,0.0,107.0,0.0,-0.03,1.0,,3.0,17.0,0.0,30.11,366.0,,,326.0,,,,,0.0,0.0,,,,,,,,,,,,,,,,,,,0.0,15.0,893.0,893.0,23.1,0.7,,0.7,23.1,,,36.2,0.0,0.0,-0.6,1.3,0.5,,,,,16.0,52.0,16.0,41.0,16.0,35.0,16.0,57.0,,,-15.0,0.0,,23.1,-7.0,0.004,,,0.665,0.791,0.5,14.6,,,,,,893.0,2026-02-13 16:03:49-08:00
117.06,1.0,9.0,2026-02-14 00:05:45,37.08156,-121.59962,360.0,0.1,248.3,-12.6,,,,,00:05:44,11.1,-1.1,51.7,0.0,107.0,0.0,-0.03,1.0,,35.0,17.0,0.0,30.11,376.0,,,326.0,,,,,0.0,0.0,,,,,,,,,,,,,,,,,,,3.0,15.0,1048.0,1048.0,17.6,1.6,,1.6,24.6,,,36.2,0.0,0.0,-0.6,1.3,0.5,,,,,17.0,108.0,16.0,87.0,16.0,95.0,17.0,125.0,,,-15.0,0.0,,24.6,-7.0,0.002,,,0.659,0.791,2.9,14.8,,,,,,1048.0,2026-02-13 16:03:49-08:00
118.06,1.0,9.0,2026-02-14 00:05:46,37.08157,-121.59962,360.0,0.1,248.3,-12.6,,,,,00:05:45,11.1,-1.2,51.7,0.0,107.0,0.0,-0.02,1.0,,40.0,17.0,0.0,30.11,376.0,,,326.0,,,,,0.0,0.0,,,,,,,,,,,,,,,,,,,6.0,15.0,1069.0,1069.0,16.1,2.2,,2.2,24.8,,,36.2,0.0,0.0,-0.6,1.3,0.5,,,,,17.0,163.0,17.0,131.0,17.0,152.0,17.0,171.0,,,-15.0,0.0,,24.8,-7.0,0.002,,,0.657,0.791,6.0,14.9,,,,,,1069.0,2026-02-13 16:03:49-08:00
119.06,1.0,9.0,2026-02-14 00:05:47,37.08157,-121.59962,360.0,0.1,248.3,-12.6,,,,,00:05:46,11.1,-1.1,51.7,0.0,107.0,-0.0,-0.02,1.0,,16.0,17.0,0.0,30.11,376.0,,,326.0,,,,,0.0,0.0,,,,,,,,,,,,,,,,,,,10.0,15.0,1090.0,1090.0,15.9,2.5,,2.5,25.1,,,36.2,0.0,0.0,-0.6,1.3,0.5,,,,,17.0,208.0,17.0,176.0,17.0,198.0,18.0,210.0,,,-15.0,0.0,,25.1,-7.0,0.002,,,0.658,0.791,10.1,14.9,,,,,,1090.0,2026-02-13 16:03:49-08:00
120.06,1.0,9.0,2026-02-14 00:05:48,37.08157,-121.59962,361.0,0.1,248.3,-12.6,,,,,00:05:47,11.1,-1.1,51.8,0.0,109.0,0.0,-0.02,1.0,,59.0,17.0,0.0,30.11,377.0,,,326.0,,,,,0.0,0.0,,,,,,,,,,,,,,,,,,,16.0,15.0,1106.0,1106.0,15.7,2.6,,2.6,25.3,,,36.2,0.0,0.0,-0.6,1.3,0.5,,,,,18.0,243.0,17.0,215.0,17.0,239.0,18.0,245.0,,,-15.0,0.0,,25.3,-7.0,0.002,,,0.657,0.791,15.6,14.9,,,,,,1106.0,2026-02-13 16:03:49-08:00
121.06,1.0,9.0,2026-02-14 00:05:49,37.08158,-121.59964,365.0,0.1,248.3,-12.6,,,,,00:05:48,11.1,-1.1,51.7,0.0,109.0,-0.0,-0.02,1.0,,40.0,17.0,0.0,30.11,377.0,,,326.0,,,,,0.0,0.0,,,,,,,,,,,,,,,,,,,23.0,15.0,1112.0,1112.0,15.6,2.7,,2.7,25.5,,,36.2,0.0,0.0,-0.6,1.3,0.5,,,,,19.0,276.0,18.0,251.0,18.0,273.0,19.0,277.0,,,-15.0,0.0,,25.5,-7.0,0.002,,,0.657,0.791,23.0,14.9,,,,,,1112.0,2026-02-13 16:03:49-08:00
122.06,1.0,9.0,2026-02-14 00:05:50,37.08158,-121.59964,366.0,0.0,248.3,-12.6,,,,,00:05:49,11.0,-1.1,51.8,0.0,109.0,0.0,-0.02,1.0,,17.0,17.0,0.0,30.11,377.0,,,326.0,,,,,0.0,0.0,,,,,,,,,,,,,,,,,,,33.0,15.0,1125.0,1125.0,15.5,2.7,,2.7,25.6,,,36.2,0.0,0.0,-0.6,1.3,0.5,,,,,19.0,304.0,19.0,284.0,18.0,302.0,20.0,307.0,,,-15.0,0.0,,25.6,-7.0,0.002,,,0.657,0.791,32.8,14.9,,,,,,1125.0,2026-02-13 16:03:49-08:00
123.06,1.0,9.0,2026-02-14 00:05:51,37.08158,-121.59964,367.0,0.0,248.3,-12.6,,,,,00:05:50,11.1,-1.1,51.8,0.0,109.0,0.0,-0.02,1.0,,32.0,17.0,0.0,30.11,379.0,,,326.0,,,,,0.0,0.0,,,,,,,,,,,,,,,,,,,45.0,15.0,1139.0,1139.0,15.4,2.7,,2.7,25.7,,,36.2,0.0,0.0,-0.6,1.3,0.5,,,,,20.0,331.0,19.0,313.0,19.0,329.0,20.0,333.0,,,-15.0,0.0,,25.7,-7.0,0.002,,,0.657,0.791,44.8,14.9,,,,,,1139.0,2026-02-13 16:03:49-08:00
124.06,1.0,9.0,2026-02-14 00:05:52,37.08158,-121.59964,368.0,0.0,248.3,-12.6,,,,,00:05:51,11.0,-1.1,51.8,0.0,109.0,0.0,-0.02,0.9,,1.0,17.0,0.0,30.11,380.0,,,326.0,,,,,0.0,0.0,,,,,,,,,,,,,,,,,,,57.0,15.0,1150.0,1150.0,15.4,2.7,,2.7,25.8,,,36.2,0.0,0.0,-0.6,1.3,0.5,,,,,20.0,355.0,20.0,338.0,19.0,353.0,21.0,358.0,,,-15.0,0.0,,25.8,-7.0,0.002,,,0.657,0.79,57.0,14.9,,,,,,1150.0,2026-02-13 16:03:49-08:00
125.06,1.0,9.0,2026-02-14 00:05:53,37.08158,-121.59964,369.0,0.0,248.3,-12.6,,,,,00:05:52,11.1,-1.1,51.8,0.0,109.0,0.0,-0.02,1.0,,22.0,17.0,0.0,30.11,380.0,,,326.0,,,,,0.0,0.0,,,,,,,,,,,,,,,,,,,66.0,15.0,1124.0,1124.0,15.0,2.7,,2.7,25.8,,,36.2,0.0,0.0,-0.6,1.3,0.5,,,,,21.0,376.0,20.0,360.0,20.0,375.0,21.0,380.0,,,-15.0,0.0,,25.8,-7.0,0.002,,,0.657,0.791,66.5,14.9,,,,,,1124.0,2026-02-13 16:03:49-08:00
126.06,1.0,9.0,2026-02-14 00:05:54,37.08157,-121.59964,369.0,0.1,248.3,-12.6,,,,,00:05:53,11.1,-1.1,51.8,0.0,109.0,0.0,-0.02,1.0,,5.0,17.0,0.0,30.11,380.0,,,326.0,,,,,0.0,0.0,,,,,,,,,,,,,,,,,,,72.0,15.0,1103.0,1103.0,14.7,2.6,,2.6,25.8,,,36.2,0.0,0.0,-0.6,1.3,0.5,,,,,22.0,394.0,21.0,378.0,20.0,394.0,22.0,399.0,,,-15.0,0.0,,25.8,-7.0,0.002,,,0.657,0.79,72.2,14.9,,,,,,1103.0,2026-02-13 16:03:49-08:00
127.06,1.0,9.0,2026-02-14 00:05:55,37.08157,-121.59964,370.0,0.0,248.3,-12.6,,,,,00:05:54,11.0,-1.1,51.8,0.0,109.0,0.0,-0.02,1.0,,2.0,17.0,0.0,30.11,389.0,,,326.0,,,,,0.0,0.0,,,,,,,,,,,,,,,,,,,75.0,15.0,1094.0,1094.0,14.4,2.7,,2.7,25.9,,,36.2,0.0,0.0,-0.6,1.3,0.5,,,,,22.0,409.0,21.0,394.0,21.0,410.0,22.0,416.0,,,-15.0,0.0,,25.9,-7.0,0.001,,,0.657,0.791,75.0,14.9,,,,,,1094.0,2026-02-13 16:03:49-08:00
128.06,1.0,9.0,2026-02-14 00:05:56,37.08157,-121.59963,370.0,0.0,248.3,-12.6,,,,,00:05:55,11.0,-1.1,51.8,0.0,109.0,0.0,-0.02,1.0,,-13.0,17.0,0.0,30.11,389.0,,,326.0,,,,,0.0,0.0,,,,,,,,,,,,,,,,,,,76.0,15.0,1109.0,1109.0,14.4,2.6,,2.6,26.0,,,36.2,0.0,0.0,-0.6,1.3,0.5,,,,,23.0,424.0,22.0,409.0,21.0,427.0,23.0,430.0,,,-15.0,0.0,,26.0,-7.0,0.001,,,0.657,0.791,76.4,14.9,,,,,,1109.0,2026-02-13 16:03:49-08:00
129.06,1.0,9.0,2026-02-14 00:05:57,37.08157,-121.59963,371.0,0.0,248.3,-12.6,,,,,00:05:56,11.0,-1.1,51.8,0.0,109.0,0.0,-0.02,1.0,,-3.0,17.0,0.0,30.11,389.0,,,326.0,,,,,0.0,0.0,,,,,,,,,,,,,,,,,,,77.0,15.0,1136.0,1136.0,14.2,2.5,,2.5,26.2,,,36.2,0.0,0.0,-0.6,1.3,0.5,,,,,23.0,436.0,23.0,421.0,21.0,444.0,23.0,447.0,,,-15.0,0.0,,26.2,-7.0,0.001,,,0.656,0.79,76.9,14.9,,,,,,1136.0,2026-02-13 16:03:49-08:00
130.06,1.0,9.0,2026-02-14 00:05:58,37.08157,-121.59963,372.0,0.0,248.3,-12.6,,,,,00:05:57,11.0,-1.1,51.8,0.0,109.0,0.0,-0.02,1.0,,-11.0,17.0,0.0,30.11,390.0,,,326.0,,,,,0.0,0.0,,,,,,,,,,,,,,,,,,,77.0,15.0,1078.0,1078.0,14.0,2.4,,2.4,26.1,,,36.2,0.0,0.0,-0.6,1.3,0.5,,,,,24.0,447.0,23.0,435.0,22.0,462.0,24.0,467.0,,,-15.0,0.0,,26.1,-7.0,0.001,,,0.656,0.79,77.2,14.9,,,,,,1078.0,2026-02-13 16:03:49-08:00
131.06,1.0,9.0,2026-02-14 00:05:59,37.08157,-121.59963,373.0,0.1,248.3,-12.6,,,,,00:05:58,11.0,-1.1,51.8,0.0,109.0,-0.0,-0.02,1.0,,-14.0,17.0,0.0,30.11,390.0,,,326.0,,,,,0.0,0.0,,,,,,,,,,,,,,,,,,,77.0,15.0,1076.0,1076.0,14.5,2.3,,2.3,26.1,,,36.2,0.0,0.0,-0.6,1.3,0.5,,,,,25.0,460.0,24.0,449.0,22.0,481.0,25.0,489.0,,,-15.0,0.0,,26.1,-7.0,0.001,,,0.656,0.79,77.3,14.9,,,,,,1076.0,2026-02-13 16:03:49-08:00
132.06,1.0,9.0,2026-02-14 00:06:00,37.08154,-121.59963,408.0,0.1,248.3,-12.6,,,,,00:05:59,11.0,-1.1,51.8,0.0,109.0,-0.0,-0.02,1.0,,-10.0,17.0,0.0,30.11,390.0,,,326.0,,,,,0.0,0.0,,,,,,,,,,,,,,,,,,,77.0,15.0,1128.0,1128.0,14.3,2.2,,2.2,26.2,,,36.2,0.0,0.0,-0.6,1.3,0.5,,,,,25.0,472.0,25.0,461.0,23.0,501.0,25.0,504.0,,,-15.0,0.0,,26.2,-7.0,0.001,,,0.654,0.79,77.4,14.9,,,,,,1128.0,2026-02-13 16:03:49-08:00
133.06,1.0,9.0,2026-02-14 00:06:01,37.08154,-121.59963,408.0,0.0,248.3,-12.6,,,,,00:06:00,11.0,-1.2,51.7,0.0,109.0,-0.0,-0.02,0.9,,-10.0,17.0,0.0,30.11,390.0,,,326.0,,,,,0.0,0.0,,,,,,,,,,,,,,,,,,,77.0,15.0,1118.0,1118.0,14.0,2.2,,2.2,26.2,,,36.2,0.0,0.0,-0.6,1.3,0.5,,,,,26.0,480.0,25.0,471.0,23.0,513.0,26.0,515.0,,,-15.0,0.0,,26.2,-7.0,0.001,,,0.654,0.79,77.4,15.0,,,,,,1118.0,2026-02-13 16:03:49-08:00
134.06,1.0,9.0,2026-02-14 00:06:02,37.08154,-121.59963,407.0,0.0,248.3,-12.6,,,,,00:06:01,11.0,-1.2,51.7,0.0,109.0,0.0,-0.02,1.0,,-8.0,17.0,0.0,30.11,390.0,,,326.0,,,,,0.0,0.0,,,,,,,,,,,,,,,,,,,77.0,15.0,1143.0,1143.0,13.9,2.2,,2.2,26.3,,,36.2,0.0,0.0,-0.6,1.3,0.5,,,,,26.0,488.0,26.0,483.0,24.0,521.0,26.0,523.0,,,-15.0,0.0,,26.3,-7.0,0.001,,,0.654,0.79,77.4,15.0,,,,,,1143.0,2026-02-13 16:03:49-08:00
135.06,1.0,9.0,2026-02-14 00:06:03,37.08154,-121.59963,404.0,0.0,248.3,-12.6,,,,,00:06:02,11.0,-1.2,51.7,0.0,109.0,0.0,-0.02,0.9,,-2.0,17.0,0.0,30.11,390.0,,,326.0,,,,,0.0,0.0,,,,,,,,,,,,,,,,,,,77.0,15.0,1091.0,1091.0,13.6,2.2,,2.2,26.3,,,36.2,0.0,0.0,-0.6,1.3,0.5,,,,,27.0,495.0,27.0,493.0,25.0,531.0,27.0,531.0,,,-15.0,0.0,,26.3,-7.0,0.001,,,0.654,0.79,77.3,15.0,,,,,,1091.0,2026-02-13 16:03:49-08:00
136.06,1.0,9.0,2026-02-14 00:06:04,37.08154,-121.59963,403.0,0.0,248.3,-12.6,,,,,00:06:03,11.0,-1.2,51.7,0.0,109.0,-0.0,-0.02,1.0,,-18.0,17.0,0.0,30.11,390.0,,,326.0,,,,,0.0,0.0,,,,,,,,,,,,,,,,,,,77.0,15.0,990.0,990.0,13.5,2.1,,2.1,26.4,,,36.2,0.0,0.0,-0.6,1.3,0.5,,,,,28.0,501.0,27.0,500.0,25.0,538.0,27.0,536.0,,,-15.0,0.0,,26.4,-7.0,0.001,,,0.654,0.791,77.2,15.0,,,,,,990.0,2026-02-13 16:03:49-08:00
137.06,1.0,9.0,2026-02-14 00:06:05,37.08154,-121.59963,401.0,0.0,248.3,-12.6,,,,,00:06:04,11.0,-1.2,51.7,0.0,109.0,0.0,-0.02,1.0,,-13.0,17.0,0.0,30.11,390.0,,,326.0,,,,,0.0,0.0,,,,,,,,,,,,,,,,,,,77.0,15.0,958.0,958.0,14.9,2.1,,2.1,26.3,,,36.2,0.0,0.0,-0.6,1.3,0.5,,,,,28.0,507.0,28.0,508.0,25.0,545.0,28.0,526.0,,,-15.0,0.0,,26.3,-7.0,0.001,,,0.653,0.79,76.8,15.0,,,,,,958.0,2026-02-13 16:03:49-08:00
138.06,1.0,9.0,2026-02-14 00:06:06,37.08154,-121.59963,400.0,0.0,248.3,-12.6,,,,,00:06:05,11.0,-1.2,51.7,0.0,109.0,-0.0,-0.02,1.0,,-35.0,17.0,0.0,30.11,391.0,,,326.0,,,,,0.0,0.0,,,,,,,,,,,,,,,,,,,77.0,15.0,966.0,966.0,15.3,2.1,,2.1,26.3,,,36.2,0.0,0.0,-0.6,1.3,0.5,,,,,29.0,507.0,29.0,515.0,26.0,533.0,28.0,544.0,,,-15.0,0.0,,26.3,-7.0,0.001,,,0.656,0.79,76.7,15.0,,,,,,966.0,2026-02-13 16:03:49-08:00
139.06,1.0,9.0,2026-02-14 00:06:07,37.08154,-121.59963,398.0,0.1,248.3,-12.6,,,,,00:06:06,10.9,-1.2,51.8,0.0,109.0,0.0,-0.02,1.0,,-2.0,17.0,0.0,30.11,391.0,,,326.0,,,,,0.0,0.0,,,,,,,,,,,,,,,,,,,77.0,15.0,1051.0,1051.0,14.3,2.0,,2.0,26.4,,,36.2,0.0,0.0,-0.6,1.3,0.5,,,,,29.0,509.0,29.0,519.0,26.0,547.0,29.0,552.0,,,-15.0,0.0,,26.4,-7.0,0.001,,,0.654,0.79,77.0,15.0,,,,,,1051.0,2026-02-13 16:03:49-08:00
140.06,1.0,9.0,2026-02-14 00:06:08,37.08155,-121.59963,396.0,0.0,248.3,-12.6,,,,,00:06:07,11.0,-1.2,51.8,0.0,109.0,0.0,-0.02,1.0,,-15.0,17.0,0.0,30.11,391.0,,,326.0,,,,,0.0,0.0,,,,,,,,,,,,,,,,,,,77.0,15.0,1060.0,1060.0,13.8,2.0,,2.0,26.4,,,36.2,0.0,0.0,-0.6,1.3,0.5,,,,,30.0,511.0,30.0,522.0,27.0,554.0,29.0,560.0,,,-15.0,0.0,,26.4,-7.0,0.001,,,0.654,0.79,77.2,15.0,,,,,,1060.0,2026-02-13 16:03:49-08:00
141.06,1.0,9.0,2026-02-14 00:06:09,37.08155,-121.59963,395.0,0.0,248.3,-12.6,,,,,00:06:08,11.0,-1.2,51.8,0.0,109.0,-0.0,-0.02,1.0,,-37.0,17.0,0.0,30.11,400.0,,,326.0,,,,,0.0,0.0,,,,,,,,,,,,,,,,,,,77.0,15.0,1053.0,1053.0,13.7,1.9,,1.9,26.4,,,36.2,0.0,0.0,-0.6,1.3,0.5,,,,,31.0,514.0,31.0,526.0,27.0,559.0,30.0,564.0,,,-15.0,0.0,,26.4,-7.0,0.001,,,0.654,0.79,77.3,15.0,,,,,,1053.0,2026-02-13 16:03:49-08:00
142.06,1.0,9.0,2026-02-14 00:06:10,37.08155,-121.59963,394.0,0.0,248.3,-12.6,,,,,00:06:09,11.0,-1.2,51.8,0.0,109.0,-0.0,-0.02,1.0,,-38.0,17.0,0.0,30.11,400.0,,,326.0,,,,,0.0,0.0,,,,,,,,,,,,,,,,,,,77.0,15.0,1057.0,1057.0,13.6,1.9,,1.9,26.4,,,36.2,0.0,0.0,-0.6,1.3,0.5,,,,,31.0,516.0,31.0,532.0,28.0,566.0,31.0,571.0,,,-15.0,0.0,,26.4,-7.0,0.001,,,0.653,0.79,77.3,15.0,,,,,,1057.0,2026-02-13 16:03:49-08:00
143.06,1.0,9.0,2026-02-14 00:06:11,37.08155,-121.59962,393.0,0.1,248.3,-12.6,,,,,00:06:10,11.0,-1.2,51.8,0.0,109.0,-0.0,-0.02,1.0,,-10.0,17.0,0.0,30.11,400.0,,,326.0,,,,,0.0,0.0,,,,,,,,,,,,,,,,,,,77.0,15.0,1062.0,1062.0,13.6,1.9,,1.9,26.5,,,36.2,0.0,0.0,-0.6,1.3,0.5,,,,,32.0,518.0,32.0,536.0,29.0,572.0,31.0,574.0,,,-15.0,0.0,,26.5,-7.0,0.001,,,0.653,0.79,77.3,15.0,,,,,,1062.0,2026-02-13 16:03:49-08:00
144.06,1.0,9.0,2026-02-14 00:06:12,37.08155,-121.59962,392.0,0.0,248.3,-12.6,,,,,00:06:11,11.0,-1.2,51.7,0.0,109.0,-0.0,-0.02,1.0,,10.0,17.0,0.0,30.11,391.0,,,326.0,,,,,0.0,0.0,,,,,,,,,,,,,,,,,,,77.0,16.0,1014.0,1014.0,13.7,1.9,,1.9,26.4,,,36.2,0.0,0.0,22.4,1.3,0.5,,,,,34.0,522.0,34.0,538.0,31.0,578.0,34.0,579.0,,,-15.0,0.0,,26.4,-7.0,0.002,,,0.654,0.791,77.3,15.9,,,,,,1014.0,2026-02-13 16:03:49-08:00
145.06,1.0,9.0,2026-02-14 00:06:13,37.08155,-121.59962,391.0,0.0,248.3,-12.6,,,,,00:06:12,11.0,-1.2,51.6,0.0,109.0,0.0,-0.02,1.0,,-18.0,17.0,0.0,30.11,391.0,,,326.0,,,,,0.0,0.0,,,,,,,,,,,,,,,,,,,77.0,16.0,1000.0,1000.0,14.0,1.9,,1.9,26.4,,,36.2,0.0,0.0,39.0,1.3,0.5,,,,,35.0,524.0,35.0,540.0,31.0,582.0,34.0,585.0,,,-15.0,0.0,,26.4,-7.0,0.002,,,0.657,0.791,77.2,15.9,,,,,,1000.0,2026-02-13 16:03:49-08:00
146.06,1.0,9.0,2026-02-14 00:06:14,37.08155,-121.59962,390.0,0.1,248.3,-12.6,,,,,00:06:13,11.0,-1.2,51.6,0.0,109.0,0.0,-0.02,1.0,,13.0,17.0,0.0,30.11,391.0,,,326.0,,,,,0.0,0.0,,,,,,,,,,,,,,,,,,,77.0,16.0,1002.0,1002.0,14.2,1.9,,1.9,26.3,,,36.2,0.0,0.0,48.7,1.3,0.5,,,,,35.0,526.0,35.0,544.0,32.0,583.0,35.0,593.0,,,-15.0,0.0,,26.3,-7.0,0.002,,,0.656,0.791,77.0,15.9,,,,,,1002.0,2026-02-13 16:03:49-08:00
147.06,1.0,9.0,2026-02-14 00:06:15,37.08155,-121.59962,389.0,0.1,248.3,-12.6,,,,,00:06:14,11.0,-1.2,51.6,0.0,109.0,0.0,-0.02,1.0,,18.0,17.0,0.0,30.11,401.0,,,326.0,,,,,0.0,0.0,,,,,,,,,,,,,,,,,,,77.0,16.0,1012.0,1012.0,14.1,1.9,,1.9,26.4,,,36.2,0.0,0.0,54.8,1.3,0.5,,,,,36.0,527.0,36.0,545.0,32.0,583.0,36.0,595.0,,,-15.0,0.0,,26.4,-7.0,0.002,,,0.656,0.791,77.2,15.9,,,,,,1012.0,2026-02-13 16:03:49-08:00
148.06,1.0,9.0,2026-02-14 00:06:16,37.08154,-121.59962,387.0,0.1,248.3,-12.6,,,,,00:06:15,11.0,-1.1,51.6,0.0,109.0,0.0,-0.02,1.0,,-28.0,17.0,0.0,30.11,401.0,,,326.0,,,,,0.0,0.0,,,,,,,,,,,,,,,,,,,77.0,16.0,983.0,983.0,14.2,1.8,,1.8,26.4,,,36.2,0.0,0.0,58.3,1.3,0.5,,,,,37.0,529.0,37.0,546.0,33.0,586.0,36.0,598.0,,,-15.0,0.0,,26.4,-7.0,0.002,,,0.654,0.791,77.1,15.9,,,,,,983.0,2026-02-13 16:03:49-08:00
