Session Time,GPS Fix Quality,Number of Satellites,GPS Date & Time,Latitude (deg),Longitude (deg),GPS Altitude (feet),Ground Speed (knots),Ground Track (deg),Mag Var (deg),Cross Track Error (NM),Destination Waypoint ID,Range to Destination (NM),Bearing to Destination (deg),System Time,Pitch (deg),Roll (deg),Magnetic Heading (deg),Indicated Airspeed (knots),Pressure Altitude (ft),Turn Rate (deg/s),Lateral Accel (g),Vertical Accel(g),Angle of Attack (%),Vertical Speed (ft/min),OAT (deg C),True Airspeed (knots),Barometer Setting (inHg),Density Altitude (ft),Wind Direction (deg),Wind Speed (knots),Heading Bug (deg),Altitude Bug (ft),Airspeed Bug (knots),Vertical Speed Bug (ft/min),Course (deg),CDI Source Type,CDI Source Port,CDI Scale (NM),CDI Deflection (%),Glideslope (%),AP Engaged,AP Roll Mode,AP Roll Force,AP Roll Position (steps),AP Roll Slip (bool),AP Pitch Force,AP Pitch Position (steps),AP Pitch Slip (bool),AP Yaw Force,AP Yaw Position,AP Yaw Slip (bool),Transponder Status,Transponder Reply (bool),Transponder Identing (bool),Transponder Code (octal),Oil Pressure (PSI),Oil Temp (deg C),RPM L,RPM R,Manifold Pressure (inHg),Fuel Flow 1 (gal/hr),Fuel Flow 2 (gal/hr),Total Fuel Flow (gal/hr),Fuel Pressure (PSI),Fuel Level L (gal),Fuel Level R (gal),Fuel Remaining (gal),Volts 1,Volts 2,Amps,Hobbs Time,Tach Time,Thermocouple 1 (deg C),Thermocouple 2 (deg C),Thermocouple 3 (deg C),Thermocouple 4 (deg C),CHT 4 (deg C),EGT 4 (deg C),CHT 3 (deg C),EGT 3 (deg C),CHT 2 (deg C),EGT 2 (deg C),CHT 1 (deg C),EGT 1 (deg C),Thermocouple 13 (deg C),Thermocouple 14 (deg C),ELEV POSITION (%),CO PPM PRESSURE (PSI),GP Input 3,FUEL PRESSURE (PSI),AILERN POSITION (%),CANOPY CONTACT (V),GP Input 7,GP Input 8,LEFT LEVEL (Sensor V),RIGHT LEVEL (Sensor V),OIL PRESSURE (PSI),OIL TEMPERATURE (deg C),GP Input 13,Contacts,Percent Power,EGT Leaning State,Unnamed: 103,RPM,AVG_CHT (deg C),CHT_Delta_T (deg C),OIL_Delta_T (deg C),OAT (deg F),Oil Temp (deg F),Thermocouple 1 (deg F),Thermocouple 2 (deg F),Thermocouple 3 (deg F),Thermocouple 4 (deg F),CHT 4 (deg F),EGT 4 (deg F),CHT 3 (deg F),EGT 3 (deg F),CHT 2 (deg F),EGT 2 (deg F),CHT 1 (deg F),EGT 1 (deg F),Thermocouple 13 (deg F),Thermocouple 14 (deg F),OIL TEMPERATURE (deg F),AVG_CHT (deg F),CHT_Delta_T (deg F),OIL_Delta_T (deg F),Fuel Flow Integral,Distance Traveled,MPG,Max CHT,Flight ID
0.06,1.0,7.0,2026-03-18 22:55:22,37.08163,-121.59962,385.0,0.0,344.7,-12.7,0.0,,0.0,0.0,0.0,0.0,0.0,0.0,0.0,0.0,0.0,0.0,,0.0,0.0,33.0,0.0,0.0,0.0,0.0,0.0,42.0,0.0,125.0,800.0,0.0,0.0,0.0,0.0,0.0,0.0,0.0,0.0,0.0,0.0,0.0,0.0,0.0,0.0,0.0,0.0,0.0,0.0,0.0,0.0,0.0,0.0,0.0,0.0,0.0,0.0,0.0,0.0,0.0,0.0,0.0,0.0,18.4,0.0,0.0,0.0,6.8,5.3,0.0,0.0,0.0,0.0,0.0,0.0,0.0,0.0,0.0,0.0,0.0,0.0,0.0,0.0,0.0,,0.0,0.0,0.0,0.0,0.0,0.0,0.0,0.0,,0.0,0.0,0.0,0.0,,0.0,0.0,0.0,-33.0,-33.0,91.4,0.0,0.0,0.0,0.0,0.0,32.0,0.0,32.0,0.0,32.0,0.0,32.0,0.0,0.0,0.0,32.0,32.0,-27.4,-27.4,0.0,0.0,0.0,413.6,2026-03-18 15:55:22-07:00
1.06,1.0,7.0,2026-03-18 22:55:23,37.08163,-121.59962,383.0,0.0,344.7,-12.6,0.0,,0.0,0.0,0.0,10.7,-0.5,4.0,0.0,224.0,-0.0,-0.01,1.0,0.0,-38.0,33.0,0.0,30.06,2399.0,0.0,0.0,42.0,0.0,125.0,800.0,0.0,0.0,0.0,0.0,0.0,0.0,0.0,0.0,0.0,0.0,0.0,0.0,0.0,0.0,0.0,0.0,0.0,0.0,0.0,0.0,0.0,0.0,0.0,0.0,0.0,0.0,0.0,0.0,0.0,0.0,0.0,0.0,18.4,0.0,0.0,-0.1,6.8,5.3,0.0,0.0,0.0,0.0,29.0,30.0,29.0,30.0,29.0,30.0,29.0,30.0,0.0,0.0,12.0,254.1,0.0,1.0,1.0,4.998,0.0,0.0,1.525,1.387,0.0,114.7,0.0,0.0,0.0,,0.0,0.0,29.0,-4.0,81.7,91.4,0.0,0.0,0.0,0.0,0.0,84.2,86.0,84.2,86.0,84.2,86.0,84.2,86.0,0.0,0.0,238.45999999999998,84.2,24.8,179.06,0.0,0.0,0.0,413.6,2026-03-18 15:55:22-07:00
2.06,1.0,7.0,2026-03-18 22:55:24,37.08163,-121.59962,381.0,0.0,344.7,-12.6,0.0,,0.0,0.0,0.0,10.7,-0.5,4.1,0.0,224.0,0.0,-0.01,1.0,0.0,5.0,33.0,0.0,30.06,2399.0,0.0,0.0,42.0,0.0,125.0,800.0,0.0,0.0,0.0,0.0,0.0,0.0,0.0,0.0,0.0,0.0,0.0,0.0,0.0,0.0,0.0,0.0,0.0,0.0,0.0,0.0,0.0,0.0,0.0,0.0,0.0,0.0,0.0,0.0,0.0,0.0,0.0,0.0,18.4,0.0,0.0,-0.1,6.8,5.3,0.0,0.0,0.0,0.0,29.0,30.0,29.0,30.0,29.0,30.0,29.0,30.0,0.0,0.0,12.0,254.1,0.0,1.0,1.0,4.998,0.0,0.0,1.525,1.387,0.0,28.0,0.0,0.0,0.0,,0.0,0.0,29.0,-4.0,-5.0,91.4,0.0,0.0,0.0,0.0,0.0,84.2,86.0,84.2,86.0,84.2,86.0,84.2,86.0,0.0,0.0,82.4,84.2,24.8,23.0,0.0,0.0,0.0,413.6,2026-03-18 15:55:22-07:00
3.06,1.0,7.0,2026-03-18 22:55:25,37.08163,-121.59962,379.0,0.0,344.7,-12.6,0.0,,0.0,0.0,0.0,10.7,-0.4,4.2,0.0,224.0,0.0,-0.01,1.0,0.0,-15.0,33.0,0.0,30.06,2399.0,0.0,0.0,42.0,0.0,125.0,800.0,0.0,0.0,0.0,0.0,0.0,0.0,0.0,0.0,0.0,0.0,0.0,0.0,0.0,0.0,0.0,0.0,0.0,0.0,0.0,0.0,0.0,0.0,0.0,0.0,0.0,0.0,0.0,0.0,0.0,0.0,0.0,0.0,18.4,0.0,0.0,-0.1,6.8,5.3,0.0,0.0,0.0,0.0,28.0,30.0,28.0,30.0,28.0,30.0,29.0,30.0,0.0,0.0,12.0,254.1,0.0,1.0,1.0,4.998,0.0,0.0,1.525,1.388,0.0,27.9,0.0,0.0,0.0,,0.0,0.0,28.25,-4.75,-5.100000000000001,91.4,0.0,0.0,0.0,0.0,0.0,82.4,86.0,82.4,86.0,82.4,86.0,84.2,86.0,0.0,0.0,82.22,82.85,23.45,22.819999999999997,0.0,0.0,0.0,413.6,2026-03-18 15:55:22-07:00
4.06,1.0,7.0,2026-03-18 22:55:26,37.08162,-121.59962,377.0,0.0,344.7,-12.6,0.0,,0.0,0.0,0.0,10.7,-0.4,4.2,0.0,224.0,0.0,-0.01,1.0,0.0,-5.0,33.0,0.0,30.06,2399.0,0.0,0.0,42.0,0.0,125.0,800.0,0.0,0.0,0.0,0.0,0.0,0.0,0.0,0.0,0.0,0.0,0.0,0.0,0.0,0.0,0.0,0.0,0.0,0.0,0.0,0.0,0.0,0.0,0.0,0.0,0.0,0.0,0.0,0.0,0.0,0.0,0.0,0.0,18.4,0.0,0.0,-0.1,6.8,5.3,0.0,0.0,0.0,0.0,28.0,30.0,28.0,30.0,28.0,30.0,29.0,30.0,0.0,0.0,12.0,254.1,0.0,1.0,1.0,4.998,0.0,0.0,1.525,1.388,0.0,27.8,0.0,0.0,0.0,,0.0,0.0,28.25,-4.75,-5.199999999999999,91.4,0.0,0.0,0.0,0.0,0.0,82.4,86.0,82.4,86.0,82.4,86.0,84.2,86.0,0.0,0.0,82.04,82.85,23.45,22.64,0.0,0.0,0.0,413.6,2026-03-18 15:55:22-07:00
5.06,1.0,7.0,2026-03-18 22:55:27,37.08162,-121.59961,376.0,0.4,344.7,-12.6,0.0,,0.0,0.0,0.0,10.7,-0.5,4.1,0.0,224.0,-0.0,-0.01,1.0,99.0,-7.0,33.0,0.0,30.06,2410.0,0.0,0.0,42.0,0.0,0.0,0.0,0.0,0.0,0.0,0.0,0.0,0.0,0.0,0.0,0.0,0.0,0.0,0.0,0.0,0.0,0.0,0.0,0.0,0.0,0.0,0.0,0.0,0.0,28.0,0.0,0.0,30.1,0.0,0.0,0.0,1.0,0.0,0.0,18.4,0.0,0.0,-0.1,6.8,5.3,0.0,0.0,0.0,0.0,29.0,30.0,29.0,30.0,29.0,30.0,29.0,30.0,0.0,0.0,12.0,254.1,0.0,1.0,1.0,4.998,0.0,0.0,1.525,1.388,0.0,27.8,0.0,0.0,0.0,,0.0,0.0,29.0,-4.0,-5.199999999999999,91.4,82.4,0.0,0.0,0.0,0.0,84.2,86.0,84.2,86.0,84.2,86.0,84.2,86.0,0.0,0.0,82.04,84.2,24.8,22.64,0.0,0.3373333333333333,0.0,413.6,2026-03-18 15:55:22-07:00
6.06,1.0,6.0,2026-03-18 22:55:28,37.08158,-121.59959,348.0,0.1,344.7,-12.6,0.0,,0.0,0.0,0.0,10.7,-0.4,4.1,0.0,224.0,-0.0,-0.01,1.0,99.0,18.0,33.0,0.0,30.06,2410.0,0.0,0.0,42.0,0.0,0.0,0.0,0.0,0.0,0.0,0.0,0.0,0.0,0.0,0.0,0.0,0.0,0.0,0.0,0.0,0.0,0.0,0.0,0.0,0.0,0.0,0.0,0.0,0.0,28.0,0.0,0.0,30.1,0.0,0.0,0.0,1.0,0.0,0.0,18.4,0.0,0.0,-0.1,6.8,5.3,0.0,0.0,0.0,0.0,29.0,30.0,29.0,30.0,29.0,30.0,29.0,30.0,0.0,0.0,12.0,254.1,0.0,1.0,1.0,4.998,0.0,0.0,1.525,1.387,0.0,27.7,0.0,0.0,0.0,,0.0,0.0,29.0,-4.0,-5.300000000000001,91.4,82.4,0.0,0.0,0.0,0.0,84.2,86.0,84.2,86.0,84.2,86.0,84.2,86.0,0.0,0.0,81.86,84.2,24.8,22.46,0.0,0.7589999999999999,0.0,413.6,2026-03-18 15:55:22-07:00
7.06,1.0,6.0,2026-03-18 22:55:29,37.08158,-121.59959,348.0,0.0,344.7,-12.6,0.0,,0.0,0.0,0.0,10.7,-0.5,4.2,0.0,224.0,-0.0,-0.01,1.0,99.0,-20.0,33.0,0.0,30.06,2410.0,0.0,0.0,42.0,0.0,0.0,0.0,0.0,0.0,0.0,0.0,0.0,0.0,0.0,0.0,0.0,0.0,0.0,0.0,0.0,0.0,0.0,0.0,0.0,0.0,0.0,0.0,0.0,0.0,28.0,0.0,0.0,30.1,0.0,0.0,0.0,1.0,0.0,0.0,18.4,0.0,0.0,-0.1,6.8,5.3,0.0,0.0,0.0,0.0,29.0,30.0,29.0,30.0,29.0,30.0,29.0,30.0,0.0,0.0,12.0,254.1,0.0,1.0,1.0,4.998,0.0,0.0,1.525,1.388,0.0,27.7,0.0,0.0,0.0,,0.0,0.0,29.0,-4.0,-5.300000000000001,91.4,82.4,0.0,0.0,0.0,0.0,84.2,86.0,84.2,86.0,84.2,86.0,84.2,86.0,0.0,0.0,81.86,84.2,24.8,22.46,0.0,0.8433333333333333,0.0,413.6,2026-03-18 15:55:22-07:00
8.06,1.0,6.0,2026-03-18 22:55:30,37.08158,-121.59958,348.0,0.0,344.7,-12.6,0.0,,0.0,0.0,0.0,10.8,-0.5,4.2,0.0,223.0,0.0,-0.01,1.0,99.0,-12.0,33.0,0.0,30.06,2419.0,0.0,0.0,42.0,0.0,0.0,0.0,0.0,0.0,0.0,0.0,0.0,0.0,0.0,0.0,0.0,0.0,0.0,0.0,0.0,0.0,0.0,0.0,0.0,0.0,0.0,0.0,0.0,0.0,28.0,0.0,0.0,30.1,0.0,0.0,0.0,1.0,0.0,0.0,18.4,0.0,0.0,-0.1,6.8,5.3,0.0,0.0,0.0,0.0,28.0,30.0,28.0,30.0,28.0,30.0,29.0,30.0,0.0,0.0,12.0,254.1,0.0,1.0,1.0,4.998,0.0,0.0,1.525,1.388,0.0,27.7,0.0,0.0,0.0,,0.0,0.0,28.25,-4.75,-5.300000000000001,91.4,82.4,0.0,0.0,0.0,0.0,82.4,86.0,82.4,86.0,82.4,86.0,84.2,86.0,0.0,0.0,81.86,82.85,23.45,22.46,0.0,0.8433333333333333,0.0,413.6,2026-03-18 15:55:22-07:00
9.06,1.0,6.0,2026-03-18 22:55:31,37.08158,-121.59958,347.0,0.1,344.7,-12.6,0.0,,0.0,0.0,0.0,10.8,-0.5,4.2,0.0,223.0,0.0,-0.01,1.0,99.0,-19.0,33.0,0.0,30.06,2419.0,0.0,0.0,42.0,0.0,0.0,0.0,0.0,0.0,0.0,0.0,0.0,0.0,0.0,0.0,0.0,0.0,0.0,0.0,0.0,0.0,0.0,0.0,0.0,0.0,0.0,0.0,0.0,0.0,28.0,0.0,0.0,30.1,0.0,0.0,0.0,1.0,0.0,0.0,18.4,0.0,0.0,-0.1,6.8,5.3,0.0,0.0,0.0,0.0,28.0,30.0,28.0,30.0,28.0,30.0,29.0,30.0,0.0,0.0,12.0,254.1,0.0,1.0,1.0,4.998,0.0,0.0,1.525,1.388,0.0,27.7,0.0,0.0,0.0,,0.0,0.0,28.25,-4.75,-5.300000000000001,91.4,82.4,0.0,0.0,0.0,0.0,82.4,86.0,82.4,86.0,82.4,86.0,84.2,86.0,0.0,0.0,81.86,82.85,23.45,22.46,0.0,0.9276666666666666,0.0,413.6,2026-03-18 15:55:22-07:00
10.06,1.0,6.0,2026-03-18 22:55:32,37.08158,-121.59958,346.0,0.0,344.7,-12.6,0.0,,0.0,0.0,0.0,10.8,-0.5,4.1,0.0,222.0,0.0,-0.01,1.0,99.0,-40.0,33.0,0.0,30.06,2419.0,0.0,0.0,42.0,0.0,0.0,0.0,0.0,0.0,0.0,0.0,0.0,0.0,0.0,0.0,0.0,0.0,0.0,0.0,0.0,0.0,0.0,0.0,0.0,0.0,0.0,0.0,0.0,0.0,28.0,0.0,0.0,30.1,0.0,0.0,0.0,1.0,0.0,0.0,18.4,0.0,0.0,-0.1,6.8,5.3,0.0,0.0,0.0,0.0,29.0,30.0,29.0,30.0,29.0,30.0,29.0,30.0,0.0,0.0,12.0,254.1,0.0,1.0,1.0,4.998,0.0,0.0,1.525,1.387,0.0,27.6,0.0,0.0,0.0,,0.0,0.0,29.0,-4.0,-5.399999999999999,91.4,82.4,0.0,0.0,0.0,0.0,84.2,86.0,84.2,86.0,84.2,86.0,84.2,86.0,0.0,0.0,81.68,84.2,24.8,22.28,0.0,1.012,0.0,413.6,2026-03-18 15:55:22-07:00
11.06,1.0,6.0,2026-03-18 22:55:33,37.08158,-121.59958,346.0,0.0,344.7,-12.6,0.0,,0.0,0.0,0.0,10.8,-0.5,4.0,0.0,221.0,0.0,-0.01,1.0,99.0,-43.0,33.0,0.0,30.06,2426.0,0.0,0.0,42.0,0.0,0.0,0.0,0.0,0.0,0.0,0.0,0.0,0.0,0.0,0.0,0.0,0.0,0.0,0.0,0.0,0.0,0.0,0.0,0.0,0.0,0.0,0.0,0.0,0.0,28.0,0.0,0.0,30.1,0.0,0.0,0.0,1.0,0.0,0.0,18.4,0.0,0.0,-0.1,6.8,5.3,0.0,0.0,0.0,0.0,29.0,30.0,29.0,30.0,29.0,30.0,29.0,30.0,0.0,0.0,12.0,254.0,0.0,1.0,1.0,4.998,0.0,0.0,1.525,1.387,0.0,27.6,0.0,0.0,0.0,,0.0,0.0,29.0,-4.0,-5.399999999999999,91.4,82.4,0.0,0.0,0.0,0.0,84.2,86.0,84.2,86.0,84.2,86.0,84.2,86.0,0.0,0.0,81.68,84.2,24.8,22.28,0.0,1.012,0.0,413.6,2026-03-18 15:55:22-07:00
12.06,1.0,6.0,2026-03-18 22:55:34,37.08158,-121.59958,345.0,0.0,344.7,-12.6,0.0,,0.0,0.0,0.0,10.8,-0.5,4.0,0.0,221.0,0.0,-0.01,1.0,99.0,-49.0,33.0,0.0,30.06,2426.0,0.0,0.0,42.0,0.0,0.0,0.0,0.0,0.0,0.0,0.0,0.0,0.0,0.0,0.0,0.0,0.0,0.0,0.0,0.0,0.0,0.0,0.0,0.0,0.0,0.0,0.0,0.0,0.0,28.0,0.0,0.0,30.1,0.0,0.0,0.0,1.0,0.0,0.0,18.4,0.0,0.0,-0.1,6.8,5.3,0.0,0.0,0.0,0.0,29.0,30.0,29.0,30.0,29.0,30.0,29.0,30.0,0.0,0.0,12.0,254.0,0.0,1.0,1.0,4.998,0.0,0.0,1.525,1.387,0.0,27.6,0.0,0.0,0.0,,0.0,0.0,29.0,-4.0,-5.399999999999999,91.4,82.4,0.0,0.0,0.0,0.0,84.2,86.0,84.2,86.0,84.2,86.0,84.2,86.0,0.0,0.0,81.68,84.2,24.8,22.28,0.0,1.012,0.0,413.6,2026-03-18 15:55:22-07:00
13.06,1.0,6.0,2026-03-18 22:55:35,37.08158,-121.59958,343.0,0.1,344.7,-12.6,0.0,,0.0,0.0,0.0,10.8,-0.5,4.0,0.0,220.0,0.0,-0.01,1.0,99.0,-43.0,33.0,0.0,30.06,2426.0,0.0,0.0,42.0,0.0,0.0,0.0,0.0,0.0,0.0,0.0,0.0,0.0,0.0,0.0,0.0,0.0,0.0,0.0,0.0,0.0,0.0,0.0,0.0,0.0,0.0,0.0,0.0,0.0,28.0,0.0,0.0,30.1,0.0,0.0,0.0,1.0,0.0,0.0,18.4,0.0,0.0,-0.1,6.8,5.3,0.0,0.0,0.0,0.0,29.0,30.0,29.0,30.0,29.0,30.0,29.0,30.0,0.0,0.0,12.0,254.0,0.0,1.0,1.0,4.998,0.0,0.0,1.525,1.388,0.0,27.6,0.0,0.0,0.0,,0.0,0.0,29.0,-4.0,-5.399999999999999,91.4,82.4,0.0,0.0,0.0,0.0,84.2,86.0,84.2,86.0,84.2,86.0,84.2,86.0,0.0,0.0,81.68,84.2,24.8,22.28,0.0,1.0963333333333334,0.0,413.6,2026-03-18 15:55:22-07:00
14.06,1.0,6.0,2026-03-18 22:55:36,37.08158,-121.59957,342.0,0.0,344.7,-12.6,0.0,,0.0,0.0,0.0,10.8,-0.5,3.9,0.0,217.0,-0.0,-0.01,1.0,99.0,-112.0,33.0,0.0,30.06,2422.0,0.0,0.0,42.0,0.0,0.0,0.0,0.0,0.0,0.0,0.0,0.0,0.0,0.0,0.0,0.0,0.0,0.0,0.0,0.0,0.0,0.0,0.0,0.0,0.0,0.0,0.0,0.0,0.0,28.0,0.0,0.0,30.1,0.0,0.0,0.0,1.0,0.0,0.0,18.4,0.0,0.0,-0.1,6.8,5.3,0.0,0.0,0.0,0.0,29.0,30.0,29.0,30.0,29.0,30.0,29.0,30.0,0.0,0.0,12.0,254.0,0.0,1.0,1.0,4.998,0.0,0.0,1.525,1.387,0.0,27.6,0.0,0.0,0.0,,0.0,0.0,29.0,-4.0,-5.399999999999999,91.4,82.4,0.0,0.0,0.0,0.0,84.2,86.0,84.2,86.0,84.2,86.0,84.2,86.0,0.0,0.0,81.68,84.2,24.8,22.28,0.0,1.1806666666666665,0.0,413.6,2026-03-18 15:55:22-07:00
15.06,1.0,6.0,2026-03-18 22:55:37,37.08158,-121.59957,341.0,0.0,344.7,-12.6,0.0,,0.0,0.0,0.0,10.8,-0.6,3.9,0.0,214.0,-0.0,-0.01,1.0,99.0,-116.0,33.0,0.0,30.06,2422.0,0.0,0.0,42.0,0.0,0.0,0.0,0.0,0.0,0.0,0.0,0.0,0.0,0.0,0.0,0.0,0.0,0.0,0.0,0.0,0.0,0.0,0.0,0.0,0.0,0.0,0.0,0.0,0.0,28.0,0.0,0.0,30.1,0.0,0.0,0.0,1.0,0.0,0.0,18.4,0.0,0.0,-0.1,6.8,5.3,0.0,0.0,0.0,0.0,29.0,30.0,29.0,30.0,29.0,30.0,29.0,30.0,0.0,0.0,12.0,254.0,0.0,1.0,1.0,4.998,0.0,0.0,1.525,1.388,0.0,27.6,0.0,0.0,0.0,,0.0,0.0,29.0,-4.0,-5.399999999999999,91.4,82.4,0.0,0.0,0.0,0.0,84.2,86.0,84.2,86.0,84.2,86.0,84.2,86.0,0.0,0.0,81.68,84.2,24.8,22.28,0.0,1.1806666666666665,0.0,413.6,2026-03-18 15:55:22-07:00
16.06,1.0,6.0,2026-03-18 22:55:38,37.08158,-121.59957,340.0,0.0,344.7,-12.6,0.0,,0.0,0.0,0.0,10.8,-0.6,3.8,0.0,213.0,-0.0,-0.01,1.0,99.0,-67.0,33.0,0.0,30.06,2422.0,0.0,0.0,42.0,0.0,0.0,0.0,0.0,0.0,0.0,0.0,0.0,0.0,0.0,0.0,0.0,0.0,0.0,0.0,0.0,0.0,0.0,0.0,0.0,0.0,0.0,0.0,0.0,0.0,28.0,0.0,0.0,30.1,0.0,0.0,0.0,1.0,0.0,0.0,18.4,0.0,0.0,-0.1,6.8,5.3,0.0,0.0,0.0,0.0,29.0,30.0,29.0,30.0,29.0,30.0,29.0,30.0,0.0,0.0,12.0,254.0,0.0,1.0,1.0,4.998,0.0,0.0,1.525,1.388,0.0,27.6,0.0,0.0,0.0,,0.0,0.0,29.0,-4.0,-5.399999999999999,91.4,82.4,0.0,0.0,0.0,0.0,84.2,86.0,84.2,86.0,84.2,86.0,84.2,86.0,0.0,0.0,81.68,84.2,24.8,22.28,0.0,1.1806666666666665,0.0,413.6,2026-03-18 15:55:22-07:00
17.06,1.0,6.0,2026-03-18 22:55:39,37.08157,-121.59957,339.0,0.0,344.7,-12.6,0.0,,0.0,0.0,0.0,10.8,-0.6,3.8,0.0,212.0,-0.0,-0.01,1.0,99.0,-99.0,33.0,0.0,30.06,2427.0,0.0,0.0,42.0,0.0,0.0,0.0,0.0,0.0,0.0,0.0,0.0,0.0,0.0,0.0,0.0,0.0,0.0,0.0,0.0,0.0,0.0,0.0,0.0,0.0,0.0,0.0,0.0,0.0,28.0,0.0,0.0,30.1,0.0,0.0,0.0,0.4,0.0,0.0,18.4,0.0,0.0,-0.1,6.8,5.3,0.0,0.0,0.0,0.0,29.0,30.0,29.0,30.0,29.0,30.0,29.0,31.0,0.0,0.0,12.0,254.0,0.0,0.4,1.0,4.998,0.0,0.0,1.525,1.388,0.0,27.6,0.0,0.0,0.0,,0.0,0.0,29.0,-4.0,-5.399999999999999,91.4,82.4,0.0,0.0,0.0,0.0,84.2,86.0,84.2,86.0,84.2,86.0,84.2,87.8,0.0,0.0,81.68,84.2,24.8,22.28,0.0,1.1806666666666665,0.0,413.6,2026-03-18 15:55:22-07:00
18.06,1.0,6.0,2026-03-18 22:55:40,37.08157,-121.59957,339.0,0.0,344.7,-12.6,0.0,,0.0,0.0,0.0,10.8,-0.6,3.8,0.0,210.0,-0.0,-0.01,1.0,99.0,-105.0,33.0,0.0,30.06,2427.0,0.0,0.0,42.0,0.0,0.0,0.0,0.0,0.0,0.0,0.0,0.0,0.0,0.0,0.0,0.0,0.0,0.0,0.0,0.0,0.0,0.0,0.0,0.0,0.0,0.0,0.0,0.0,0.0,28.0,0.0,0.0,30.1,0.0,0.0,0.0,0.0,0.0,0.0,18.4,0.0,0.0,-0.1,6.8,5.3,0.0,0.0,0.0,0.0,29.0,30.0,29.0,30.0,29.0,30.0,29.0,30.0,0.0,0.0,12.0,254.0,0.0,0.0,1.0,4.998,0.0,0.0,1.525,1.388,0.0,27.6,0.0,0.0,0.0,,0.0,0.0,29.0,-4.0,-5.399999999999999,91.4,82.4,0.0,0.0,0.0,0.0,84.2,86.0,84.2,86.0,84.2,86.0,84.2,86.0,0.0,0.0,81.68,84.2,24.8,22.28,0.0,1.1806666666666665,0.0,413.6,2026-03-18 15:55:22-07:00
19.06,1.0,6.0,2026-03-18 22:55:41,37.08157,-121.59957,338.0,0.0,344.7,-12.6,0.0,,0.0,0.0,0.0,10.7,-0.6,3.8,0.0,208.0,-0.0,-0.01,1.0,99.0,-88.0,33.0,0.0,30.06,2427.0,0.0,0.0,42.0,0.0,0.0,0.0,0.0,0.0,0.0,0.0,0.0,0.0,0.0,0.0,0.0,0.0,0.0,0.0,0.0,0.0,0.0,0.0,0.0,0.0,0.0,0.0,0.0,0.0,28.0,0.0,0.0,30.1,0.0,0.0,0.0,0.0,0.0,0.0,18.4,0.0,0.0,-0.1,6.8,5.3,0.0,0.0,0.0,0.0,29.0,30.0,29.0,30.0,29.0,30.0,29.0,31.0,0.0,0.0,12.0,254.0,0.0,0.0,2.0,4.998,0.0,0.0,1.525,1.388,0.0,27.6,0.0,0.0,0.0,,0.0,0.0,29.0,-4.0,-5.399999999999999,91.4,82.4,0.0,0.0,0.0,0.0,84.2,86.0,84.2,86.0,84.2,86.0,84.2,87.8,0.0,0.0,81.68,84.2,24.8,22.28,0.0,1.1806666666666665,0.0,413.6,2026-03-18 15:55:22-07:00
20.06,1.0,6.0,2026-03-18 22:55:42,37.08157,-121.59957,337.0,0.0,344.7,-12.6,0.0,,0.0,0.0,0.0,10.8,-0.6,3.8,0.0,207.0,-0.0,-0.01,1.0,99.0,-78.0,33.0,0.0,30.06,2432.0,0.0,0.0,42.0,0.0,0.0,0.0,0.0,0.0,0.0,0.0,0.0,0.0,0.0,0.0,0.0,0.0,0.0,0.0,0.0,0.0,0.0,0.0,0.0,0.0,0.0,0.0,0.0,0.0,28.0,0.0,0.0,30.1,0.0,0.0,0.0,0.0,0.0,0.0,18.4,0.0,0.0,-0.1,6.8,5.3,0.0,0.0,0.0,0.0,29.0,30.0,29.0,30.0,29.0,30.0,29.0,31.0,0.0,0.0,12.0,254.0,0.0,0.0,2.0,4.998,0.0,0.0,1.525,1.387,0.0,27.6,0.0,0.0,0.0,,0.0,0.0,29.0,-4.0,-5.399999999999999,91.4,82.4,0.0,0.0,0.0,0.0,84.2,86.0,84.2,86.0,84.2,86.0,84.2,87.8,0.0,0.0,81.68,84.2,24.8,22.28,0.0,1.1806666666666665,0.0,413.6,2026-03-18 15:55:22-07:00
21.06,1.0,6.0,2026-03-18 22:55:43,37.08157,-121.59957,336.0,0.0,344.7,-12.6,0.0,,0.0,0.0,0.0,10.8,-0.6,3.9,0.0,206.0,0.0,-0.01,1.0,99.0,-92.0,33.0,0.0,30.06,2430.0,0.0,0.0,42.0,0.0,0.0,0.0,0.0,0.0,0.0,0.0,0.0,0.0,0.0,0.0,0.0,0.0,0.0,0.0,0.0,0.0,0.0,0.0,0.0,0.0,0.0,0.0,0.0,0.0,28.0,0.0,0.0,30.1,0.1,0.0,0.1,12.6,0.0,0.0,18.4,0.0,0.0,-0.1,6.8,5.3,0.0,0.0,0.0,0.0,29.0,30.0,29.0,30.0,29.0,30.0,29.0,30.0,0.0,0.0,12.0,254.0,0.0,12.6,2.0,4.998,0.0,0.0,1.525,1.388,0.0,27.6,0.0,0.0,0.0,,0.0,0.0,29.0,-4.0,-5.399999999999999,91.4,82.4,0.0,0.0,0.0,0.0,84.2,86.0,84.2,86.0,84.2,86.0,84.2,86.0,0.0,0.0,81.68,84.2,24.8,22.28,1.388888888888889e-05,1.1806666666666665,0.0,413.6,2026-03-18 15:55:22-07:00
22.06,1.0,6.0,2026-03-18 22:55:44,37.08157,-121.59956,336.0,0.0,344.7,-12.6,0.0,,0.0,0.0,0.0,10.8,-0.7,3.8,0.0,204.0,0.0,-0.01,1.0,99.0,-85.0,33.0,0.0,30.06,2430.0,0.0,0.0,42.0,0.0,0.0,0.0,0.0,0.0,0.0,0.0,0.0,0.0,0.0,0.0,0.0,0.0,0.0,0.0,0.0,0.0,0.0,0.0,0.0,0.0,0.0,0.0,0.0,0.0,28.0,0.0,0.0,30.1,0.5,0.0,0.5,30.1,0.0,0.0,18.4,0.0,0.0,-0.1,6.8,5.3,0.0,0.0,0.0,0.0,29.0,30.0,29.0,30.0,29.0,30.0,29.0,31.0,0.0,0.0,12.0,254.0,0.0,30.1,2.0,4.998,0.0,0.0,1.525,1.387,0.0,27.6,0.0,0.0,0.0,,0.0,0.0,29.0,-4.0,-5.399999999999999,91.4,82.4,0.0,0.0,0.0,0.0,84.2,86.0,84.2,86.0,84.2,86.0,84.2,87.8,0.0,0.0,81.68,84.2,24.8,22.28,9.722222222222222e-05,1.1806666666666665,0.0,413.6,2026-03-18 15:55:22-07:00
23.06,1.0,6.0,2026-03-18 22:55:45,37.08157,-121.59956,335.0,0.0,344.7,-12.6,0.0,,0.0,0.0,0.0,10.8,-0.6,3.8,0.0,203.0,0.0,-0.01,1.0,99.0,-65.0,33.0,0.0,30.06,2430.0,0.0,0.0,42.0,0.0,0.0,0.0,0.0,0.0,0.0,0.0,0.0,0.0,0.0,0.0,0.0,0.0,0.0,0.0,0.0,0.0,0.0,0.0,0.0,0.0,0.0,0.0,0.0,0.0,28.0,0.0,0.0,30.1,1.2,0.0,1.2,31.3,0.0,0.0,18.4,0.0,0.0,-0.1,6.8,5.3,0.0,0.0,0.0,0.0,29.0,30.0,29.0,30.0,29.0,30.0,29.0,31.0,0.0,0.0,12.0,254.0,0.0,31.3,2.0,4.998,0.0,0.0,1.525,1.388,0.0,27.6,0.0,0.0,0.0,,0.0,0.0,29.0,-4.0,-5.399999999999999,91.4,82.4,0.0,0.0,0.0,0.0,84.2,86.0,84.2,86.0,84.2,86.0,84.2,87.8,0.0,0.0,81.68,84.2,24.8,22.28,0.0003333333333333333,1.1806666666666665,0.0,413.6,2026-03-18 15:55:22-07:00
24.06,1.0,6.0,2026-03-18 22:55:46,37.08157,-121.59956,334.0,0.0,344.7,-12.6,0.0,,0.0,0.0,0.0,10.7,-0.7,3.8,0.0,203.0,-0.0,-0.01,1.0,99.0,-45.0,33.0,0.0,30.06,2428.0,0.0,0.0,42.0,0.0,0.0,0.0,0.0,0.0,0.0,0.0,0.0,0.0,0.0,0.0,0.0,0.0,0.0,0.0,0.0,0.0,0.0,0.0,0.0,0.0,0.0,0.0,0.0,0.0,28.0,0.0,0.0,30.1,1.7,0.0,1.7,31.1,0.0,0.0,18.4,0.0,0.0,-0.1,6.8,5.3,0.0,0.0,0.0,0.0,29.0,30.0,29.0,30.0,29.0,30.0,29.0,30.0,0.0,0.0,12.0,254.0,0.0,31.1,2.0,4.998,0.0,0.0,1.525,1.388,0.0,27.6,0.0,0.0,0.0,,0.0,0.0,29.0,-4.0,-5.399999999999999,91.4,82.4,0.0,0.0,0.0,0.0,84.2,86.0,84.2,86.0,84.2,86.0,84.2,86.0,0.0,0.0,81.68,84.2,24.8,22.28,0.000736111111111111,1.1806666666666665,0.0,413.6,2026-03-18 15:55:22-07:00
25.06,1.0,7.0,2026-03-18 22:55:47,37.08157,-121.59958,385.0,0.0,344.7,-12.6,0.0,,0.0,0.0,0.0,10.8,-0.6,3.8,0.0,202.0,0.0,-0.01,1.0,99.0,-52.0,33.0,0.0,30.06,2428.0,0.0,0.0,42.0,0.0,0.0,0.0,0.0,0.0,0.0,0.0,0.0,0.0,0.0,0.0,0.0,0.0,0.0,0.0,0.0,0.0,0.0,0.0,0.0,0.0,0.0,0.0,0.0,0.0,28.0,0.0,0.0,30.1,2.1,0.0,2.1,31.1,0.0,0.0,18.4,0.0,0.0,-0.1,6.8,5.3,0.0,0.0,0.0,0.0,29.0,30.0,29.0,30.0,29.0,30.0,29.0,31.0,0.0,0.0,12.0,254.0,0.0,31.1,2.0,4.998,0.0,0.0,1.525,1.388,0.0,27.6,0.0,0.0,0.0,,0.0,0.0,29.0,-4.0,-5.399999999999999,91.4,82.4,0.0,0.0,0.0,0.0,84.2,86.0,84.2,86.0,84.2,86.0,84.2,87.8,0.0,0.0,81.68,84.2,24.8,22.28,0.0012638888888888888,1.1806666666666665,0.0,413.6,2026-03-18 15:55:22-07:00
26.06,1.0,7.0,2026-03-18 22:55:48,37.08157,-121.59958,343.0,0.0,344.7,-12.6,0.0,,0.0,0.0,0.0,10.8,-0.6,3.9,0.0,202.0,0.0,-0.01,1.0,99.0,-19.0,33.0,0.0,30.06,2428.0,0.0,0.0,42.0,0.0,0.0,0.0,0.0,0.0,0.0,0.0,0.0,0.0,0.0,0.0,0.0,0.0,0.0,0.0,0.0,0.0,0.0,0.0,0.0,0.0,0.0,0.0,0.0,0.0,28.0,0.0,0.0,30.1,2.4,0.0,2.4,32.3,0.0,0.0,18.4,0.0,0.0,-0.1,6.8,5.3,0.0,0.0,0.0,0.0,29.0,30.0,29.0,30.0,29.0,30.0,29.0,31.0,0.0,0.0,12.0,254.0,0.0,32.3,2.0,4.998,0.0,0.0,1.525,1.388,0.0,27.6,0.0,0.0,0.0,,0.0,0.0,29.0,-4.0,-5.399999999999999,91.4,82.4,0.0,0.0,0.0,0.0,84.2,86.0,84.2,86.0,84.2,86.0,84.2,87.8,0.0,0.0,81.68,84.2,24.8,22.28,0.0018888888888888887,1.1806666666666665,0.0,413.6,2026-03-18 15:55:22-07:00
27.06,1.0,7.0,2026-03-18 22:55:49,37.08157,-121.59958,344.0,0.0,344.7,-12.6,0.0,,0.0,0.0,0.0,10.8,-0.6,3.9,0.0,201.0,0.0,-0.01,1.0,99.0,-53.0,33.0,0.0,30.06,2437.0,0.0,0.0,42.0,0.0,0.0,0.0,0.0,0.0,0.0,0.0,0.0,0.0,0.0,0.0,0.0,0.0,0.0,0.0,0.0,0.0,0.0,0.0,0.0,0.0,0.0,0.0,0.0,0.0,28.0,0.0,0.0,30.1,2.2,0.0,2.2,31.0,0.0,0.0,18.4,0.0,0.0,-0.1,6.8,5.3,0.0,0.0,0.0,0.0,29.0,30.0,29.0,30.0,29.0,30.0,29.0,31.0,0.0,0.0,12.0,254.0,0.0,31.0,2.0,4.998,0.0,0.0,1.525,1.388,0.0,27.6,0.0,0.0,0.0,,0.0,0.0,29.0,-4.0,-5.399999999999999,91.4,82.4,0.0,0.0,0.0,0.0,84.2,86.0,84.2,86.0,84.2,86.0,84.2,87.8,0.0,0.0,81.68,84.2,24.8,22.28,0.0025277777777777777,1.1806666666666665,0.0,413.6,2026-03-18 15:55:22-07:00
28.06,1.0,7.0,2026-03-18 22:55:50,37.08156,-121.59958,343.0,0.1,344.7,-12.6,0.0,,0.0,0.0,0.0,10.8,-0.6,3.9,0.0,201.0,-0.0,-0.01,1.0,99.0,-12.0,33.0,0.0,30.06,2437.0,0.0,0.0,42.0,0.0,0.0,0.0,0.0,0.0,0.0,0.0,0.0,0.0,0.0,0.0,0.0,0.0,0.0,0.0,0.0,0.0,0.0,0.0,0.0,0.0,0.0,0.0,0.0,0.0,28.0,0.0,0.0,30.1,2.2,0.0,2.2,30.8,0.0,0.0,18.4,0.0,0.0,-0.1,6.8,5.3,0.0,0.0,0.0,0.0,29.0,30.0,29.0,30.0,29.0,30.0,29.0,31.0,0.0,0.0,12.0,254.0,0.0,30.8,2.0,4.998,0.0,0.0,1.525,1.387,0.0,27.6,0.0,0.0,0.0,,0.0,0.0,29.0,-4.0,-5.399999999999999,91.4,82.4,0.0,0.0,0.0,0.0,84.2,86.0,84.2,86.0,84.2,86.0,84.2,87.8,0.0,0.0,81.68,84.2,24.8,22.28,0.003138888888888889,1.265,0.045454545454545456,413.6,2026-03-18 15:55:22-07:00
29.06,1.0,7.0,2026-03-18 22:55:51,37.08156,-121.59958,343.0,0.1,344.7,-12.6,0.0,,0.0,0.0,0.0,10.9,-0.6,3.8,0.0,201.0,0.0,-0.01,1.0,99.0,11.0,34.0,0.0,30.06,2437.0,0.0,0.0,42.0,0.0,0.0,0.0,0.0,0.0,0.0,0.0,0.0,0.0,0.0,0.0,0.0,0.0,0.0,0.0,0.0,0.0,0.0,0.0,0.0,0.0,0.0,0.0,0.0,0.0,28.0,0.0,0.0,30.1,0.0,0.0,0.0,30.5,0.0,0.0,18.4,0.0,0.0,-0.1,6.8,5.3,0.0,0.0,0.0,0.0,29.0,30.0,29.0,30.0,29.0,30.0,29.0,31.0,0.0,0.0,12.0,254.0,0.0,30.5,2.0,4.998,0.0,0.0,1.525,1.388,0.0,27.6,0.0,0.0,0.0,,0.0,0.0,29.0,-5.0,-6.399999999999999,93.2,82.4,0.0,0.0,0.0,0.0,84.2,86.0,84.2,86.0,84.2,86.0,84.2,87.8,0.0,0.0,81.68,84.2,23.0,20.480000000000004,0.0034444444444444444,1.4336666666666666,0.0,413.6,2026-03-18 15:55:22-07:00
30.06,1.0,7.0,2026-03-18 22:55:52,37.08156,-121.59958,343.0,0.0,344.7,-12.6,0.0,,0.0,0.0,0.0,10.8,-0.6,3.9,0.0,200.0,0.0,-0.01,1.0,99.0,-55.0,34.0,0.0,30.06,2437.0,0.0,0.0,42.0,0.0,0.0,0.0,0.0,0.0,0.0,0.0,0.0,0.0,0.0,0.0,0.0,0.0,0.0,0.0,0.0,0.0,0.0,0.0,0.0,0.0,0.0,0.0,0.0,0.0,28.0,0.0,0.0,30.1,0.0,0.0,0.0,30.3,0.0,0.0,18.4,0.0,0.0,-0.1,6.8,5.3,0.0,0.0,0.0,0.0,29.0,30.0,29.0,30.0,29.0,30.0,29.0,31.0,0.0,0.0,12.0,254.0,0.0,30.3,2.0,4.998,0.0,0.0,1.525,1.387,0.0,27.5,0.0,0.0,0.0,,0.0,0.0,29.0,-5.0,-6.5,93.2,82.4,0.0,0.0,0.0,0.0,84.2,86.0,84.2,86.0,84.2,86.0,84.2,87.8,0.0,0.0,81.5,84.2,23.0,20.3,0.0034444444444444444,1.518,0.0,413.6,2026-03-18 15:55:22-07:00
31.06,1.0,7.0,2026-03-18 22:55:53,37.08156,-121.59958,342.0,0.0,344.7,-12.6,0.0,,0.0,0.0,0.0,10.8,-0.6,3.9,0.0,200.0,-0.0,-0.01,1.0,99.0,-40.0,34.0,0.0,30.06,2437.0,0.0,0.0,42.0,0.0,0.0,0.0,0.0,0.0,0.0,0.0,0.0,0.0,0.0,0.0,0.0,0.0,0.0,0.0,0.0,0.0,0.0,0.0,0.0,0.0,0.0,0.0,0.0,0.0,28.0,0.0,0.0,30.1,0.0,0.0,0.0,30.1,0.0,0.0,18.4,0.0,0.0,-0.1,6.8,5.3,0.0,0.0,0.0,0.0,29.0,30.0,29.0,30.0,29.0,30.0,29.0,30.0,0.0,0.0,12.0,253.9,0.0,30.1,2.0,4.998,0.0,0.0,1.525,1.388,0.0,27.6,0.0,0.0,0.0,,0.0,0.0,29.0,-5.0,-6.399999999999999,93.2,82.4,0.0,0.0,0.0,0.0,84.2,86.0,84.2,86.0,84.2,86.0,84.2,86.0,0.0,0.0,81.68,84.2,23.0,20.480000000000004,0.0034444444444444444,1.518,0.0,413.6,2026-03-18 15:55:22-07:00
32.06,1.0,7.0,2026-03-18 22:55:54,37.08156,-121.59957,341.0,0.0,344.7,-12.6,0.0,,0.0,0.0,0.0,10.8,-0.6,3.8,0.0,199.0,-0.0,-0.01,1.0,99.0,-57.0,34.0,0.0,30.06,2445.0,0.0,0.0,42.0,0.0,0.0,0.0,0.0,0.0,0.0,0.0,0.0,0.0,0.0,0.0,0.0,0.0,0.0,0.0,0.0,0.0,0.0,0.0,0.0,0.0,0.0,0.0,0.0,0.0,28.0,0.0,0.0,30.1,0.0,0.0,0.0,30.0,0.0,0.0,18.4,0.0,0.0,-0.1,6.8,5.3,0.0,0.0,0.0,0.0,29.0,30.0,29.0,30.0,29.0,30.0,29.0,31.0,0.0,0.0,12.0,253.9,0.0,30.0,2.0,4.998,0.0,0.0,1.525,1.388,0.0,27.6,0.0,0.0,0.0,,0.0,0.0,29.0,-5.0,-6.399999999999999,93.2,82.4,0.0,0.0,0.0,0.0,84.2,86.0,84.2,86.0,84.2,86.0,84.2,87.8,0.0,0.0,81.68,84.2,23.0,20.480000000000004,0.0034444444444444444,1.518,0.0,413.6,2026-03-18 15:55:22-07:00
33.06,1.0,7.0,2026-03-18 22:55:55,37.08155,-121.59957,341.0,0.1,344.7,-12.6,0.0,,0.0,0.0,0.0,10.8,-0.6,3.8,0.0,198.0,-0.0,-0.01,1.0,99.0,-29.0,34.0,0.0,30.06,2446.0,0.0,0.0,42.0,0.0,0.0,0.0,0.0,0.0,0.0,0.0,0.0,0.0,0.0,0.0,0.0,0.0,0.0,0.0,0.0,0.0,0.0,0.0,0.0,0.0,0.0,0.0,0.0,0.0,28.0,0.0,0.0,30.1,0.0,0.0,0.0,29.8,0.0,0.0,18.4,0.0,0.0,-0.1,6.8,5.3,0.0,0.0,0.0,0.0,29.0,30.0,29.0,30.0,29.0,30.0,29.0,30.0,0.0,0.0,12.0,253.9,0.0,29.8,2.0,4.998,0.0,0.0,1.525,1.387,0.0,27.5,0.0,0.0,0.0,,0.0,0.0,29.0,-5.0,-6.5,93.2,82.4,0.0,0.0,0.0,0.0,84.2,86.0,84.2,86.0,84.2,86.0,84.2,86.0,0.0,0.0,81.5,84.2,23.0,20.3,0.0034444444444444444,1.6023333333333332,0.0,413.6,2026-03-18 15:55:22-07:00
34.06,1.0,7.0,2026-03-18 22:55:56,37.08155,-121.59957,340.0,0.0,344.7,-12.6,0.0,,0.0,0.0,0.0,10.8,-0.5,3.9,0.0,198.0,-0.0,-0.01,1.0,99.0,2.0,34.0,0.0,30.06,2446.0,0.0,0.0,42.0,0.0,0.0,0.0,0.0,0.0,0.0,0.0,0.0,0.0,0.0,0.0,0.0,0.0,0.0,0.0,0.0,0.0,0.0,0.0,0.0,0.0,0.0,0.0,0.0,0.0,28.0,0.0,0.0,30.1,0.0,0.0,0.0,29.7,0.0,0.0,18.4,0.0,0.0,-0.1,6.8,5.3,0.0,0.0,0.0,0.0,29.0,30.0,29.0,30.0,29.0,30.0,29.0,30.0,0.0,0.0,12.0,253.9,0.0,29.7,2.0,4.998,0.0,0.0,1.525,1.387,0.0,27.6,0.0,0.0,0.0,,0.0,0.0,29.0,-5.0,-6.399999999999999,93.2,82.4,0.0,0.0,0.0,0.0,84.2,86.0,84.2,86.0,84.2,86.0,84.2,86.0,0.0,0.0,81.68,84.2,23.0,20.480000000000004,0.0034444444444444444,1.6866666666666665,0.0,413.6,2026-03-18 15:55:22-07:00
35.06,1.0,7.0,2026-03-18 22:55:57,37.08155,-121.59957,339.0,0.0,344.7,-12.6,0.0,,0.0,0.0,0.0,10.8,-0.6,3.9,0.0,198.0,-0.0,-0.01,1.0,99.0,3.0,34.0,0.0,30.06,2446.0,0.0,0.0,42.0,0.0,0.0,0.0,0.0,0.0,0.0,0.0,0.0,0.0,0.0,0.0,0.0,0.0,0.0,0.0,0.0,0.0,0.0,0.0,0.0,0.0,0.0,0.0,0.0,0.0,28.0,0.0,0.0,30.1,0.0,0.0,0.0,29.6,0.0,0.0,18.4,0.0,0.0,-0.1,6.8,5.3,0.0,0.0,0.0,0.0,29.0,30.0,29.0,30.0,29.0,30.0,29.0,31.0,0.0,0.0,12.0,253.9,0.0,29.6,2.0,4.998,0.0,0.0,1.525,1.387,0.0,27.6,0.0,0.0,0.0,,0.0,0.0,29.0,-5.0,-6.399999999999999,93.2,82.4,0.0,0.0,0.0,0.0,84.2,86.0,84.2,86.0,84.2,86.0,84.2,87.8,0.0,0.0,81.68,84.2,23.0,20.480000000000004,0.0034444444444444444,1.6866666666666665,0.0,413.6,2026-03-18 15:55:22-07:00
36.06,1.0,7.0,2026-03-18 22:55:58,37.08155,-121.59957,338.0,0.0,344.7,-12.6,0.0,,0.0,0.0,0.0,10.8,-0.5,3.9,0.0,198.0,0.0,-0.01,1.0,99.0,-8.0,34.0,0.0,30.06,2455.0,0.0,0.0,42.0,0.0,0.0,0.0,0.0,0.0,0.0,0.0,0.0,0.0,0.0,0.0,0.0,0.0,0.0,0.0,0.0,0.0,0.0,0.0,0.0,0.0,0.0,0.0,0.0,0.0,28.0,0.0,0.0,30.1,0.0,0.0,0.0,29.4,0.0,0.0,18.4,0.0,0.0,-0.1,6.8,5.3,0.0,0.0,0.0,0.0,29.0,30.0,29.0,30.0,29.0,30.0,29.0,30.0,0.0,0.0,12.0,253.9,0.0,29.4,2.0,4.998,0.0,0.0,1.525,1.388,0.0,27.5,0.0,0.0,0.0,,0.0,0.0,29.0,-5.0,-6.5,93.2,82.4,0.0,0.0,0.0,0.0,84.2,86.0,84.2,86.0,84.2,86.0,84.2,86.0,0.0,0.0,81.5,84.2,23.0,20.3,0.0034444444444444444,1.6866666666666665,0.0,413.6,2026-03-18 15:55:22-07:00
37.06,1.0,7.0,2026-03-18 22:55:59,37.08155,-121.59957,337.0,0.0,344.7,-12.6,0.0,,0.0,0.0,0.0,10.9,-0.6,3.9,0.0,198.0,-0.0,-0.01,1.0,99.0,-15.0,34.0,0.0,30.06,2457.0,0.0,0.0,42.0,0.0,0.0,0.0,0.0,0.0,0.0,0.0,0.0,0.0,0.0,0.0,0.0,0.0,0.0,0.0,0.0,0.0,0.0,0.0,0.0,0.0,0.0,0.0,0.0,0.0,28.0,0.0,0.0,30.1,0.0,0.0,0.0,29.3,0.0,0.0,18.4,0.0,0.0,-0.1,6.8,5.3,0.0,0.0,0.0,0.0,29.0,30.0,29.0,30.0,29.0,30.0,29.0,30.0,0.0,0.0,12.0,253.9,0.0,29.3,2.0,4.998,0.0,0.0,1.525,1.388,0.0,27.6,0.0,0.0,0.0,,0.0,0.0,29.0,-5.0,-6.399999999999999,93.2,82.4,0.0,0.0,0.0,0.0,84.2,86.0,84.2,86.0,84.2,86.0,84.2,86.0,0.0,0.0,81.68,84.2,23.0,20.480000000000004,0.0034444444444444444,1.6866666666666665,0.0,413.6,2026-03-18 15:55:22-07:00
38.06,1.0,7.0,2026-03-18 22:56:00,37.08155,-121.59957,337.0,0.0,344.7,-12.6,0.0,,0.0,0.0,0.0,10.9,-0.6,3.9,0.0,198.0,-0.0,-0.01,1.0,99.0,-37.0,34.0,0.0,30.06,2457.0,0.0,0.0,42.0,0.0,0.0,0.0,0.0,0.0,0.0,0.0,0.0,0.0,0.0,0.0,0.0,0.0,0.0,0.0,0.0,0.0,0.0,0.0,0.0,0.0,0.0,0.0,0.0,0.0,28.0,0.0,0.0,30.1,0.0,0.0,0.0,29.2,0.0,0.0,18.4,0.0,0.0,-0.1,6.8,5.3,0.0,0.0,0.0,0.0,29.0,30.0,29.0,30.0,29.0,30.0,29.0,30.0,0.0,0.0,12.0,253.9,0.0,29.2,2.0,4.998,0.0,0.0,1.525,1.388,0.0,27.6,0.0,0.0,0.0,,0.0,0.0,29.0,-5.0,-6.399999999999999,93.2,82.4,0.0,0.0,0.0,0.0,84.2,86.0,84.2,86.0,84.2,86.0,84.2,86.0,0.0,0.0,81.68,84.2,23.0,20.480000000000004,0.0034444444444444444,1.6866666666666665,0.0,413.6,2026-03-18 15:55:22-07:00
39.06,1.0,7.0,2026-03-18 22:56:01,37.08154,-121.59957,336.0,0.0,344.7,-12.6,0.0,,0.0,0.0,0.0,10.9,-0.6,3.9,0.0,198.0,-0.0,-0.01,1.0,99.0,-22.0,34.0,0.0,30.06,2457.0,0.0,0.0,42.0,0.0,0.0,0.0,0.0,0.0,0.0,0.0,0.0,0.0,0.0,0.0,0.0,0.0,0.0,0.0,0.0,0.0,0.0,0.0,0.0,0.0,0.0,0.0,0.0,0.0,28.0,0.0,0.0,30.1,0.0,0.0,0.0,29.1,0.0,0.0,18.4,0.0,0.0,-0.1,6.8,5.3,0.0,0.0,0.0,0.0,29.0,30.0,29.0,30.0,29.0,30.0,29.0,30.0,0.0,0.0,12.0,253.9,0.0,29.1,2.0,4.998,0.0,0.0,1.525,1.388,0.0,27.5,0.0,0.0,0.0,,0.0,0.0,29.0,-5.0,-6.5,93.2,82.4,0.0,0.0,0.0,0.0,84.2,86.0,84.2,86.0,84.2,86.0,84.2,86.0,0.0,0.0,81.5,84.2,23.0,20.3,0.0034444444444444444,1.6866666666666665,0.0,413.6,2026-03-18 15:55:22-07:00
40.06,1.0,7.0,2026-03-18 22:56:02,37.08154,-121.59957,336.0,0.0,344.7,-12.6,0.0,,0.0,0.0,0.0,10.8,-0.6,3.9,0.0,196.0,0.0,-0.01,1.0,99.0,-45.0,34.0,0.0,30.06,2463.0,0.0,0.0,42.0,0.0,0.0,0.0,0.0,0.0,0.0,0.0,0.0,0.0,0.0,0.0,0.0,0.0,0.0,0.0,0.0,0.0,0.0,0.0,0.0,0.0,0.0,0.0,0.0,0.0,28.0,0.0,0.0,30.1,0.0,0.0,0.0,28.9,0.0,0.0,18.4,0.0,0.0,-0.1,6.8,5.3,0.0,0.0,0.0,0.0,29.0,30.0,29.0,30.0,29.0,30.0,29.0,30.0,0.0,0.0,12.0,253.9,0.0,28.9,2.0,4.998,0.0,0.0,1.525,1.388,0.0,27.5,0.0,0.0,0.0,,0.0,0.0,29.0,-5.0,-6.5,93.2,82.4,0.0,0.0,0.0,0.0,84.2,86.0,84.2,86.0,84.2,86.0,84.2,86.0,0.0,0.0,81.5,84.2,23.0,20.3,0.0034444444444444444,1.6866666666666665,0.0,413.6,2026-03-18 15:55:22-07:00
41.06,1.0,7.0,2026-03-18 22:56:03,37.08154,-121.59957,336.0,0.1,344.7,-12.6,0.0,,0.0,0.0,0.0,10.9,-0.6,3.9,0.0,196.0,0.0,-0.01,1.0,99.0,-1.0,34.0,0.0,30.06,2465.0,0.0,0.0,42.0,0.0,0.0,0.0,0.0,0.0,0.0,0.0,0.0,0.0,0.0,0.0,0.0,0.0,0.0,0.0,0.0,0.0,0.0,0.0,0.0,0.0,0.0,0.0,0.0,0.0,28.0,0.0,0.0,30.1,0.0,0.0,0.0,28.8,0.0,0.0,18.4,0.0,0.0,-0.1,6.8,5.3,0.0,0.0,0.0,0.0,29.0,30.0,29.0,30.0,29.0,30.0,30.0,31.0,0.0,0.0,12.0,253.9,0.0,28.8,2.0,4.998,0.0,0.0,1.525,1.388,0.0,27.5,0.0,0.0,0.0,,0.0,0.0,29.25,-4.75,-6.5,93.2,82.4,0.0,0.0,0.0,0.0,84.2,86.0,84.2,86.0,84.2,86.0,86.0,87.8,0.0,0.0,81.5,84.65,23.45,20.3,0.0034444444444444444,1.771,0.0,413.6,2026-03-18 15:55:22-07:00
42.06,1.0,7.0,2026-03-18 22:56:04,37.08154,-121.59957,335.0,0.0,344.7,-12.6,0.0,,0.0,0.0,0.0,10.9,-0.5,3.9,0.0,196.0,0.0,-0.01,1.0,99.0,8.0,34.0,0.0,30.06,2465.0,0.0,0.0,42.0,0.0,0.0,0.0,0.0,0.0,0.0,0.0,0.0,0.0,0.0,0.0,0.0,0.0,0.0,0.0,0.0,0.0,0.0,0.0,0.0,0.0,0.0,0.0,0.0,0.0,28.0,0.0,0.0,30.1,0.0,0.0,0.0,28.7,0.0,0.0,18.4,0.0,0.0,-0.1,6.8,5.3,0.0,0.0,0.0,0.0,29.0,30.0,29.0,30.0,29.0,30.0,30.0,31.0,0.0,0.0,12.0,229.7,0.0,28.7,2.0,4.998,0.0,0.0,1.525,1.388,0.0,27.6,0.0,0.0,0.0,,0.0,0.0,29.25,-4.75,-6.399999999999999,93.2,82.4,0.0,0.0,0.0,0.0,84.2,86.0,84.2,86.0,84.2,86.0,86.0,87.8,0.0,0.0,81.68,84.65,23.45,20.480000000000004,0.0034444444444444444,1.8553333333333333,0.0,413.6,2026-03-18 15:55:22-07:00
43.06,1.0,7.0,2026-03-18 22:56:05,37.08154,-121.59957,335.0,0.0,344.7,-12.6,0.0,,0.0,0.0,0.0,10.9,-0.6,3.9,0.0,196.0,0.0,-0.01,1.0,99.0,40.0,34.0,0.0,30.06,2465.0,0.0,0.0,42.0,0.0,0.0,0.0,0.0,0.0,0.0,0.0,0.0,0.0,0.0,0.0,0.0,0.0,0.0,0.0,0.0,0.0,0.0,0.0,0.0,0.0,0.0,0.0,0.0,0.0,28.0,0.0,0.0,30.1,0.0,0.0,0.0,28.6,0.0,0.0,18.4,0.0,0.0,-0.1,6.8,5.3,0.0,0.0,0.0,0.0,29.0,30.0,29.0,30.0,29.0,30.0,30.0,31.0,0.0,0.0,12.0,178.8,0.0,28.6,2.0,4.998,0.0,0.0,1.525,1.388,0.0,27.6,0.0,0.0,0.0,,0.0,0.0,29.25,-4.75,-6.399999999999999,93.2,82.4,0.0,0.0,0.0,0.0,84.2,86.0,84.2,86.0,84.2,86.0,86.0,87.8,0.0,0.0,81.68,84.65,23.45,20.480000000000004,0.0034444444444444444,1.8553333333333333,0.0,413.6,2026-03-18 15:55:22-07:00
44.06,1.0,7.0,2026-03-18 22:56:06,37.08154,-121.59957,334.0,0.0,344.7,-12.6,0.0,,0.0,0.0,0.0,10.9,-0.6,3.9,0.0,196.0,-0.0,-0.01,1.0,99.0,-12.0,34.0,0.0,30.06,2474.0,0.0,0.0,42.0,0.0,0.0,0.0,0.0,0.0,0.0,0.0,0.0,0.0,0.0,0.0,0.0,0.0,0.0,0.0,0.0,0.0,0.0,0.0,0.0,0.0,0.0,0.0,0.0,0.0,28.0,0.0,0.0,30.1,0.0,0.0,0.0,28.5,0.0,0.0,18.4,0.0,0.0,-0.1,6.8,5.3,0.0,0.0,0.0,0.0,29.0,30.0,29.0,30.0,29.0,30.0,30.0,31.0,0.0,0.0,12.0,139.2,0.0,28.5,2.0,4.998,0.0,0.0,1.525,1.388,0.0,27.5,0.0,0.0,0.0,,0.0,0.0,29.25,-4.75,-6.5,93.2,82.4,0.0,0.0,0.0,0.0,84.2,86.0,84.2,86.0,84.2,86.0,86.0,87.8,0.0,0.0,81.5,84.65,23.45,20.3,0.0034444444444444444,1.8553333333333333,0.0,413.6,2026-03-18 15:55:22-07:00
45.06,1.0,7.0,2026-03-18 22:56:07,37.08154,-121.59957,334.0,0.0,344.7,-12.6,0.0,,0.0,0.0,0.0,10.9,-0.6,3.9,0.0,196.0,-0.0,-0.01,1.0,99.0,-35.0,34.0,0.0,30.06,2474.0,0.0,0.0,42.0,0.0,0.0,0.0,0.0,0.0,0.0,0.0,0.0,0.0,0.0,0.0,0.0,0.0,0.0,0.0,0.0,0.0,0.0,0.0,0.0,0.0,0.0,0.0,0.0,0.0,28.0,0.0,0.0,30.1,0.0,0.0,0.0,28.4,0.0,0.0,18.4,0.0,0.0,-0.2,6.8,5.3,0.0,0.0,0.0,0.0,29.0,30.0,29.0,30.0,29.0,30.0,30.0,31.0,0.0,0.0,12.0,108.4,0.0,28.4,2.0,4.998,0.0,0.0,1.525,1.388,0.0,27.6,0.0,0.0,0.0,,0.0,0.0,29.25,-4.75,-6.399999999999999,93.2,82.4,0.0,0.0,0.0,0.0,84.2,86.0,84.2,86.0,84.2,86.0,86.0,87.8,0.0,0.0,81.68,84.65,23.45,20.480000000000004,0.0034444444444444444,1.8553333333333333,0.0,413.6,2026-03-18 15:55:22-07:00
46.06,1.0,7.0,2026-03-18 22:56:08,37.08153,-121.59957,334.0,0.1,344.7,-12.6,0.0,,0.0,0.0,0.0,10.9,-0.7,3.9,0.0,196.0,-0.0,-0.01,1.0,99.0,-22.0,34.0,0.0,30.06,2476.0,0.0,0.0,42.0,0.0,0.0,0.0,0.0,0.0,0.0,0.0,0.0,0.0,0.0,0.0,0.0,0.0,0.0,0.0,0.0,0.0,0.0,0.0,0.0,0.0,0.0,0.0,0.0,0.0,28.0,0.0,0.0,30.1,0.0,0.0,0.0,28.3,0.0,0.0,18.4,0.0,0.0,-0.2,6.8,5.3,0.0,0.0,0.0,0.0,29.0,30.0,29.0,30.0,29.0,30.0,30.0,31.0,0.0,0.0,12.0,84.5,0.0,28.3,2.0,4.998,0.0,0.0,1.525,1.388,0.0,27.6,0.0,0.0,0.0,,0.0,0.0,29.25,-4.75,-6.399999999999999,93.2,82.4,0.0,0.0,0.0,0.0,84.2,86.0,84.2,86.0,84.2,86.0,86.0,87.8,0.0,0.0,81.68,84.65,23.45,20.480000000000004,0.0034444444444444444,1.9396666666666667,0.0,413.6,2026-03-18 15:55:22-07:00
47.06,1.0,7.0,2026-03-18 22:56:09,37.08153,-121.59957,333.0,0.1,344.7,-12.6,0.0,,0.0,0.0,0.0,10.9,-0.6,3.8,0.0,194.0,-0.0,-0.01,1.0,99.0,-72.0,34.0,0.0,30.06,2476.0,0.0,0.0,42.0,0.0,0.0,0.0,0.0,0.0,0.0,0.0,0.0,0.0,0.0,0.0,0.0,0.0,0.0,0.0,0.0,0.0,0.0,0.0,0.0,0.0,0.0,0.0,0.0,0.0,28.0,0.0,0.0,30.1,0.0,0.0,0.0,28.1,0.0,0.0,18.4,0.0,0.0,-0.2,6.8,5.3,0.0,0.0,0.0,0.0,29.0,30.0,29.0,30.0,29.0,30.0,30.0,31.0,0.0,0.0,12.0,65.9,0.0,28.1,2.0,4.998,0.0,0.0,1.525,1.388,0.0,27.6,0.0,0.0,0.0,,0.0,0.0,29.25,-4.75,-6.399999999999999,93.2,82.4,0.0,0.0,0.0,0.0,84.2,86.0,84.2,86.0,84.2,86.0,86.0,87.8,0.0,0.0,81.68,84.65,23.45,20.480000000000004,0.0034444444444444444,2.1083333333333334,0.0,413.6,2026-03-18 15:55:22-07:00
48.06,1.0,7.0,2026-03-18 22:56:10,37.08153,-121.59957,333.0,0.0,344.7,-12.6,0.0,,0.0,0.0,0.0,10.9,-0.6,3.8,0.0,194.0,0.0,-0.01,1.0,99.0,-62.0,34.0,0.0,30.06,2476.0,0.0,0.0,42.0,0.0,0.0,0.0,0.0,0.0,0.0,0.0,0.0,0.0,0.0,0.0,0.0,0.0,0.0,0.0,0.0,0.0,0.0,0.0,0.0,0.0,0.0,0.0,0.0,0.0,28.0,0.0,0.0,30.1,0.0,0.0,0.0,28.1,0.0,0.0,18.4,0.0,0.0,-0.2,6.8,5.3,0.0,0.0,0.0,0.0,29.0,30.0,29.0,30.0,29.0,30.0,30.0,31.0,0.0,0.0,12.0,51.4,0.0,28.1,2.0,4.998,0.0,0.0,1.525,1.388,0.0,27.6,0.0,0.0,0.0,,0.0,0.0,29.25,-4.75,-6.399999999999999,93.2,82.4,0.0,0.0,0.0,0.0,84.2,86.0,84.2,86.0,84.2,86.0,86.0,87.8,0.0,0.0,81.68,84.65,23.45,20.480000000000004,0.0034444444444444444,2.1926666666666668,0.0,413.6,2026-03-18 15:55:22-07:00
49.06,1.0,7.0,2026-03-18 22:56:11,37.08153,-121.59957,333.0,0.0,344.7,-12.6,0.0,,0.0,0.0,0.0,10.9,-0.7,3.8,0.0,193.0,-0.0,-0.01,1.0,99.0,-56.0,34.0,0.0,30.06,2482.0,0.0,0.0,42.0,0.0,0.0,0.0,0.0,0.0,0.0,0.0,0.0,0.0,0.0,0.0,0.0,0.0,0.0,0.0,0.0,0.0,0.0,0.0,0.0,0.0,0.0,0.0,0.0,0.0,28.0,0.0,0.0,30.1,0.0,0.0,0.0,27.9,0.0,0.0,18.4,0.0,0.0,-0.2,6.8,5.3,0.0,0.0,0.0,0.0,29.0,30.0,29.0,30.0,29.0,30.0,30.0,31.0,0.0,0.0,12.0,40.2,0.0,27.9,2.0,4.998,0.0,0.0,1.525,1.388,0.0,27.5,0.0,0.0,0.0,,0.0,0.0,29.25,-4.75,-6.5,93.2,82.4,0.0,0.0,0.0,0.0,84.2,86.0,84.2,86.0,84.2,86.0,86.0,87.8,0.0,0.0,81.5,84.65,23.45,20.3,0.0034444444444444444,2.1926666666666668,0.0,413.6,2026-03-18 15:55:22-07:00
50.06,1.0,7.0,2026-03-18 22:56:12,37.08153,-121.59956,332.0,0.0,344.7,-12.6,0.0,,0.0,0.0,0.0,10.9,-0.7,3.8,0.0,193.0,-0.0,-0.01,1.0,99.0,-55.0,34.0,0.0,30.06,2483.0,0.0,0.0,42.0,0.0,0.0,0.0,0.0,0.0,0.0,0.0,0.0,0.0,0.0,0.0,0.0,0.0,0.0,0.0,0.0,0.0,0.0,0.0,0.0,0.0,0.0,0.0,0.0,0.0,28.0,0.0,0.0,30.1,0.0,0.0,0.0,27.9,0.0,0.0,18.4,0.0,0.0,-0.2,6.8,5.3,0.0,0.0,0.0,0.0,29.0,30.0,29.0,30.0,29.0,30.0,30.0,31.0,0.0,0.0,12.0,31.4,0.0,27.9,2.0,4.998,0.0,0.0,1.525,1.388,0.0,27.5,0.0,0.0,0.0,,0.0,0.0,29.25,-4.75,-6.5,93.2,82.4,0.0,0.0,0.0,0.0,84.2,86.0,84.2,86.0,84.2,86.0,86.0,87.8,0.0,0.0,81.5,84.65,23.45,20.3,0.0034444444444444444,2.1926666666666668,0.0,413.6,2026-03-18 15:55:22-07:00
51.06,1.0,7.0,2026-03-18 22:56:13,37.08153,-121.59956,332.0,0.0,344.7,-12.6,0.0,,0.0,0.0,0.0,10.9,-0.7,3.8,0.0,191.0,0.0,-0.01,1.0,99.0,-72.0,34.0,0.0,30.06,2483.0,0.0,0.0,42.0,0.0,0.0,0.0,0.0,0.0,0.0,0.0,0.0,0.0,0.0,0.0,0.0,0.0,0.0,0.0,0.0,0.0,0.0,0.0,0.0,0.0,0.0,0.0,0.0,0.0,28.0,0.0,0.0,30.1,0.0,0.0,0.0,27.7,0.0,0.0,18.4,0.0,0.0,-0.2,6.8,5.3,0.0,0.0,0.0,0.0,29.0,30.0,29.0,30.0,29.0,30.0,30.0,31.0,0.0,0.0,12.0,24.6,0.0,27.7,1.0,4.998,0.0,0.0,1.525,1.388,0.0,27.5,0.0,0.0,0.0,,0.0,0.0,29.25,-4.75,-6.5,93.2,82.4,0.0,0.0,0.0,0.0,84.2,86.0,84.2,86.0,84.2,86.0,86.0,87.8,0.0,0.0,81.5,84.65,23.45,20.3,0.0034444444444444444,2.1926666666666668,0.0,413.6,2026-03-18 15:55:22-07:00
52.06,1.0,7.0,2026-03-18 22:56:14,37.08152,-121.59956,332.0,0.1,344.7,-12.6,0.0,,0.0,0.0,0.0,10.9,-0.6,3.9,0.0,189.0,0.0,-0.01,1.0,99.0,-73.0,34.0,0.0,30.06,2483.0,0.0,0.0,42.0,0.0,0.0,0.0,0.0,0.0,0.0,0.0,0.0,0.0,0.0,0.0,0.0,0.0,0.0,0.0,0.0,0.0,0.0,0.0,0.0,0.0,0.0,0.0,0.0,0.0,28.0,0.0,0.0,30.1,0.0,0.0,0.0,27.6,0.0,0.0,18.4,0.0,0.0,-0.2,6.8,5.3,0.0,0.0,0.0,0.0,29.0,30.0,29.0,30.0,29.0,30.0,30.0,31.0,0.0,0.0,12.0,19.4,0.0,27.6,2.0,4.998,0.0,0.0,1.525,1.388,0.0,27.6,0.0,0.0,0.0,,0.0,0.0,29.25,-4.75,-6.399999999999999,93.2,82.4,0.0,0.0,0.0,0.0,84.2,86.0,84.2,86.0,84.2,86.0,86.0,87.8,0.0,0.0,81.68,84.65,23.45,20.480000000000004,0.0034444444444444444,2.2769999999999997,0.0,413.6,2026-03-18 15:55:22-07:00
53.06,1.0,7.0,2026-03-18 22:56:15,37.08152,-121.59956,332.0,0.0,344.7,-12.6,0.0,,0.0,0.0,0.0,10.9,-0.5,3.9,0.0,189.0,0.0,-0.01,1.0,99.0,-63.0,34.0,0.0,30.06,2488.0,0.0,0.0,42.0,0.0,0.0,0.0,0.0,0.0,0.0,0.0,0.0,0.0,0.0,0.0,0.0,0.0,0.0,0.0,0.0,0.0,0.0,0.0,0.0,0.0,0.0,0.0,0.0,0.0,28.0,0.0,0.0,30.1,0.0,0.0,0.0,27.5,0.0,0.0,18.4,0.0,0.0,-0.2,6.8,5.3,0.0,0.0,0.0,0.0,29.0,30.0,29.0,30.0,29.0,30.0,30.0,31.0,0.0,0.0,12.0,15.3,0.0,27.5,2.0,4.998,0.0,0.0,1.525,1.388,0.0,27.6,0.0,0.0,0.0,,0.0,0.0,29.25,-4.75,-6.399999999999999,93.2,82.4,0.0,0.0,0.0,0.0,84.2,86.0,84.2,86.0,84.2,86.0,86.0,87.8,0.0,0.0,81.68,84.65,23.45,20.480000000000004,0.0034444444444444444,2.361333333333333,0.0,413.6,2026-03-18 15:55:22-07:00
54.06,1.0,7.0,2026-03-18 22:56:16,37.08152,-121.59956,332.0,0.0,344.7,-12.6,0.0,,0.0,0.0,0.0,10.9,-0.5,3.9,0.0,188.0,-0.0,-0.01,1.0,99.0,-61.0,34.0,0.0,30.06,2488.0,0.0,0.0,42.0,0.0,0.0,0.0,0.0,0.0,0.0,0.0,0.0,0.0,0.0,0.0,0.0,0.0,0.0,0.0,0.0,0.0,0.0,0.0,0.0,0.0,0.0,0.0,0.0,0.0,28.0,0.0,0.0,30.1,0.0,0.0,0.0,27.4,0.0,0.0,18.4,0.0,0.0,-0.2,6.8,5.3,0.0,0.0,0.0,0.0,29.0,30.0,29.0,30.0,29.0,30.0,30.0,31.0,0.0,0.0,12.0,12.1,0.0,27.4,1.0,4.998,0.0,0.0,1.525,1.388,0.0,27.6,0.0,0.0,0.0,,0.0,0.0,29.25,-4.75,-6.399999999999999,93.2,82.4,0.0,0.0,0.0,0.0,84.2,86.0,84.2,86.0,84.2,86.0,86.0,87.8,0.0,0.0,81.68,84.65,23.45,20.480000000000004,0.0034444444444444444,2.361333333333333,0.0,413.6,2026-03-18 15:55:22-07:00
55.06,1.0,7.0,2026-03-18 22:56:17,37.08152,-121.59956,332.0,0.0,344.7,-12.6,0.0,,0.0,0.0,0.0,10.9,-0.5,3.9,0.0,187.0,0.0,-0.01,1.0,99.0,-58.0,34.0,0.0,30.06,2489.0,0.0,0.0,42.0,0.0,0.0,0.0,0.0,0.0,0.0,0.0,0.0,0.0,0.0,0.0,0.0,0.0,0.0,0.0,0.0,0.0,0.0,0.0,0.0,0.0,0.0,0.0,0.0,0.0,28.0,0.0,0.0,30.1,0.0,0.0,0.0,27.3,0.0,0.0,18.4,0.0,0.0,-0.2,6.8,5.3,0.0,0.0,0.0,0.0,29.0,30.0,29.0,30.0,29.0,30.0,30.0,31.0,0.0,0.0,12.0,9.6,0.0,27.3,2.0,4.998,0.0,0.0,1.525,1.388,0.0,27.5,0.0,0.0,0.0,,0.0,0.0,29.25,-4.75,-6.5,93.2,82.4,0.0,0.0,0.0,0.0,84.2,86.0,84.2,86.0,84.2,86.0,86.0,87.8,0.0,0.0,81.5,84.65,23.45,20.3,0.0034444444444444444,2.361333333333333,0.0,413.6,2026-03-18 15:55:22-07:00
56.06,1.0,7.0,2026-03-18 22:56:18,37.08152,-121.59956,332.0,0.0,344.7,-12.6,0.0,,0.0,0.0,0.0,10.9,-0.5,3.9,0.0,186.0,0.0,-0.01,1.0,99.0,-41.0,34.0,0.0,30.06,2489.0,0.0,0.0,42.0,0.0,0.0,0.0,0.0,0.0,0.0,0.0,0.0,0.0,0.0,0.0,0.0,0.0,0.0,0.0,0.0,0.0,0.0,0.0,0.0,0.0,0.0,0.0,0.0,0.0,28.0,0.0,0.0,30.1,0.0,0.0,0.0,27.2,0.0,0.0,18.4,0.0,0.0,-0.2,6.8,5.3,0.0,0.0,0.0,0.0,29.0,30.0,29.0,30.0,29.0,30.0,29.0,31.0,0.0,0.0,12.0,7.7,0.0,27.2,2.0,4.998,0.0,0.0,1.525,1.389,0.0,27.5,0.0,0.0,0.0,,0.0,0.0,29.0,-5.0,-6.5,93.2,82.4,0.0,0.0,0.0,0.0,84.2,86.0,84.2,86.0,84.2,86.0,84.2,87.8,0.0,0.0,81.5,84.2,23.0,20.3,0.0034444444444444444,2.361333333333333,0.0,413.6,2026-03-18 15:55:22-07:00
57.06,1.0,7.0,2026-03-18 22:56:19,37.08148,-121.59955,324.0,0.0,344.7,-12.6,0.0,,0.0,0.0,0.0,10.9,-0.6,3.9,0.0,185.0,0.0,-0.01,1.0,99.0,-52.0,34.0,0.0,30.06,2489.0,0.0,0.0,42.0,0.0,0.0,0.0,0.0,0.0,0.0,0.0,0.0,0.0,0.0,0.0,0.0,0.0,0.0,0.0,0.0,0.0,0.0,0.0,0.0,0.0,0.0,0.0,0.0,0.0,28.0,0.0,0.0,30.1,0.0,0.0,0.0,27.1,0.0,0.0,18.4,0.0,0.0,-0.2,6.8,5.3,0.0,0.0,0.0,0.0,29.0,30.0,29.0,30.0,29.0,30.0,30.0,31.0,0.0,0.0,12.0,6.2,0.0,27.1,2.0,4.998,0.0,0.0,1.525,1.389,0.0,27.5,0.0,0.0,0.0,,0.0,0.0,29.25,-4.75,-6.5,93.2,82.4,0.0,0.0,0.0,0.0,84.2,86.0,84.2,86.0,84.2,86.0,86.0,87.8,0.0,0.0,81.5,84.65,23.45,20.3,0.0034444444444444444,2.361333333333333,0.0,413.6,2026-03-18 15:55:22-07:00
58.06,1.0,7.0,2026-03-18 22:56:20,37.08148,-121.59955,324.0,0.0,344.7,-12.6,0.0,,0.0,0.0,0.0,10.9,-0.6,3.8,0.0,185.0,-0.0,-0.01,1.0,99.0,-50.0,34.0,0.0,30.06,2495.0,0.0,0.0,42.0,0.0,0.0,0.0,0.0,0.0,0.0,0.0,0.0,0.0,0.0,0.0,0.0,0.0,0.0,0.0,0.0,0.0,0.0,0.0,0.0,0.0,0.0,0.0,0.0,0.0,28.0,0.0,0.0,30.1,0.0,0.0,0.0,27.1,0.0,0.0,18.4,0.0,0.0,-0.2,6.8,5.3,0.0,0.0,0.0,0.0,29.0,30.0,29.0,30.0,29.0,30.0,30.0,31.0,0.0,0.0,12.0,5.0,0.0,27.1,2.0,4.998,0.0,0.0,1.525,1.389,0.0,27.5,0.0,0.0,0.0,,0.0,0.0,29.25,-4.75,-6.5,93.2,82.4,0.0,0.0,0.0,0.0,84.2,86.0,84.2,86.0,84.2,86.0,86.0,87.8,0.0,0.0,81.5,84.65,23.45,20.3,0.0034444444444444444,2.361333333333333,0.0,413.6,2026-03-18 15:55:22-07:00
59.06,1.0,7.0,2026-03-18 22:56:21,37.08148,-121.59955,324.0,0.0,344.7,-12.6,0.0,,0.0,0.0,0.0,10.9,-0.7,3.9,0.0,185.0,0.0,-0.01,1.0,99.0,-49.0,34.0,0.0,30.06,2496.0,0.0,0.0,42.0,0.0,0.0,0.0,0.0,0.0,0.0,0.0,0.0,0.0,0.0,0.0,0.0,0.0,0.0,0.0,0.0,0.0,0.0,0.0,0.0,0.0,0.0,0.0,0.0,0.0,23.0,124.0,124.0,30.1,0.0,0.0,0.0,27.1,0.0,0.0,18.4,0.0,0.0,-0.3,6.8,5.3,0.0,0.0,0.0,0.0,26.0,27.0,26.0,27.0,27.0,27.0,27.0,28.0,0.0,0.0,12.0,4.1,0.0,27.1,1.0,4.998,0.0,0.0,1.523,1.388,0.0,22.9,0.0,0.0,0.0,,0.0,124.0,26.5,-7.5,-11.100000000000001,93.2,73.4,0.0,0.0,0.0,0.0,78.8,80.6,78.8,80.6,80.6,80.6,80.6,82.4,0.0,0.0,73.22,79.7,18.5,12.02,0.0034444444444444444,2.361333333333333,0.0,413.6,2026-03-18 15:55:22-07:00
60.06,1.0,7.0,2026-03-18 22:56:22,37.08148,-121.59955,325.0,0.1,344.7,-12.6,0.0,,0.0,0.0,0.0,10.9,-0.7,3.9,0.0,184.0,0.0,-0.01,1.0,99.0,-30.0,34.0,0.0,30.06,2496.0,0.0,0.0,42.0,0.0,0.0,0.0,0.0,0.0,0.0,0.0,0.0,0.0,0.0,0.0,0.0,0.0,0.0,0.0,0.0,0.0,0.0,0.0,0.0,0.0,0.0,0.0,0.0,1.0,27.0,1117.0,1117.0,23.7,0.9,0.0,0.9,23.6,0.0,0.0,18.4,0.0,0.0,-0.2,6.8,5.3,0.0,0.0,0.0,0.0,29.0,68.0,29.0,59.0,29.0,61.0,29.0,58.0,0.0,0.0,12.0,3.4,0.0,23.6,-1.0,4.998,0.0,0.0,1.525,1.39,1.1,26.7,0.0,0.0,0.0,,0.0,1117.0,29.0,-5.0,-7.300000000000001,93.2,80.6,0.0,0.0,0.0,0.0,84.2,154.4,84.2,138.2,84.2,141.8,84.2,136.4,0.0,0.0,80.06,84.2,23.0,18.86,0.0035694444444444445,2.4456666666666664,0.11111111111111112,413.6,2026-03-18 15:55:22-07:00
61.06,1.0,8.0,2026-03-18 22:56:23,37.08164,-121.59961,390.0,0.1,344.7,-12.6,0.0,,0.0,0.0,0.0,10.9,-0.6,3.8,0.0,184.0,-0.0,-0.01,0.9,99.0,50.0,34.0,0.0,30.06,2496.0,0.0,0.0,42.0,0.0,0.0,0.0,0.0,0.0,0.0,0.0,0.0,0.0,0.0,0.0,0.0,0.0,0.0,0.0,0.0,0.0,0.0,0.0,0.0,0.0,0.0,0.0,0.0,7.0,28.0,1198.0,1198.0,17.3,1.5,0.0,1.5,24.2,0.0,0.0,18.4,0.0,0.0,-0.2,6.8,5.3,0.0,0.0,0.0,0.0,29.0,137.0,29.0,126.0,29.0,127.0,30.0,118.0,0.0,0.0,12.0,2.9,0.0,24.2,-1.0,4.998,0.0,0.0,1.473,1.19,6.8,27.6,0.0,0.0,0.0,,0.0,1198.0,29.25,-4.75,-6.399999999999999,93.2,82.4,0.0,0.0,0.0,0.0,84.2,278.6,84.2,258.8,84.2,260.6,86.0,244.4,0.0,0.0,81.68,84.65,23.45,20.480000000000004,0.003902777777777778,2.614333333333333,0.06666666666666667,413.6,2026-03-18 15:55:22-07:00
62.06,1.0,8.0,2026-03-18 22:56:24,37.08164,-121.5996,390.0,0.1,344.7,-12.6,0.0,,0.0,0.0,0.0,10.9,-0.6,3.8,0.0,184.0,-0.0,-0.01,1.0,99.0,28.0,34.0,0.0,30.06,2506.0,0.0,0.0,42.0,0.0,0.0,0.0,0.0,0.0,0.0,0.0,0.0,0.0,0.0,0.0,0.0,0.0,0.0,0.0,0.0,0.0,0.0,0.0,0.0,0.0,0.0,0.0,0.0,17.0,28.0,1011.0,1011.0,14.5,1.9,0.0,1.9,24.6,0.0,0.0,18.4,0.0,0.0,-0.2,6.8,5.3,0.0,0.0,0.0,0.0,29.0,195.0,30.0,178.0,30.0,183.0,31.0,171.0,0.0,0.0,12.0,2.4,0.0,24.6,5.0,4.998,0.0,0.0,1.519,1.425,16.6,27.6,0.0,0.0,0.0,,0.0,1011.0,30.0,-4.0,-6.399999999999999,93.2,82.4,0.0,0.0,0.0,0.0,84.2,383.0,86.0,352.4,86.0,361.4,87.8,339.8,0.0,0.0,81.68,86.0,24.8,20.480000000000004,0.004375,2.783,0.052631578947368425,413.6,2026-03-18 15:55:22-07:00
63.06,1.0,8.0,2026-03-18 22:56:25,37.08164,-121.5996,390.0,0.1,344.7,-12.6,0.0,,0.0,0.0,0.0,10.9,-0.5,3.9,0.0,184.0,0.0,-0.01,1.0,99.0,-5.0,34.0,0.0,30.06,2506.0,0.0,0.0,42.0,0.0,0.0,0.0,0.0,0.0,0.0,0.0,0.0,0.0,0.0,0.0,0.0,0.0,0.0,0.0,0.0,0.0,0.0,0.0,0.0,0.0,0.0,0.0,0.0,30.0,28.0,1003.0,1003.0,15.4,2.0,0.0,2.0,24.5,0.0,0.0,18.4,0.0,0.0,-0.2,6.8,5.3,0.0,0.0,0.0,0.0,30.0,230.0,30.0,210.0,30.0,186.0,31.0,206.0,0.0,0.0,12.0,2.1,0.0,24.5,4.0,4.998,0.0,0.0,1.525,1.387,29.6,27.5,0.0,0.0,0.0,,0.0,1003.0,30.25,-3.75,-6.5,93.2,82.4,0.0,0.0,0.0,0.0,86.0,446.0,86.0,410.0,86.0,366.8,87.8,402.8,0.0,0.0,81.5,86.45,25.25,20.3,0.004916666666666666,2.9516666666666667,0.05,413.6,2026-03-18 15:55:22-07:00
64.06,1.0,8.0,2026-03-18 22:56:26,37.08164,-121.5996,390.0,0.1,344.7,-12.6,0.0,,0.0,0.0,0.0,10.8,-0.5,3.9,0.0,184.0,0.0,-0.01,1.0,99.0,-4.0,34.0,0.0,30.06,2518.0,0.0,0.0,42.0,0.0,0.0,0.0,0.0,0.0,0.0,0.0,0.0,0.0,0.0,0.0,0.0,0.0,0.0,0.0,0.0,0.0,0.0,0.0,0.0,0.0,0.0,0.0,0.0,47.0,27.0,1001.0,1001.0,14.7,2.2,0.0,2.2,24.7,0.0,0.0,18.4,0.0,0.0,-0.2,6.8,5.3,0.0,0.0,0.0,0.0,30.0,261.0,30.0,245.0,30.0,229.0,32.0,239.0,0.0,0.0,12.0,1.9,0.0,24.7,-1.0,4.998,0.0,0.0,1.525,1.389,46.9,27.5,0.0,0.0,0.0,,0.0,1001.0,30.5,-3.5,-6.5,93.2,80.6,0.0,0.0,0.0,0.0,86.0,501.8,86.0,473.0,86.0,444.2,89.6,462.2,0.0,0.0,81.5,86.9,25.7,20.3,0.0055000000000000005,3.120333333333333,0.045454545454545456,413.6,2026-03-18 15:55:22-07:00
65.06,1.0,8.0,2026-03-18 22:56:27,37.08164,-121.5996,390.0,0.0,344.7,-12.6,0.0,,0.0,0.0,0.0,10.8,-0.6,3.9,0.0,184.0,-0.0,-0.01,1.0,99.0,-17.0,34.0,0.0,30.06,2518.0,0.0,0.0,42.0,0.0,0.0,0.0,0.0,0.0,0.0,0.0,0.0,0.0,0.0,0.0,0.0,0.0,0.0,0.0,0.0,0.0,0.0,0.0,0.0,0.0,0.0,0.0,0.0,61.0,27.0,998.0,998.0,14.5,2.3,0.0,2.3,24.8,0.0,0.0,18.4,0.0,0.0,-0.2,6.8,5.3,0.0,0.0,0.0,0.0,31.0,288.0,31.0,274.0,31.0,262.0,32.0,270.0,0.0,0.0,12.0,1.7,0.0,24.8,0.0,4.998,0.0,0.0,1.525,1.392,61.1,27.5,0.0,0.0,0.0,,0.0,998.0,31.25,-2.75,-6.5,93.2,80.6,0.0,0.0,0.0,0.0,87.8,550.4,87.8,525.2,87.8,503.6,89.6,518.0,0.0,0.0,81.5,88.25,27.05,20.3,0.006125,3.2046666666666663,0.0,413.6,2026-03-18 15:55:22-07:00
66.06,1.0,8.0,2026-03-18 22:56:28,37.08164,-121.5996,390.0,0.0,344.7,-12.6,0.0,,0.0,0.0,0.0,10.9,-0.6,3.9,0.0,184.0,-0.0,-0.01,0.9,99.0,-18.0,34.0,0.0,30.06,2529.0,0.0,0.0,42.0,0.0,0.0,0.0,0.0,0.0,0.0,0.0,0.0,0.0,0.0,0.0,0.0,0.0,0.0,0.0,0.0,0.0,0.0,0.0,0.0,0.0,0.0,0.0,0.0,67.0,27.0,970.0,970.0,14.5,2.3,0.0,2.3,24.9,0.0,0.0,18.4,0.0,0.0,-0.2,6.8,5.3,0.0,0.0,0.0,0.0,31.0,313.0,31.0,302.0,31.0,288.0,32.0,297.0,0.0,0.0,12.0,1.5,0.0,24.9,3.0,4.998,0.0,0.0,1.525,1.389,67.2,27.4,0.0,0.0,0.0,,0.0,970.0,31.25,-2.75,-6.600000000000001,93.2,80.6,0.0,0.0,0.0,0.0,87.8,595.4,87.8,575.6,87.8,550.4,89.6,566.6,0.0,0.0,81.32,88.25,27.05,20.119999999999997,0.006763888888888889,3.2046666666666663,0.0,413.6,2026-03-18 15:55:22-07:00
67.06,1.0,8.0,2026-03-18 22:56:29,37.08164,-121.5996,390.0,0.0,344.7,-12.6,0.0,,0.0,0.0,0.0,10.9,-0.6,3.9,0.0,184.0,0.0,-0.01,1.0,99.0,-12.0,34.0,0.0,30.06,2529.0,0.0,0.0,42.0,0.0,0.0,0.0,0.0,0.0,0.0,0.0,0.0,0.0,0.0,0.0,0.0,0.0,0.0,0.0,0.0,0.0,0.0,0.0,0.0,0.0,0.0,0.0,0.0,69.0,29.0,952.0,952.0,14.6,2.3,0.0,2.3,25.1,0.0,0.0,18.4,0.0,0.0,6.6,6.8,5.3,0.0,0.0,0.0,0.0,32.0,335.0,32.0,329.0,32.0,313.0,34.0,321.0,0.0,0.0,12.0,1.4,0.0,25.1,-1.0,4.998,0.0,0.0,1.525,1.39,69.0,28.8,0.0,0.0,0.0,,0.0,952.0,32.5,-1.5,-5.199999999999999,93.2,84.2,0.0,0.0,0.0,0.0,89.6,635.0,89.6,624.2,89.6,595.4,93.2,609.8,0.0,0.0,83.84,90.5,29.3,22.64,0.007402777777777778,3.2046666666666663,0.0,413.6,2026-03-18 15:55:22-07:00
68.06,1.0,8.0,2026-03-18 22:56:30,37.08164,-121.59959,390.0,0.0,344.7,-12.6,0.0,,0.0,0.0,0.0,10.9,-0.6,3.9,0.0,184.0,-0.0,-0.01,1.0,99.0,-4.0,35.0,0.0,30.06,2540.0,0.0,0.0,42.0,0.0,0.0,0.0,0.0,0.0,0.0,0.0,0.0,0.0,0.0,0.0,0.0,0.0,0.0,0.0,0.0,0.0,0.0,0.0,0.0,0.0,0.0,0.0,0.0,68.0,29.0,910.0,910.0,15.2,2.4,0.0,2.4,25.2,0.0,0.0,18.4,0.0,0.0,28.5,6.8,5.3,0.0,0.0,0.0,0.0,32.0,353.0,32.0,351.0,32.0,332.0,34.0,340.0,0.0,0.0,12.0,1.3,0.0,25.2,3.0,4.998,0.0,0.0,1.525,1.392,68.2,28.8,0.0,0.0,0.0,,0.0,910.0,32.5,-2.5,-6.199999999999999,95.0,84.2,0.0,0.0,0.0,0.0,89.6,667.4,89.6,663.8,89.6,629.6,93.2,644.0,0.0,0.0,83.84,90.5,27.5,20.84,0.008055555555555555,3.2046666666666663,0.0,413.6,2026-03-18 15:55:22-07:00
69.06,1.0,8.0,2026-03-18 22:56:31,37.08164,-121.59959,390.0,0.0,344.7,-12.6,0.0,,0.0,0.0,0.0,10.9,-0.7,3.9,0.0,184.0,0.0,-0.01,1.0,99.0,34.0,35.0,0.0,30.06,2540.0,0.0,0.0,42.0,0.0,0.0,0.0,0.0,0.0,0.0,0.0,0.0,0.0,0.0,0.0,0.0,0.0,0.0,0.0,0.0,0.0,0.0,0.0,0.0,0.0,0.0,0.0,0.0,68.0,29.0,905.0,905.0,15.6,2.4,0.0,2.4,25.3,0.0,0.0,18.4,0.0,0.0,40.8,6.8,5.3,0.0,0.0,0.0,0.0,33.0,369.0,32.0,369.0,33.0,350.0,35.0,355.0,0.0,0.0,12.0,1.2,0.0,25.3,-1.0,4.998,0.0,0.0,1.525,1.39,67.6,28.8,0.0,0.0,0.0,,0.0,905.0,33.25,-1.75,-6.199999999999999,95.0,84.2,0.0,0.0,0.0,0.0,91.4,696.2,89.6,696.2,91.4,662.0,95.0,671.0,0.0,0.0,83.84,91.85,28.85,20.84,0.008722222222222221,3.2046666666666663,0.0,413.6,2026-03-18 15:55:22-07:00
70.06,1.0,8.0,2026-03-18 22:56:32,37.08164,-121.59959,390.0,0.0,344.7,-12.6,0.0,,0.0,0.0,0.0,10.9,-0.7,3.8,0.0,184.0,0.0,-0.01,1.0,99.0,35.0,35.0,0.0,30.06,2552.0,0.0,0.0,42.0,0.0,0.0,0.0,0.0,0.0,0.0,0.0,0.0,0.0,0.0,0.0,0.0,-8.0,0.0,0.0,53.0,0.0,0.0,0.0,0.0,0.0,0.0,0.0,0.0,67.0,29.0,886.0,886.0,16.1,2.4,0.0,2.4,25.3,0.0,0.0,18.4,0.0,0.0,47.6,6.8,5.3,0.0,0.0,0.0,0.0,33.0,386.0,33.0,386.0,33.0,366.0,35.0,371.0,0.0,0.0,12.0,1.2,0.0,25.3,0.0,4.998,0.0,0.0,1.525,1.39,66.9,28.7,0.0,0.0,0.0,,0.0,886.0,33.5,-1.5,-6.300000000000001,95.0,84.2,0.0,0.0,0.0,0.0,91.4,726.8,91.4,726.8,91.4,690.8,95.0,699.8,0.0,0.0,83.66,92.3,29.3,20.66,0.00938888888888889,3.2046666666666663,0.0,413.6,2026-03-18 15:55:22-07:00
71.06,1.0,8.0,2026-03-18 22:56:33,37.08164,-121.59959,390.0,0.0,344.7,-12.6,0.0,,0.0,0.0,0.0,10.9,-0.6,3.8,0.0,184.0,-0.0,-0.01,1.0,99.0,63.0,35.0,0.0,30.06,2552.0,0.0,0.0,42.0,0.0,0.0,0.0,0.0,0.0,0.0,0.0,0.0,0.0,0.0,0.0,0.0,-4.0,0.0,0.0,27.0,0.0,0.0,0.0,0.0,0.0,0.0,0.0,0.0,67.0,29.0,887.0,887.0,16.3,2.4,0.0,2.4,25.4,0.0,0.0,18.4,0.0,0.0,51.4,6.8,5.3,0.0,0.0,0.0,0.0,34.0,401.0,34.0,401.0,34.0,379.0,36.0,384.0,0.0,0.0,12.0,1.1,0.0,25.4,-1.0,4.998,0.0,0.0,1.525,1.39,66.6,28.7,0.0,0.0,0.0,,0.0,887.0,34.5,-0.5,-6.300000000000001,95.0,84.2,0.0,0.0,0.0,0.0,93.2,753.8,93.2,753.8,93.2,714.2,96.8,723.2,0.0,0.0,83.66,94.1,31.1,20.66,0.010055555555555555,3.2046666666666663,0.0,413.6,2026-03-18 15:55:22-07:00
72.06,1.0,8.0,2026-03-18 22:56:34,37.08164,-121.59959,389.0,0.0,344.7,-12.6,0.0,,0.0,0.0,0.0,10.9,-0.6,3.8,0.0,184.0,-0.0,-0.01,1.0,99.0,56.0,35.0,0.0,30.06,2563.0,0.0,0.0,42.0,0.0,0.0,0.0,0.0,0.0,0.0,0.0,0.0,0.0,0.0,0.0,0.0,-2.0,0.0,0.0,18.0,0.0,0.0,0.0,0.0,0.0,0.0,0.0,0.0,67.0,29.0,886.0,886.0,16.2,2.4,0.0,2.4,25.5,0.0,0.0,18.4,0.0,0.0,54.0,6.8,5.3,0.0,0.0,0.0,0.0,34.0,414.0,34.0,414.0,34.0,392.0,36.0,398.0,0.0,0.0,12.0,1.1,0.0,25.5,0.0,4.998,0.0,0.0,1.525,1.39,66.7,28.7,0.0,0.0,0.0,,0.0,886.0,34.5,-0.5,-6.300000000000001,95.0,84.2,0.0,0.0,0.0,0.0,93.2,777.2,93.2,777.2,93.2,737.6,96.8,748.4,0.0,0.0,83.66,94.1,31.1,20.66,0.010722222222222222,3.2046666666666663,0.0,413.6,2026-03-18 15:55:22-07:00
73.06,1.0,8.0,2026-03-18 22:56:35,37.08164,-121.59959,389.0,0.1,344.7,-12.6,0.0,,0.0,0.0,0.0,10.8,-0.5,3.8,0.0,184.0,-0.0,-0.01,1.0,99.0,5.0,35.0,0.0,30.06,2563.0,0.0,0.0,42.0,0.0,0.0,0.0,0.0,0.0,0.0,0.0,0.0,0.0,0.0,0.0,0.0,0.0,0.0,0.0,13.0,0.0,0.0,0.0,0.0,3.0,0.0,0.0,1200.0,67.0,29.0,917.0,917.0,16.1,2.4,0.0,2.4,25.6,0.0,0.0,18.4,0.0,0.0,55.6,6.8,5.3,0.0,0.0,0.0,0.0,35.0,426.0,35.0,425.0,35.0,403.0,36.0,410.0,0.0,0.0,12.0,1.1,0.0,25.6,0.0,4.998,0.0,0.0,1.525,1.389,67.0,28.7,0.0,0.0,0.0,,0.0,917.0,35.25,0.25,-6.300000000000001,95.0,84.2,0.0,0.0,0.0,0.0,95.0,798.8,95.0,797.0,95.0,757.4,96.8,770.0,0.0,0.0,83.66,95.45,32.45,20.66,0.01138888888888889,3.2889999999999997,0.04166666666666667,413.6,2026-03-18 15:55:22-07:00
74.06,1.0,8.0,2026-03-18 22:56:36,37.08164,-121.59959,389.0,0.0,344.7,-12.6,0.0,,0.0,0.0,0.0,10.9,-0.6,3.8,0.0,184.0,-0.0,-0.01,1.0,99.0,35.0,35.0,0.0,30.06,2575.0,0.0,0.0,42.0,0.0,0.0,0.0,0.0,0.0,0.0,0.0,0.0,0.0,0.0,0.0,0.0,-9.0,0.0,0.0,0.0,0.0,0.0,0.0,0.0,1.0,0.0,0.0,1200.0,67.0,28.0,889.0,889.0,16.1,2.4,0.0,2.4,25.6,0.0,0.0,18.4,0.0,0.0,54.2,6.8,5.3,0.0,0.0,0.0,0.0,35.0,436.0,35.0,437.0,35.0,413.0,37.0,420.0,0.0,0.0,12.0,1.0,0.0,25.6,0.0,4.998,0.0,0.0,1.525,1.39,66.9,28.5,0.0,0.0,0.0,,0.0,889.0,35.5,0.5,-6.5,95.0,82.4,0.0,0.0,0.0,0.0,95.0,816.8,95.0,818.6,95.0,775.4,98.6,788.0,0.0,0.0,83.3,95.9,32.9,20.3,0.012055555555555555,3.373333333333333,0.0,413.6,2026-03-18 15:55:22-07:00
75.06,1.0,8.0,2026-03-18 22:56:37,37.08164,-121.59959,391.0,0.0,344.7,-12.6,0.0,,0.0,0.0,0.0,10.8,-0.5,3.9,0.0,184.0,0.0,-0.01,1.0,99.0,29.0,35.0,0.0,30.06,2575.0,0.0,0.0,42.0,0.0,0.0,0.0,0.0,0.0,0.0,0.0,0.0,0.0,0.0,0.0,0.0,-4.0,0.0,0.0,10.0,0.0,0.0,0.0,0.0,1.0,0.0,0.0,1200.0,67.0,28.0,936.0,936.0,15.9,2.4,0.0,2.4,25.7,0.0,0.0,18.4,0.0,0.0,48.2,6.8,5.3,0.0,0.0,0.0,0.0,35.0,446.0,35.0,446.0,35.0,421.0,37.0,429.0,0.0,0.0,12.0,1.0,0.0,25.7,0.0,4.998,0.0,0.0,1.525,1.39,67.4,28.3,0.0,0.0,0.0,,0.0,936.0,35.5,0.5,-6.699999999999999,95.0,82.4,0.0,0.0,0.0,0.0,95.0,834.8,95.0,834.8,95.0,789.8,98.6,804.2,0.0,0.0,82.94,95.9,32.9,19.94,0.012722222222222222,3.373333333333333,0.0,413.6,2026-03-18 15:55:22-07:00
76.06,1.0,8.0,2026-03-18 22:56:38,37.08164,-121.59959,390.0,0.0,344.7,-12.6,0.0,,0.0,0.0,0.0,10.8,-0.5,3.9,0.0,184.0,0.0,-0.01,1.0,99.0,-28.0,35.0,0.0,30.06,2586.0,0.0,0.0,42.0,0.0,0.0,0.0,0.0,0.0,0.0,0.0,0.0,0.0,0.0,0.0,0.0,-3.0,0.0,0.0,9.0,0.0,0.0,0.0,0.0,0.0,0.0,0.0,0.0,68.0,28.0,943.0,943.0,15.7,2.4,0.0,2.4,25.7,0.0,0.0,18.4,0.0,0.0,41.6,6.8,5.3,0.0,0.0,0.0,0.0,35.0,455.0,35.0,455.0,35.0,429.0,38.0,438.0,0.0,0.0,12.0,1.0,0.0,25.7,0.0,4.998,0.0,0.0,1.525,1.39,67.8,28.1,0.0,0.0,0.0,,0.0,943.0,35.75,0.75,-6.899999999999999,95.0,82.4,0.0,0.0,0.0,0.0,95.0,851.0,95.0,851.0,95.0,804.2,100.4,820.4,0.0,0.0,82.58,96.35,33.35,19.580000000000002,0.01338888888888889,3.373333333333333,0.0,413.6,2026-03-18 15:55:22-07:00
77.06,1.0,8.0,2026-03-18 22:56:39,37.08164,-121.59959,390.0,0.1,344.7,-12.6,0.0,,0.0,0.0,0.0,10.9,-0.6,3.9,0.0,184.0,-0.0,-0.01,1.0,99.0,-6.0,35.0,0.0,30.06,2586.0,0.0,0.0,42.0,0.0,0.0,0.0,0.0,0.0,0.0,0.0,0.0,0.0,0.0,0.0,0.0,-2.0,0.0,0.0,4.0,0.0,0.0,0.0,0.0,0.0,0.0,0.0,0.0,68.0,28.0,961.0,961.0,15.3,2.4,0.0,2.4,25.8,0.0,0.0,18.4,0.0,0.0,35.4,6.8,5.3,0.0,0.0,0.0,0.0,36.0,463.0,36.0,465.0,36.0,436.0,38.0,446.0,0.0,0.0,12.0,1.0,0.0,25.8,0.0,4.998,0.0,0.0,1.525,1.39,68.3,28.0,0.0,0.0,0.0,,0.0,961.0,36.5,1.5,-7.0,95.0,82.4,0.0,0.0,0.0,0.0,96.8,865.4,96.8,869.0,96.8,816.8,100.4,834.8,0.0,0.0,82.4,97.7,34.7,19.4,0.014055555555555556,3.4576666666666664,0.04166666666666667,413.6,2026-03-18 15:55:22-07:00
78.06,1.0,8.0,2026-03-18 22:56:40,37.08164,-121.59959,389.0,0.0,344.7,-12.6,0.0,,0.0,0.0,0.0,10.9,-0.6,3.9,0.0,184.0,0.0,-0.01,1.0,99.0,18.0,35.0,0.0,30.06,2586.0,0.0,0.0,42.0,0.0,0.0,0.0,0.0,0.0,0.0,0.0,0.0,0.0,0.0,0.0,0.0,-1.0,0.0,0.0,1.0,0.0,0.0,0.0,0.0,0.0,0.0,0.0,0.0,68.0,28.0,958.0,958.0,15.3,2.4,0.0,2.4,25.8,0.0,0.0,18.4,0.0,0.0,30.1,6.8,5.3,0.0,0.0,0.0,0.0,36.0,470.0,36.0,473.0,36.0,444.0,39.0,453.0,0.0,0.0,12.0,1.0,0.0,25.8,0.0,4.998,0.0,0.0,1.525,1.389,68.4,27.9,0.0,0.0,0.0,,0.0,958.0,36.75,1.75,-7.100000000000001,95.0,82.4,0.0,0.0,0.0,0.0,96.8,878.0,96.8,883.4,96.8,831.2,102.2,847.4,0.0,0.0,82.22,98.15,35.15,19.22,0.014722222222222222,3.542,0.0,413.6,2026-03-18 15:55:22-07:00
79.06,1.0,8.0,2026-03-18 22:56:41,37.08164,-121.59959,389.0,0.0,344.7,-12.6,0.0,,0.0,0.0,0.0,10.9,-0.5,4.0,0.0,184.0,0.0,-0.01,1.0,99.0,-20.0,35.0,0.0,30.06,2598.0,0.0,0.0,42.0,0.0,0.0,0.0,0.0,0.0,0.0,0.0,0.0,0.0,0.0,0.0,0.0,0.0,0.0,0.0,0.0,0.0,0.0,0.0,0.0,0.0,0.0,0.0,0.0,69.0,28.0,949.0,949.0,15.1,2.4,0.0,2.4,25.9,0.0,0.0,18.4,0.0,0.0,25.7,6.8,5.3,0.0,0.0,0.0,0.0,36.0,476.0,36.0,480.0,37.0,450.0,39.0,460.0,0.0,0.0,12.0,1.0,0.0,25.9,0.0,4.998,0.0,0.0,1.525,1.39,68.6,27.9,0.0,0.0,0.0,,0.0,949.0,37.0,2.0,-7.100000000000001,95.0,82.4,0.0,0.0,0.0,0.0,96.8,888.8,96.8,896.0,98.6,842.0,102.2,860.0,0.0,0.0,82.22,98.6,35.6,19.22,0.01538888888888889,3.542,0.0,413.6,2026-03-18 15:55:22-07:00
80.06,1.0,8.0,2026-03-18 22:56:42,37.08164,-121.59959,388.0,0.0,344.7,-12.6,0.0,,0.0,0.0,0.0,10.9,-0.6,3.9,0.0,184.0,0.0,-0.01,1.0,99.0,17.0,35.0,0.0,30.06,2598.0,0.0,0.0,42.0,0.0,0.0,0.0,0.0,0.0,0.0,0.0,0.0,0.0,0.0,0.0,0.0,1.0,0.0,0.0,-1.0,0.0,0.0,0.0,0.0,0.0,0.0,0.0,0.0,68.0,28.0,947.0,947.0,15.0,2.4,0.0,2.4,25.9,0.0,0.0,18.4,0.0,0.0,22.4,6.8,5.3,0.0,0.0,0.0,0.0,37.0,482.0,37.0,487.0,37.0,456.0,40.0,467.0,0.0,0.0,12.0,1.0,0.0,25.9,0.0,4.998,0.0,0.0,1.525,1.389,68.4,27.8,0.0,0.0,0.0,,0.0,947.0,37.75,2.75,-7.199999999999999,95.0,82.4,0.0,0.0,0.0,0.0,98.6,899.6,98.6,908.6,98.6,852.8,104.0,872.6,0.0,0.0,82.04,99.95,36.95,19.04,0.016055555555555556,3.542,0.0,413.6,2026-03-18 15:55:22-07:00
81.06,1.0,8.0,2026-03-18 22:56:43,37.08163,-121.59959,388.0,0.0,344.7,-12.6,0.0,,0.0,0.0,0.0,10.9,-0.6,4.0,0.0,184.0,0.0,-0.01,1.0,99.0,-2.0,35.0,0.0,30.06,2598.0,0.0,0.0,42.0,0.0,0.0,0.0,0.0,0.0,0.0,0.0,0.0,0.0,0.0,0.0,0.0,1.0,0.0,0.0,-2.0,0.0,0.0,0.0,0.0,0.0,0.0,0.0,0.0,69.0,28.0,1027.0,1027.0,15.0,2.3,0.0,2.3,26.1,0.0,0.0,18.4,0.0,0.0,19.8,6.8,5.3,0.0,0.0,0.0,0.0,37.0,488.0,37.0,493.0,37.0,462.0,40.0,474.0,0.0,0.0,12.0,1.0,0.0,26.1,0.0,4.998,0.0,0.0,1.525,1.39,69.0,27.8,0.0,0.0,0.0,,0.0,1027.0,37.75,2.75,-7.199999999999999,95.0,82.4,0.0,0.0,0.0,0.0,98.6,910.4,98.6,919.4,98.6,863.6,104.0,885.2,0.0,0.0,82.04,99.95,36.95,19.04,0.016708333333333332,3.542,0.0,413.6,2026-03-18 15:55:22-07:00
82.06,1.0,8.0,2026-03-18 22:56:44,37.08163,-121.59959,387.0,0.0,344.7,-12.6,0.0,,0.0,0.0,0.0,10.9,-0.6,3.9,0.0,184.0,-0.0,-0.02,1.0,99.0,15.0,35.0,0.0,30.06,2609.0,0.0,0.0,42.0,0.0,0.0,0.0,0.0,0.0,0.0,0.0,0.0,0.0,0.0,0.0,0.0,1.0,0.0,0.0,-2.0,0.0,0.0,0.0,0.0,0.0,0.0,0.0,0.0,71.0,28.0,1047.0,1047.0,13.7,2.2,0.0,2.2,26.2,0.0,0.0,18.4,0.0,0.0,17.6,6.8,5.3,0.0,0.0,0.0,0.0,37.0,494.0,37.0,497.0,38.0,471.0,41.0,482.0,0.0,0.0,12.0,1.0,0.0,26.2,0.0,4.998,0.0,0.0,1.525,1.389,71.1,27.7,0.0,0.0,0.0,,0.0,1047.0,38.25,3.25,-7.300000000000001,95.0,82.4,0.0,0.0,0.0,0.0,98.6,921.2,98.6,926.6,100.4,879.8,105.8,899.6,0.0,0.0,81.86,100.85,37.85,18.86,0.017333333333333333,3.542,0.0,413.6,2026-03-18 15:55:22-07:00
