Session Time,GPS Fix Quality,Number of Satellites,GPS Date & Time,Latitude (deg),Longitude (deg),GPS Altitude (feet),Ground Speed (knots),Ground Track (deg),Mag Var (deg),Cross Track Error (NM),Destination Waypoint ID,Range to Destination (NM),Bearing to Destination (deg),System Time,Pitch (deg),Roll (deg),Magnetic Heading (deg),Indicated Airspeed (knots),Pressure Altitude (ft),Turn Rate (deg/s),Lateral Accel (g),Vertical Accel(g),Angle of Attack (%),Vertical Speed (ft/min),OAT (deg C),True Airspeed (knots),Barometer Setting (inHg),Density Altitude (ft),Wind Direction (deg),Wind Speed (knots),Heading Bug (deg),Altitude Bug (ft),Airspeed Bug (knots),Vertical Speed Bug (ft/min),Course (deg),CDI Source Type,CDI Source Port,CDI Scale (NM),CDI Deflection (%),Glideslope (%),AP Engaged,AP Roll Mode,AP Roll Force,AP Roll Position (steps),AP Roll Slip (bool),AP Pitch Force,AP Pitch Position (steps),AP Pitch Slip (bool),AP Yaw Force,AP Yaw Position,AP Yaw Slip (bool),Transponder Status,Transponder Reply (bool),Transponder Identing (bool),Transponder Code (octal),Oil Pressure (PSI),Oil Temp (deg C),RPM L,RPM R,Manifold Pressure (inHg),Fuel Flow 1 (gal/hr),Fuel Flow 2 (gal/hr),Total Fuel Flow (gal/hr),Fuel Pressure (PSI),Fuel Level L (gal),Fuel Level R (gal),Fuel Remaining (gal),Volts 1,Volts 2,Amps,Hobbs Time,Tach Time,Thermocouple 1 (deg C),Thermocouple 2 (deg C),Thermocouple 3 (deg C),Thermocouple 4 (deg C),CHT 4 (deg C),EGT 4 (deg C),CHT 3 (deg C),EGT 3 (deg C),CHT 2 (deg C),EGT 2 (deg C),CHT 1 (deg C),EGT 1 (deg C),Thermocouple 13 (deg C),Thermocouple 14 (deg C),ELEV POSITION (%),CO PPM PRESSURE (PSI),GP Input 3,FUEL PRESSURE (PSI),AILERN POSITION (%),CANOPY CONTACT (V),GP Input 7,GP Input 8,LEFT LEVEL (Sensor V),RIGHT LEVEL (Sensor V),OIL PRESSURE (PSI),OIL TEMPERATURE (deg C),GP Input 13,Contacts,Percent Power,EGT Leaning State,Unnamed: 103,RPM,Flight ID
5.06,0.0,0.0,2026-03-21 23:01:08,37.08154,-121.59951,,0.0,44.3,-17.1,,,,,23:01:08,10.6,-0.9,10.1,0.0,271.0,0.0,-0.01,1.0,99.0,-90.0,30.0,0.0,30.01,2147.0,,,153.0,,,,,0.0,0.0,,,,,,,,,,,,,,,,,,,0.0,26.0,0.0,0.0,30.1,0.0,,0.0,0.2,,,39.3,0.0,0.0,0.1,7.6,5.9,,,,,27.0,28.0,27.0,28.0,28.0,28.0,28.0,28.0,,,7.0,254.3,,0.2,17.0,4.998,,,0.653,0.719,0.0,26.4,,,,,,0.0,2026-03-21 16:01:08-07:00
6.06,1.0,9.0,2026-03-21 23:01:09,37.08162,-121.59949,364.0,0.0,44.3,-12.6,,,,,23:01:08,10.6,-0.9,10.1,0.0,269.0,0.0,-0.01,1.0,99.0,-109.0,30.0,0.0,30.01,2147.0,,,153.0,,,,,0.0,0.0,,,,,,,,,,,,,,,,,,,0.0,26.0,0.0,0.0,30.1,0.0,,0.0,0.2,,,39.3,0.0,0.0,0.1,7.6,5.9,,,,,27.0,28.0,28.0,28.0,28.0,28.0,28.0,28.0,,,7.0,254.3,,0.2,17.0,4.998,,,0.653,0.719,0.0,26.4,,,,,,0.0,2026-03-21 16:01:08-07:00
7.06,1.0,9.0,2026-03-21 23:01:10,37.08162,-121.59949,364.0,0.0,44.3,-12.6,,,,,23:01:09,10.6,-0.9,10.1,0.0,267.0,0.0,-0.02,1.0,99.0,-111.0,30.0,0.0,30.01,2138.0,,,153.0,,,,,0.0,0.0,,,,,,,,,,,,,,,,,,,0.0,26.0,0.0,0.0,30.1,0.0,,0.0,0.2,,,39.3,0.0,0.0,0.1,7.6,5.9,,,,,27.0,28.0,27.0,28.0,28.0,28.0,28.0,28.0,,,7.0,254.3,,0.2,17.0,4.998,,,0.653,0.719,0.0,26.3,,,,,,0.0,2026-03-21 16:01:08-07:00
8.06,1.0,9.0,2026-03-21 23:01:11,37.08162,-121.59949,364.0,0.0,44.3,-12.6,,,,,23:01:10,10.6,-0.9,10.1,0.0,266.0,0.0,-0.02,1.0,99.0,-102.0,30.0,0.0,30.01,2138.0,,,153.0,,,,,0.0,0.0,,,,,,,,,,,,,,,,,,,0.0,26.0,0.0,0.0,30.1,0.0,,0.0,0.2,,,39.3,0.0,0.0,0.1,7.6,5.9,,,,,27.0,28.0,28.0,28.0,28.0,28.0,28.0,28.0,,,7.0,254.3,,0.2,17.0,4.998,,,0.653,0.719,0.0,26.3,,,,,,0.0,2026-03-21 16:01:08-07:00
9.06,1.0,10.0,2026-03-21 23:01:12,37.08159,-121.59953,357.0,0.0,44.3,-12.6,,,,,23:01:11,10.6,-0.9,10.1,0.0,263.0,0.0,-0.01,1.0,99.0,-125.0,30.0,0.0,30.01,2138.0,,,153.0,,,,,0.0,0.0,,,,,,,,,,,,,,,,,,,0.0,26.0,0.0,0.0,30.1,0.0,,0.0,0.2,,,39.3,0.0,0.0,0.1,7.6,5.9,,,,,27.0,28.0,27.0,28.0,28.0,28.0,28.0,28.0,,,7.0,254.3,,0.2,17.0,4.998,,,0.653,0.719,0.0,26.3,,,,,,0.0,2026-03-21 16:01:08-07:00
10.06,1.0,10.0,2026-03-21 23:01:13,37.08159,-121.59953,357.0,0.0,44.3,-12.6,,,,,23:01:12,10.6,-0.8,10.1,0.0,261.0,0.0,-0.02,1.0,99.0,-138.0,30.0,0.0,30.01,2139.0,,,153.0,,,,,0.0,0.0,,,,,,,,,,,,,,,,,,,0.0,26.0,0.0,0.0,30.1,0.0,,0.0,0.2,,,39.3,0.0,0.0,0.1,7.6,5.9,,,,,27.0,28.0,27.0,28.0,28.0,28.0,28.0,28.0,,,7.0,254.3,,0.2,17.0,4.998,,,0.653,0.718,0.0,26.3,,,,,,0.0,2026-03-21 16:01:08-07:00
11.06,1.0,10.0,2026-03-21 23:01:14,37.08159,-121.59953,356.0,0.0,44.3,-12.6,,,,,23:01:13,10.6,-0.9,10.1,0.0,258.0,0.0,-0.02,1.0,99.0,-121.0,30.0,0.0,30.01,2139.0,,,153.0,,,,,0.0,0.0,,,,,,,,,,,,,,,,,,,0.0,26.0,0.0,0.0,30.1,0.0,,0.0,0.2,,,39.3,0.0,0.0,0.1,7.6,5.9,,,,,27.0,28.0,27.0,28.0,28.0,28.0,28.0,28.0,,,7.0,254.2,,0.2,17.0,4.998,,,0.654,0.719,0.0,26.2,,,,,,0.0,2026-03-21 16:01:08-07:00
12.06,1.0,10.0,2026-03-21 23:01:15,37.08159,-121.59953,356.0,0.0,44.3,-12.6,,,,,23:01:14,10.6,-0.9,10.0,0.0,256.0,-0.0,-0.02,1.0,99.0,-136.0,30.0,0.0,30.01,2135.0,,,153.0,,,,,0.0,0.0,,,,,,,,,,,,,,,,,,,0.0,26.0,0.0,0.0,30.1,0.0,,0.0,0.2,,,39.3,0.0,0.0,0.1,7.6,5.9,,,,,27.0,28.0,27.0,28.0,28.0,28.0,28.0,28.0,,,7.0,254.2,,0.2,17.0,4.998,,,0.654,0.719,0.0,26.2,,,,,,0.0,2026-03-21 16:01:08-07:00
13.06,1.0,10.0,2026-03-21 23:01:16,37.0816,-121.59953,356.0,0.0,44.3,-12.6,,,,,23:01:15,10.6,-0.9,10.0,0.0,255.0,-0.0,-0.01,1.0,99.0,-109.0,30.0,0.0,30.01,2135.0,,,153.0,,,,,0.0,0.0,,,,,,,,,,,,,,,,,,,0.0,26.0,0.0,0.0,30.1,0.0,,0.0,0.2,,,39.3,0.0,0.0,0.1,7.6,5.9,,,,,27.0,28.0,27.0,28.0,28.0,28.0,28.0,28.0,,,7.0,254.2,,0.2,17.0,4.998,,,0.653,0.719,0.0,26.2,,,,,,0.0,2026-03-21 16:01:08-07:00
14.06,1.0,10.0,2026-03-21 23:01:17,37.0816,-121.59953,355.0,0.0,44.3,-12.6,,,,,23:01:16,10.6,-0.9,10.0,0.0,254.0,-0.0,-0.01,1.0,99.0,-94.0,30.0,0.0,30.01,2135.0,,,153.0,,,,,0.0,0.0,,,,,,,,,,,,,,,,,,,0.0,26.0,0.0,0.0,30.1,0.0,,0.0,0.2,,,39.3,0.0,0.0,0.1,7.6,5.9,,,,,27.0,28.0,27.0,28.0,28.0,28.0,28.0,28.0,,,7.0,254.2,,0.2,17.0,4.998,,,0.653,0.719,0.0,26.2,,,,,,0.0,2026-03-21 16:01:08-07:00
15.06,1.0,10.0,2026-03-21 23:01:18,37.0816,-121.59953,354.0,0.0,44.3,-12.6,,,,,23:01:17,10.6,-0.9,10.0,0.0,253.0,0.0,-0.02,1.0,99.0,-88.0,30.0,0.0,30.01,2131.0,,,153.0,,,,,0.0,0.0,,,,,,,,,,,,,,,,,,,0.0,26.0,0.0,0.0,30.1,0.0,,0.0,0.2,,,39.3,0.0,0.0,0.1,7.6,5.9,,,,,27.0,28.0,27.0,28.0,28.0,28.0,28.0,28.0,,,7.0,254.2,,0.2,17.0,4.998,,,0.654,0.719,0.0,26.2,,,,,,0.0,2026-03-21 16:01:08-07:00
16.06,1.0,10.0,2026-03-21 23:01:19,37.0816,-121.59954,353.0,0.0,44.3,-12.6,,,,,23:01:18,10.6,-1.0,10.0,0.0,250.0,-0.0,-0.02,1.0,99.0,-104.0,30.0,0.0,30.01,2131.0,,,153.0,,,,,0.0,0.0,,,,,,,,,,,,,,,,,,,0.0,26.0,0.0,0.0,30.1,0.0,,0.0,0.2,,,39.3,0.0,0.0,0.1,7.6,5.9,,,,,27.0,28.0,27.0,28.0,28.0,28.0,28.0,28.0,,,7.0,254.2,,0.2,17.0,4.998,,,0.653,0.719,0.0,26.2,,,,,,0.0,2026-03-21 16:01:08-07:00
17.06,1.0,10.0,2026-03-21 23:01:20,37.0816,-121.59954,352.0,0.0,44.3,-12.6,,,,,23:01:19,10.5,-0.9,10.0,0.0,249.0,0.0,-0.02,1.0,99.0,-102.0,30.0,0.0,30.01,2131.0,,,153.0,,,,,0.0,0.0,,,,,,,,,,,,,,,,,,,0.0,26.0,0.0,0.0,30.1,0.0,,0.0,0.2,,,39.3,0.0,0.0,0.1,7.6,5.9,,,,,27.0,28.0,27.0,28.0,28.0,28.0,28.0,28.0,,,7.0,254.2,,0.2,17.0,4.998,,,0.653,0.719,0.0,26.2,,,,,,0.0,2026-03-21 16:01:08-07:00
18.06,1.0,10.0,2026-03-21 23:01:21,37.0816,-121.59954,351.0,0.0,44.3,-12.6,,,,,23:01:20,10.6,-0.9,10.1,0.0,248.0,0.0,-0.02,1.0,99.0,-96.0,30.0,0.0,30.01,2125.0,,,153.0,,,,,0.0,0.0,,,,,,,,,,,,,,,,,,,0.0,26.0,0.0,0.0,30.1,0.0,,0.0,0.2,,,39.3,0.0,0.0,0.1,7.6,5.9,,,,,27.0,28.0,27.0,28.0,28.0,28.0,28.0,28.0,,,7.0,254.2,,0.2,17.0,4.998,,,0.654,0.719,0.0,26.2,,,,,,0.0,2026-03-21 16:01:08-07:00
19.06,1.0,10.0,2026-03-21 23:01:22,37.0816,-121.59954,350.0,0.0,44.3,-12.6,,,,,23:01:21,10.6,-0.9,10.1,0.0,245.0,0.0,-0.02,1.0,99.0,-99.0,30.0,0.0,30.01,2125.0,,,153.0,,,,,0.0,0.0,,,,,,,,,,,,,,,,,,,0.0,26.0,0.0,0.0,30.1,0.0,,0.0,0.2,,,39.3,0.0,0.0,0.1,7.6,5.9,,,,,27.0,28.0,27.0,28.0,28.0,28.0,28.0,28.0,,,7.0,254.2,,0.2,17.0,4.998,,,0.654,0.719,0.0,26.2,,,,,,0.0,2026-03-21 16:01:08-07:00
20.06,1.0,10.0,2026-03-21 23:01:23,37.0816,-121.59954,348.0,0.0,44.3,-12.6,,,,,23:01:22,10.6,-0.9,10.1,0.0,245.0,0.0,-0.02,1.0,99.0,-63.0,30.0,0.0,30.01,2125.0,,,153.0,,,,,0.0,0.0,,,,,,,,,,,,,,,,,,,0.0,26.0,0.0,0.0,30.1,0.0,,0.0,0.2,,,39.3,0.0,0.0,0.1,7.6,5.9,,,,,27.0,28.0,27.0,28.0,28.0,28.0,28.0,28.0,,,7.0,254.2,,0.2,17.0,4.998,,,0.653,0.719,0.0,26.2,,,,,,0.0,2026-03-21 16:01:08-07:00
21.06,1.0,10.0,2026-03-21 23:01:24,37.0816,-121.59955,347.0,0.0,44.3,-12.6,,,,,23:01:23,10.6,-0.8,10.1,0.0,245.0,0.0,-0.02,1.0,99.0,-40.0,30.0,0.0,30.01,2132.0,,,153.0,,,,,0.0,0.0,,,,,,,,,,,,,,,,,,,0.0,26.0,0.0,0.0,30.1,0.0,,0.0,0.2,,,39.3,0.0,0.0,0.1,7.6,5.9,,,,,28.0,28.0,28.0,28.0,28.0,28.0,28.0,28.0,,,7.0,254.2,,0.2,17.0,4.998,,,0.654,0.719,0.0,26.2,,,,,,0.0,2026-03-21 16:01:08-07:00
22.06,1.0,10.0,2026-03-21 23:01:25,37.08161,-121.59955,346.0,0.0,44.3,-12.6,,,,,23:01:24,10.6,-0.8,10.1,0.0,245.0,0.0,-0.02,1.0,99.0,-19.0,30.0,0.0,30.01,2132.0,,,153.0,,,,,0.0,0.0,,,,,,,,,,,,,,,,,,,0.0,26.0,0.0,0.0,30.1,0.0,,0.0,0.2,,,39.3,0.0,0.0,0.1,7.6,5.9,,,,,28.0,28.0,28.0,28.0,28.0,28.0,28.0,28.0,,,7.0,254.2,,0.2,17.0,4.998,,,0.654,0.719,0.0,26.2,,,,,,0.0,2026-03-21 16:01:08-07:00
23.06,1.0,10.0,2026-03-21 23:01:26,37.08161,-121.59955,345.0,0.0,44.3,-12.6,,,,,23:01:25,10.6,-0.8,10.1,0.0,245.0,-0.0,-0.02,1.0,99.0,-15.0,30.0,0.0,30.01,2133.0,,,153.0,,,,,0.0,0.0,,,,,,,,,,,,,,,,,,,0.0,26.0,0.0,0.0,30.1,0.0,,0.0,0.2,,,39.3,0.0,0.0,0.1,7.6,5.9,,,,,27.0,28.0,27.0,28.0,27.0,28.0,28.0,28.0,,,7.0,254.2,,0.2,17.0,4.998,,,0.654,0.719,0.0,26.2,,,,,,0.0,2026-03-21 16:01:08-07:00
24.06,1.0,10.0,2026-03-21 23:01:27,37.08161,-121.59956,344.0,0.0,44.3,-12.6,,,,,23:01:26,10.6,-0.8,10.1,0.0,245.0,-0.0,-0.02,1.0,99.0,1.0,31.0,0.0,30.01,2133.0,,,153.0,,,,,0.0,0.0,,,,,,,,,,,,,,,,,,,0.0,26.0,0.0,0.0,30.1,0.0,,0.0,0.2,,,39.3,0.0,0.0,0.1,7.6,5.9,,,,,28.0,28.0,28.0,28.0,28.0,28.0,28.0,28.0,,,7.0,254.2,,0.2,17.0,4.998,,,0.654,0.719,0.0,26.2,,,,,,0.0,2026-03-21 16:01:08-07:00
25.06,1.0,10.0,2026-03-21 23:01:28,37.08162,-121.59956,343.0,0.0,44.3,-12.6,,,,,23:01:27,10.6,-0.9,10.1,0.0,245.0,0.0,-0.02,1.0,99.0,31.0,31.0,0.0,30.01,2133.0,,,153.0,,,,,0.0,0.0,,,,,,,,,,,,,,,,,,,0.0,26.0,0.0,0.0,30.1,0.0,,0.0,0.2,,,39.3,0.0,0.0,0.1,7.6,5.9,,,,,28.0,28.0,28.0,28.0,28.0,28.0,28.0,28.0,,,7.0,254.2,,0.2,17.0,4.998,,,0.653,0.719,0.0,26.2,,,,,,0.0,2026-03-21 16:01:08-07:00
26.06,1.0,10.0,2026-03-21 23:01:29,37.08162,-121.59956,342.0,0.0,44.3,-12.6,,,,,23:01:28,10.6,-0.9,10.1,0.0,245.0,-0.0,-0.02,1.0,99.0,9.0,31.0,0.0,30.01,2142.0,,,153.0,,,,,0.0,0.0,,,,,,,,,,,,,,,,,,,0.0,26.0,0.0,0.0,30.1,0.0,,0.0,0.2,,,39.3,0.0,0.0,0.1,7.6,5.9,,,,,28.0,28.0,28.0,28.0,28.0,28.0,28.0,28.0,,,7.0,254.2,,0.2,17.0,4.998,,,0.654,0.719,0.0,26.2,,,,,,0.0,2026-03-21 16:01:08-07:00
27.06,1.0,10.0,2026-03-21 23:01:30,37.08162,-121.59956,341.0,0.0,44.3,-12.6,,,,,23:01:29,10.6,-0.9,10.0,0.0,245.0,-0.0,-0.02,1.0,99.0,3.0,31.0,0.0,30.01,2142.0,,,153.0,,,,,0.0,0.0,,,,,,,,,,,,,,,,,,,0.0,26.0,0.0,0.0,30.1,0.0,,0.0,0.2,,,39.3,0.0,0.0,0.1,7.6,5.9,,,,,27.0,28.0,27.0,28.0,28.0,28.0,28.0,28.0,,,7.0,254.2,,0.2,17.0,4.998,,,0.654,0.719,0.0,26.2,,,,,,0.0,2026-03-21 16:01:08-07:00
28.06,1.0,10.0,2026-03-21 23:01:31,37.08162,-121.59956,340.0,0.0,44.3,-12.6,,,,,23:01:30,10.6,-1.0,9.9,0.0,245.0,-0.0,-0.02,1.0,99.0,-2.0,31.0,0.0,30.01,2142.0,,,153.0,,,,,0.0,0.0,,,,,,,,,,,,,,,,,,,0.0,26.0,0.0,0.0,30.1,0.0,,0.0,0.2,,,39.3,0.0,0.0,0.1,7.6,5.9,,,,,27.0,28.0,27.0,28.0,27.0,28.0,28.0,28.0,,,7.0,254.2,,0.2,17.0,4.998,,,0.654,0.719,0.0,26.2,,,,,,0.0,2026-03-21 16:01:08-07:00
29.06,1.0,10.0,2026-03-21 23:01:32,37.08162,-121.59956,339.0,0.0,44.3,-12.6,,,,,23:01:31,10.6,-1.0,9.8,0.0,244.0,-0.0,-0.02,1.0,99.0,-54.0,31.0,0.0,30.01,2142.0,,,153.0,,,,,0.0,0.0,,,,,,,,,,,,,,,,,,,0.0,26.0,0.0,0.0,30.1,0.0,,0.0,0.2,,,39.3,0.0,0.0,0.1,7.6,5.9,,,,,28.0,28.0,28.0,28.0,28.0,28.0,28.0,28.0,,,7.0,254.2,,0.2,17.0,4.998,,,0.654,0.719,0.0,26.2,,,,,,0.0,2026-03-21 16:01:08-07:00
30.06,1.0,10.0,2026-03-21 23:01:33,37.08162,-121.59957,338.0,0.0,44.3,-12.6,,,,,23:01:32,10.6,-1.0,9.8,0.0,244.0,-0.0,-0.02,1.0,99.0,-55.0,31.0,0.0,30.01,2142.0,,,153.0,,,,,0.0,0.0,,,,,,,,,,,,,,,,,,,0.0,26.0,0.0,0.0,30.1,0.0,,0.0,0.0,,,39.3,0.0,0.0,0.1,7.6,5.9,,,,,27.0,28.0,27.0,28.0,27.0,28.0,28.0,28.0,,,7.0,254.2,,0.0,17.0,4.998,,,0.653,0.719,0.0,26.2,,,,,,0.0,2026-03-21 16:01:08-07:00
31.06,1.0,10.0,2026-03-21 23:01:34,37.08163,-121.59957,337.0,0.0,44.3,-12.6,,,,,23:01:33,10.6,-1.0,9.8,0.0,244.0,-0.0,-0.01,1.0,99.0,-32.0,31.0,0.0,30.01,2142.0,,,153.0,,,,,0.0,0.0,,,,,,,,,,,,,,,,,,,0.0,26.0,0.0,0.0,30.1,0.0,,0.0,0.0,,,39.3,0.0,0.0,0.1,7.6,5.9,,,,,28.0,28.0,28.0,28.0,28.0,28.0,28.0,28.0,,,7.0,254.2,,0.0,17.0,4.998,,,0.653,0.719,0.0,26.1,,,,,,0.0,2026-03-21 16:01:08-07:00
32.06,1.0,10.0,2026-03-21 23:01:35,37.08163,-121.59957,336.0,0.0,44.3,-12.6,,,,,23:01:34,10.5,-1.0,9.8,0.0,241.0,0.0,-0.02,1.0,99.0,-78.0,31.0,0.0,30.01,2138.0,,,153.0,,,,,0.0,0.0,,,,,,,,,,,,,,,,,,,0.0,26.0,0.0,0.0,30.0,0.0,,0.0,0.0,,,39.3,0.0,0.0,0.1,7.6,5.9,,,,,28.0,28.0,28.0,28.0,28.0,28.0,28.0,28.0,,,7.0,254.2,,0.0,17.0,4.998,,,0.654,0.719,0.0,26.1,,,,,,0.0,2026-03-21 16:01:08-07:00
33.06,1.0,10.0,2026-03-21 23:01:36,37.08163,-121.59958,335.0,0.0,44.3,-12.6,,,,,23:01:35,10.6,-1.0,9.8,0.0,240.0,-0.0,-0.02,1.0,99.0,-53.0,31.0,0.0,30.01,2138.0,,,153.0,,,,,0.0,0.0,,,,,,,,,,,,,,,,,,,0.0,26.0,0.0,0.0,30.1,0.0,,0.0,0.0,,,39.3,0.0,0.0,0.1,7.6,5.9,,,,,27.0,28.0,28.0,28.0,28.0,28.0,28.0,28.0,,,7.0,254.2,,0.0,17.0,4.998,,,0.654,0.719,0.0,26.2,,,,,,0.0,2026-03-21 16:01:08-07:00
34.06,1.0,10.0,2026-03-21 23:01:37,37.08163,-121.59958,331.0,0.0,44.3,-12.6,,,,,23:01:36,10.6,-1.0,9.7,0.0,238.0,-0.0,-0.02,1.0,99.0,-109.0,31.0,0.0,30.01,2138.0,,,153.0,,,,,0.0,0.0,,,,,,,,,,,,,,,,,,,0.0,26.0,0.0,0.0,30.1,0.0,,0.0,0.0,,,39.3,0.0,0.0,0.1,7.6,5.9,,,,,28.0,28.0,28.0,28.0,28.0,28.0,28.0,28.0,,,7.0,254.2,,0.0,17.0,4.998,,,0.654,0.719,0.0,26.1,,,,,,0.0,2026-03-21 16:01:08-07:00
35.06,1.0,10.0,2026-03-21 23:01:38,37.08163,-121.59958,333.0,0.0,44.3,-12.6,,,,,23:01:37,10.6,-0.9,9.7,0.0,236.0,-0.0,-0.02,1.0,99.0,-102.0,31.0,0.0,30.01,2143.0,,,153.0,,,,,0.0,0.0,,,,,,,,,,,,,,,,,,,0.0,26.0,0.0,0.0,30.1,0.0,,0.0,0.0,,,39.3,0.0,0.0,0.1,7.6,5.9,,,,,28.0,28.0,28.0,28.0,28.0,28.0,28.0,28.0,,,7.0,254.2,,0.0,17.0,4.998,,,0.653,0.719,0.0,26.1,,,,,,0.0,2026-03-21 16:01:08-07:00
36.06,1.0,10.0,2026-03-21 23:01:39,37.08163,-121.59959,333.0,0.0,44.3,-12.6,,,,,23:01:38,10.6,-1.0,9.8,0.0,235.0,-0.0,-0.02,1.0,99.0,-110.0,31.0,0.0,30.01,2143.0,,,153.0,,,,,0.0,0.0,,,,,,,,,,,,,,,,,,,0.0,26.0,0.0,0.0,30.1,0.0,,0.0,0.0,,,39.3,0.0,0.0,0.1,7.6,5.9,,,,,28.0,28.0,28.0,28.0,28.0,28.0,28.0,28.0,,,7.0,254.2,,0.0,17.0,4.998,,,0.653,0.719,0.0,26.2,,,,,,0.0,2026-03-21 16:01:08-07:00
37.06,1.0,10.0,2026-03-21 23:01:40,37.08163,-121.59959,332.0,0.0,44.3,-12.6,,,,,23:01:39,10.6,-0.9,9.9,0.0,233.0,0.0,-0.02,1.0,99.0,-106.0,31.0,0.0,30.01,2143.0,,,153.0,,,,,0.0,0.0,,,,,,,,,,,,,,,,,,,0.0,26.0,0.0,0.0,30.1,0.0,,0.0,0.0,,,39.3,0.0,0.0,0.1,7.6,5.9,,,,,27.0,28.0,28.0,28.0,28.0,28.0,28.0,28.0,,,7.0,254.2,,0.0,17.0,4.998,,,0.653,0.719,0.0,26.1,,,,,,0.0,2026-03-21 16:01:08-07:00
38.06,1.0,10.0,2026-03-21 23:01:41,37.08163,-121.59959,331.0,0.0,44.3,-12.6,,,,,23:01:40,10.6,-0.9,9.9,0.0,230.0,0.0,-0.02,1.0,99.0,-121.0,31.0,0.0,30.01,2135.0,,,153.0,,,,,0.0,0.0,,,,,,,,,,,,,,,,,,,0.0,26.0,0.0,0.0,30.1,0.0,,0.0,0.0,,,39.3,0.0,0.0,0.1,7.6,5.9,,,,,27.0,28.0,28.0,28.0,28.0,28.0,28.0,28.0,,,7.0,254.2,,0.0,17.0,4.998,,,0.653,0.718,0.0,26.1,,,,,,0.0,2026-03-21 16:01:08-07:00
39.06,1.0,10.0,2026-03-21 23:01:42,37.08163,-121.59959,331.0,0.0,44.3,-12.6,,,,,23:01:41,10.6,-0.9,10.0,0.0,228.0,0.0,-0.02,1.0,99.0,-128.0,31.0,0.0,30.01,2136.0,,,153.0,,,,,0.0,0.0,,,,,,,,,,,,,,,,,,,0.0,26.0,0.0,0.0,30.1,0.0,,0.0,0.0,,,39.3,0.0,0.0,0.1,7.6,5.9,,,,,27.0,28.0,28.0,28.0,28.0,28.0,28.0,28.0,,,7.0,254.2,,0.0,17.0,4.998,,,0.653,0.719,0.0,26.2,,,,,,0.0,2026-03-21 16:01:08-07:00
40.06,1.0,10.0,2026-03-21 23:01:43,37.08163,-121.59959,331.0,0.0,44.3,-12.6,,,,,23:01:42,10.6,-0.9,9.9,0.0,226.0,-0.0,-0.02,1.0,99.0,-143.0,31.0,0.0,30.01,2136.0,,,153.0,,,,,0.0,0.0,,,,,,,,,,,,,,,,,,,0.0,26.0,0.0,0.0,30.1,0.0,,0.0,0.0,,,39.3,0.0,0.0,0.1,7.6,5.9,,,,,28.0,28.0,28.0,28.0,28.0,28.0,28.0,28.0,,,7.0,233.6,,0.0,17.0,4.998,,,0.653,0.719,0.0,26.1,,,,,,0.0,2026-03-21 16:01:08-07:00
41.06,1.0,10.0,2026-03-21 23:01:44,37.08164,-121.59959,330.0,0.0,44.3,-12.6,,,,,23:01:43,10.6,-0.9,9.9,0.0,225.0,0.0,-0.01,1.0,99.0,-98.0,31.0,0.0,30.01,2136.0,,,153.0,,,,,0.0,0.0,,,,,,,,,,,,,,,,,,,0.0,26.0,0.0,0.0,30.1,0.0,,0.0,2.0,,,39.3,0.0,0.0,0.0,7.6,5.9,,,,,28.0,28.0,28.0,28.0,28.0,28.0,28.0,28.0,,,7.0,181.8,,2.0,17.0,4.998,,,0.653,0.719,0.0,26.2,,,,,,0.0,2026-03-21 16:01:08-07:00
42.06,1.0,10.0,2026-03-21 23:01:45,37.08164,-121.59959,330.0,0.0,44.3,-12.6,,,,,23:01:44,10.6,-0.9,10.0,0.0,225.0,0.0,-0.02,1.0,99.0,-44.0,31.0,0.0,30.01,2138.0,,,153.0,,,,,0.0,0.0,,,,,,,,,,,,,,,,,,,0.0,26.0,0.0,0.0,30.1,0.0,,0.0,5.2,,,39.3,0.0,0.0,0.0,7.6,5.9,,,,,27.0,28.0,28.0,28.0,28.0,28.0,28.0,28.0,,,8.0,141.5,,5.2,17.0,4.998,,,0.653,0.719,0.0,26.2,,,,,,0.0,2026-03-21 16:01:08-07:00
43.06,1.0,10.0,2026-03-21 23:01:46,37.08164,-121.59959,330.0,0.0,44.3,-12.6,,,,,23:01:45,10.6,-0.9,9.9,0.0,225.0,0.0,-0.02,1.0,99.0,-45.0,31.0,0.0,30.01,2139.0,,,153.0,,,,,0.0,0.0,,,,,,,,,,,,,,,,,,,0.0,26.0,0.0,0.0,30.1,0.8,,0.8,5.3,,,39.3,0.0,0.0,0.0,7.6,5.9,,,,,27.0,28.0,28.0,28.0,28.0,28.0,28.0,28.0,,,8.0,110.2,,5.3,17.0,4.998,,,0.653,0.718,0.0,26.2,,,,,,0.0,2026-03-21 16:01:08-07:00
44.06,1.0,10.0,2026-03-21 23:01:47,37.08164,-121.59959,330.0,0.0,44.3,-12.6,,,,,23:01:46,10.6,-0.9,9.9,0.0,224.0,-0.0,-0.02,1.0,99.0,-42.0,31.0,0.0,30.01,2139.0,,,153.0,,,,,0.0,0.0,,,,,,,,,,,,,,,,,,,0.0,26.0,0.0,0.0,30.1,0.7,,0.7,27.6,,,39.3,0.0,0.0,0.0,7.6,5.9,,,,,27.0,28.0,28.0,28.0,28.0,28.0,28.0,28.0,,,8.0,85.9,,27.6,17.0,4.998,,,0.653,0.719,0.0,26.2,,,,,,0.0,2026-03-21 16:01:08-07:00
45.06,1.0,10.0,2026-03-21 23:01:48,37.08164,-121.59959,331.0,0.0,44.3,-12.6,,,,,23:01:47,10.6,-1.0,9.9,0.0,224.0,-0.0,-0.02,1.0,99.0,-6.0,31.0,0.0,30.01,2139.0,,,153.0,,,,,0.0,0.0,,,,,,,,,,,,,,,,,,,0.0,26.0,0.0,0.0,30.1,0.6,,0.6,32.2,,,39.3,0.0,0.0,0.0,7.6,5.9,,,,,28.0,28.0,28.0,28.0,28.0,28.0,28.0,28.0,,,8.0,67.0,,32.2,17.0,4.998,,,0.653,0.719,0.0,26.2,,,,,,0.0,2026-03-21 16:01:08-07:00
46.06,1.0,10.0,2026-03-21 23:01:49,37.08164,-121.59959,331.0,0.0,44.3,-12.6,,,,,23:01:48,10.6,-1.0,9.8,0.0,224.0,-0.0,-0.02,1.0,99.0,-10.0,31.0,0.0,30.01,2148.0,,,153.0,,,,,0.0,0.0,,,,,,,,,,,,,,,,,,,0.0,26.0,0.0,0.0,30.1,0.7,,0.7,32.6,,,39.3,0.0,0.0,0.0,7.6,5.9,,,,,27.0,28.0,28.0,28.0,28.0,28.0,28.0,28.0,,,8.0,52.3,,32.6,17.0,4.998,,,0.653,0.719,0.0,26.2,,,,,,0.0,2026-03-21 16:01:08-07:00
47.06,1.0,10.0,2026-03-21 23:01:50,37.08164,-121.59959,331.0,0.0,44.3,-12.6,,,,,23:01:49,10.6,-1.0,9.8,0.0,224.0,0.0,-0.02,1.0,99.0,-4.0,31.0,0.0,30.01,2148.0,,,153.0,,,,,0.0,0.0,,,,,,,,,,,,,,,,,,,0.0,26.0,0.0,0.0,30.1,1.3,,1.3,32.4,,,39.3,0.0,0.0,0.0,7.6,5.9,,,,,28.0,28.0,28.0,28.0,28.0,28.0,28.0,28.0,,,8.0,40.8,,32.4,17.0,4.998,,,0.654,0.72,0.0,26.2,,,,,,0.0,2026-03-21 16:01:08-07:00
48.06,1.0,10.0,2026-03-21 23:01:51,37.08163,-121.59959,331.0,0.0,44.3,-12.6,,,,,23:01:50,10.6,-1.0,9.8,0.0,224.0,-0.0,-0.02,1.0,99.0,-33.0,31.0,0.0,30.01,2148.0,,,153.0,,,,,0.0,0.0,,,,,,,,,,,,,,,,,,,0.0,26.0,0.0,0.0,30.1,1.8,,1.8,32.3,,,39.3,0.0,0.0,0.0,7.6,5.9,,,,,28.0,28.0,28.0,28.0,28.0,28.0,28.0,28.0,,,8.0,31.9,,32.3,17.0,4.998,,,0.654,0.719,0.0,26.2,,,,,,0.0,2026-03-21 16:01:08-07:00
49.06,1.0,10.0,2026-03-21 23:01:52,37.08163,-121.59959,332.0,0.0,44.3,-12.6,,,,,23:01:51,10.6,-1.0,9.7,0.0,223.0,-0.0,-0.02,1.0,99.0,-11.0,31.0,0.0,30.01,2147.0,,,153.0,,,,,0.0,0.0,,,,,,,,,,,,,,,,,,,0.0,26.0,0.0,0.0,30.1,2.1,,2.1,33.7,,,39.3,0.0,0.0,0.0,7.6,5.9,,,,,28.0,28.0,28.0,28.0,28.0,28.0,28.0,28.0,,,8.0,25.0,,33.7,17.0,4.998,,,0.653,0.719,0.0,26.2,,,,,,0.0,2026-03-21 16:01:08-07:00
50.06,1.0,10.0,2026-03-21 23:01:53,37.08163,-121.59959,332.0,0.0,44.3,-12.6,,,,,23:01:52,10.6,-1.0,9.8,0.0,223.0,0.0,-0.02,1.0,99.0,12.0,31.0,0.0,30.01,2147.0,,,153.0,,,,,0.0,0.0,,,,,,,,,,,,,,,,,,,0.0,26.0,0.0,0.0,30.1,2.0,,2.0,33.9,,,39.3,0.0,0.0,0.0,7.6,5.9,,,,,28.0,28.0,28.0,28.0,28.0,28.0,28.0,28.0,,,8.0,19.7,,33.9,17.0,4.998,,,0.653,0.719,0.0,26.2,,,,,,0.0,2026-03-21 16:01:08-07:00
51.06,1.0,10.0,2026-03-21 23:01:54,37.08163,-121.59959,333.0,0.0,44.3,-12.6,,,,,23:01:53,10.7,-1.1,9.8,0.0,223.0,0.0,-0.02,1.0,99.0,30.0,31.0,0.0,30.01,2147.0,,,153.0,,,,,0.0,0.0,,,,,,,,,,,,,,,,,,,0.0,26.0,0.0,0.0,30.1,2.0,,2.0,33.0,,,39.3,0.0,0.0,0.0,7.6,5.9,,,,,28.0,28.0,28.0,28.0,28.0,28.0,28.0,28.0,,,8.0,15.5,,33.0,17.0,4.998,,,0.653,0.719,0.0,26.2,,,,,,0.0,2026-03-21 16:01:08-07:00
52.06,1.0,10.0,2026-03-21 23:01:55,37.08163,-121.59959,333.0,0.0,44.3,-12.6,,,,,23:01:54,10.7,-1.0,9.7,0.0,223.0,-0.0,-0.02,1.0,99.0,55.0,31.0,0.0,30.01,2147.0,,,153.0,,,,,0.0,0.0,,,,,,,,,,,,,,,,,,,0.0,26.0,0.0,0.0,30.1,1.7,,1.7,32.8,,,39.3,0.0,0.0,0.0,7.6,5.9,,,,,28.0,28.0,28.0,28.0,28.0,28.0,28.0,28.0,,,8.0,12.3,,32.8,17.0,4.998,,,0.653,0.719,0.0,26.2,,,,,,0.0,2026-03-21 16:01:08-07:00
53.06,1.0,10.0,2026-03-21 23:01:56,37.08163,-121.59959,333.0,0.0,44.3,-12.6,,,,,23:01:55,10.7,-1.0,9.7,0.0,223.0,-0.0,-0.02,1.0,99.0,88.0,31.0,0.0,30.01,2147.0,,,153.0,,,,,0.0,0.0,,,,,,,,,,,,,,,,,,,0.0,26.0,0.0,0.0,30.1,1.7,,1.7,32.5,,,39.3,0.0,0.0,0.0,7.6,5.9,,,,,28.0,28.0,28.0,28.0,28.0,28.0,28.0,28.0,,,8.0,9.8,,32.5,17.0,4.998,,,0.654,0.719,0.0,26.2,,,,,,0.0,2026-03-21 16:01:08-07:00
54.06,1.0,10.0,2026-03-21 23:01:57,37.08163,-121.59959,334.0,0.0,44.3,-12.6,,,,,23:01:56,10.7,-1.0,9.7,0.0,223.0,-0.0,-0.02,1.0,99.0,93.0,31.0,0.0,30.01,2147.0,,,153.0,,,,,0.0,0.0,,,,,,,,,,,,,,,,,,,0.0,26.0,0.0,0.0,30.1,0.0,,0.0,32.3,,,39.3,0.0,0.0,0.1,7.6,5.9,,,,,28.0,28.0,28.0,28.0,28.0,28.0,28.0,28.0,,,8.0,7.8,,32.3,17.0,4.998,,,0.654,0.719,0.0,26.2,,,,,,0.0,2026-03-21 16:01:08-07:00
55.06,1.0,10.0,2026-03-21 23:01:58,37.08163,-121.59959,334.0,0.0,44.3,-12.6,,,,,23:01:57,10.7,-1.0,9.7,0.0,223.0,-0.0,-0.02,1.0,99.0,68.0,31.0,0.0,30.01,2148.0,,,153.0,,,,,0.0,0.0,,,,,,,,,,,,,,,,,,,0.0,26.0,0.0,0.0,30.1,0.0,,0.0,32.1,,,39.3,0.0,0.0,0.1,7.6,5.9,,,,,28.0,28.0,28.0,28.0,28.0,28.0,28.0,28.0,,,8.0,6.3,,32.1,17.0,4.998,,,0.653,0.719,0.0,26.2,,,,,,0.0,2026-03-21 16:01:08-07:00
56.06,1.0,10.0,2026-03-21 23:01:59,37.08163,-121.59959,335.0,0.0,44.3,-12.6,,,,,23:01:58,10.7,-1.1,9.7,0.0,223.0,-0.0,-0.02,1.0,99.0,21.0,31.0,0.0,30.01,2148.0,,,153.0,,,,,0.0,0.0,,,,,,,,,,,,,,,,,,,0.0,26.0,0.0,0.0,30.1,0.0,,0.0,31.9,,,39.3,0.0,0.0,0.1,7.6,5.9,,,,,28.0,28.0,28.0,28.0,28.0,28.0,28.0,28.0,,,8.0,5.1,,31.9,17.0,4.998,,,0.654,0.719,0.0,26.1,,,,,,0.0,2026-03-21 16:01:08-07:00
57.06,1.0,10.0,2026-03-21 23:02:00,37.08163,-121.59959,335.0,0.0,44.3,-12.6,,,,,23:01:59,10.6,-1.1,9.7,0.0,223.0,-0.0,-0.02,1.0,99.0,42.0,31.0,0.0,30.01,2148.0,,,153.0,,,,,0.0,0.0,,,,,,,,,,,,,,,,,,,0.0,26.0,0.0,0.0,30.1,0.0,,0.0,31.8,,,39.3,0.0,0.0,0.1,7.6,5.9,,,,,28.0,28.0,28.0,28.0,28.0,28.0,28.0,28.0,,,8.0,4.2,,31.8,17.0,4.998,,,0.653,0.719,0.0,26.2,,,,,,0.0,2026-03-21 16:01:08-07:00
58.06,1.0,10.0,2026-03-21 23:02:01,37.08163,-121.59959,336.0,0.0,44.3,-12.6,,,,,23:02:00,10.7,-1.0,9.7,0.0,223.0,-0.0,-0.02,1.0,99.0,12.0,31.0,0.0,30.01,2157.0,,,153.0,,,,,0.0,0.0,,,,,,,,,,,,,,,,,,,0.0,26.0,0.0,0.0,30.1,0.0,,0.0,31.6,,,39.3,0.0,0.0,0.1,7.6,5.9,,,,,28.0,28.0,28.0,28.0,28.0,28.0,28.0,28.0,,,8.0,3.5,,31.6,17.0,4.998,,,0.653,0.719,0.0,26.2,,,,,,0.0,2026-03-21 16:01:08-07:00
59.06,1.0,10.0,2026-03-21 23:02:02,37.08163,-121.59959,336.0,0.0,44.3,-12.6,,,,,23:02:01,10.6,-1.0,9.7,0.0,223.0,-0.0,-0.02,1.0,99.0,-5.0,31.0,0.0,30.01,2157.0,,,153.0,,,,,0.0,0.0,,,,,,,,,,,,,,,,,,,0.0,26.0,0.0,0.0,30.1,0.1,,0.1,31.4,,,39.3,0.0,0.0,0.1,7.6,5.9,,,,,28.0,28.0,28.0,28.0,28.0,28.0,28.0,28.0,,,8.0,2.9,,31.4,17.0,4.998,,,0.654,0.719,0.0,26.2,,,,,,0.0,2026-03-21 16:01:08-07:00
60.06,1.0,10.0,2026-03-21 23:02:03,37.08163,-121.59959,337.0,0.0,44.3,-12.6,,,,,23:02:02,10.7,-1.0,9.7,0.0,223.0,-0.0,-0.02,1.0,99.0,-9.0,31.0,0.0,30.01,2157.0,,,153.0,,,,,0.0,0.0,,,,,,,,,,,,,,,,,,,0.0,26.0,0.0,0.0,30.1,0.1,,0.1,31.3,,,39.3,0.0,0.0,0.1,7.6,5.9,,,,,28.0,28.0,28.0,28.0,28.0,28.0,28.0,28.0,,,8.0,2.5,,31.3,17.0,4.998,,,0.653,0.719,0.0,26.2,,,,,,0.0,2026-03-21 16:01:08-07:00
61.06,1.0,10.0,2026-03-21 23:02:04,37.08163,-121.59959,337.0,0.0,44.3,-12.6,,,,,23:02:03,10.7,-1.0,9.7,0.0,223.0,-0.0,-0.02,1.0,99.0,-22.0,31.0,0.0,30.01,2158.0,,,153.0,,,,,0.0,0.0,,,,,,,,,,,,,,,,,,,0.0,26.0,0.0,0.0,30.1,0.1,,0.1,31.2,,,39.3,0.0,0.0,0.1,7.6,5.9,,,,,28.0,28.0,28.0,28.0,28.0,28.0,28.0,28.0,,,8.0,2.2,,31.2,17.0,4.998,,,0.653,0.719,0.0,26.2,,,,,,0.0,2026-03-21 16:01:08-07:00
62.06,1.0,10.0,2026-03-21 23:02:05,37.08163,-121.59959,338.0,0.0,44.3,-12.6,,,,,23:02:04,10.7,-1.0,9.7,0.0,223.0,-0.0,-0.02,1.0,99.0,-68.0,31.0,0.0,30.01,2158.0,,,153.0,,,,,0.0,0.0,,,,,,,,,,,,,,,,,,,0.0,26.0,0.0,0.0,30.1,0.1,,0.1,31.0,,,39.3,0.0,0.0,0.1,7.6,5.9,,,,,28.0,28.0,28.0,28.0,28.0,28.0,28.0,28.0,,,8.0,1.9,,31.0,17.0,4.998,,,0.653,0.719,0.0,26.2,,,,,,0.0,2026-03-21 16:01:08-07:00
63.06,1.0,10.0,2026-03-21 23:02:06,37.08163,-121.59959,338.0,0.0,44.3,-12.6,,,,,23:02:05,10.7,-1.1,9.7,0.0,223.0,-0.0,-0.02,1.0,99.0,-82.0,31.0,0.0,30.01,2158.0,,,153.0,,,,,0.0,0.0,,,,,,,,,,,,,,,,,,,0.0,26.0,0.0,0.0,30.1,0.1,,0.1,30.9,,,39.3,0.0,0.0,0.1,7.6,5.9,,,,,28.0,28.0,28.0,28.0,28.0,28.0,28.0,28.0,,,8.0,1.7,,30.9,17.0,4.998,,,0.653,0.718,0.0,26.2,,,,,,0.0,2026-03-21 16:01:08-07:00
64.06,1.0,10.0,2026-03-21 23:02:07,37.08163,-121.59959,339.0,0.0,44.3,-12.6,,,,,23:02:06,10.7,-1.0,9.7,0.0,223.0,-0.0,-0.02,1.0,99.0,-44.0,31.0,0.0,30.01,2159.0,,,153.0,,,,,0.0,0.0,,,,,,,,,,,,,,,,,,,0.0,26.0,0.0,0.0,30.1,0.1,,0.1,30.8,,,39.3,0.0,0.0,0.1,7.6,5.9,,,,,28.0,28.0,28.0,28.0,28.0,28.0,28.0,28.0,,,8.0,1.5,,30.8,17.0,4.998,,,0.653,0.719,0.0,26.2,,,,,,0.0,2026-03-21 16:01:08-07:00
65.06,1.0,10.0,2026-03-21 23:02:08,37.08163,-121.59959,339.0,0.0,44.3,-12.6,,,,,23:02:07,10.7,-1.0,9.7,0.0,223.0,0.0,-0.02,1.0,99.0,-28.0,31.0,0.0,30.01,2159.0,,,153.0,,,,,0.0,0.0,,,,,,,,,,,,,,,,,,,0.0,26.0,0.0,0.0,30.1,0.1,,0.1,30.6,,,39.3,0.0,0.0,0.1,7.6,5.9,,,,,28.0,28.0,28.0,28.0,28.0,28.0,28.0,28.0,,,8.0,1.4,,30.6,17.0,4.998,,,0.653,0.719,0.0,26.2,,,,,,0.0,2026-03-21 16:01:08-07:00
66.06,1.0,10.0,2026-03-21 23:02:09,37.08162,-121.5996,346.0,0.0,44.3,-12.6,,,,,23:02:08,10.7,-1.0,9.7,0.0,223.0,-0.0,-0.02,1.0,99.0,-44.0,31.0,0.0,30.01,2159.0,,,153.0,,,,,0.0,0.0,,,,,,,,,,,,,,,,,,,0.0,26.0,0.0,0.0,30.1,0.0,,0.0,30.5,,,39.3,0.0,0.0,0.1,7.6,5.9,,,,,28.0,28.0,28.0,28.0,28.0,28.0,28.0,28.0,,,8.0,1.3,,30.5,17.0,4.998,,,0.653,0.719,0.0,26.2,,,,,,0.0,2026-03-21 16:01:08-07:00
67.06,1.0,10.0,2026-03-21 23:02:10,37.08162,-121.5996,347.0,0.0,44.3,-12.6,,,,,23:02:09,10.7,-1.0,9.7,0.0,223.0,-0.0,-0.02,1.0,99.0,-30.0,31.0,0.0,30.01,2168.0,,,153.0,,,,,0.0,0.0,,,,,,,,,,,,,,,,,,,0.0,26.0,0.0,0.0,30.1,0.0,,0.0,30.4,,,39.3,0.0,0.0,0.1,7.6,5.9,,,,,28.0,28.0,28.0,28.0,28.0,28.0,28.0,28.0,,,8.0,1.2,,30.4,17.0,4.998,,,0.653,0.719,0.0,26.2,,,,,,0.0,2026-03-21 16:01:08-07:00
68.06,1.0,10.0,2026-03-21 23:02:11,37.08162,-121.59959,347.0,0.0,44.3,-12.6,,,,,23:02:10,10.7,-1.0,9.8,0.0,223.0,-0.0,-0.02,1.0,99.0,-28.0,31.0,0.0,30.01,2168.0,,,153.0,,,,,0.0,0.0,,,,,,,,,,,,,,,,,,,0.0,22.0,0.0,0.0,30.1,0.0,,0.0,30.3,,,39.3,0.0,0.0,0.0,7.6,5.9,,,,,22.0,22.0,22.0,21.0,22.0,22.0,22.0,22.0,,,8.0,1.2,,30.3,17.0,3.458,,,0.653,0.718,0.0,22.3,,,,,,0.0,2026-03-21 16:01:08-07:00
69.06,1.0,10.0,2026-03-21 23:02:12,37.08162,-121.59959,348.0,0.0,44.3,-12.6,,,,,23:02:11,10.6,-1.0,9.8,0.0,223.0,-0.0,-0.02,1.0,99.0,-8.0,31.0,0.0,30.01,2168.0,,,153.0,,,,,0.0,0.0,,,,,,,,,,,,,,,,,,,0.0,23.0,141.0,141.0,30.3,0.1,,0.1,30.3,,,39.3,0.0,0.0,-0.1,7.6,5.9,,,,,24.0,24.0,24.0,23.0,24.0,23.0,24.0,24.0,,,8.0,1.1,,30.3,17.0,0.002,,,0.653,0.718,0.0,23.3,,,,,,141.0,2026-03-21 16:01:08-07:00
70.06,1.0,10.0,2026-03-21 23:02:13,37.08162,-121.59959,348.0,0.1,44.3,-12.6,,,,,23:02:12,10.6,-1.1,9.9,0.0,221.0,0.0,-0.02,1.0,99.0,-62.0,31.0,0.0,30.01,2168.0,,,153.0,,,,,0.0,0.0,,,,,,,,,,,,,,,,,,,2.0,26.0,1019.0,1019.0,21.8,0.8,,0.8,22.0,,,39.3,0.0,0.0,-0.1,7.6,5.9,,,,,28.0,63.0,28.0,52.0,28.0,68.0,28.0,58.0,,,8.0,1.1,,22.0,17.0,0.005,,,0.659,0.721,1.6,26.2,,,,,,1019.0,2026-03-21 16:01:08-07:00
71.06,1.0,10.0,2026-03-21 23:02:14,37.08161,-121.59959,349.0,0.0,44.3,-12.6,,,,,23:02:13,10.7,-1.0,9.9,0.0,221.0,-0.0,-0.01,1.0,99.0,22.0,31.0,0.0,30.01,2168.0,,,153.0,,,,,0.0,0.0,,,,,,,,,,,,,,,,,,,7.0,26.0,1162.0,1162.0,15.2,1.8,,1.8,18.6,,,39.3,0.0,0.0,-0.1,7.6,5.9,,,,,28.0,128.0,28.0,108.0,28.0,134.0,28.0,119.0,,,7.0,1.1,,18.6,17.0,0.004,,,0.656,0.723,7.0,26.2,,,,,,1162.0,2026-03-21 16:01:08-07:00
72.06,1.0,10.0,2026-03-21 23:02:15,37.08161,-121.59959,349.0,0.0,44.3,-12.6,,,,,23:02:14,10.7,-1.0,9.9,0.0,221.0,-0.0,-0.02,1.0,99.0,25.0,31.0,0.0,30.01,2168.0,,,153.0,,,,,0.0,0.0,,,,,,,,,,,,,,,,,,,16.0,26.0,1084.0,1084.0,14.8,2.4,,2.4,18.1,,,39.3,0.0,0.0,-0.1,7.6,5.9,,,,,28.0,185.0,28.0,157.0,28.0,194.0,29.0,170.0,,,7.0,1.0,,18.1,17.0,0.004,,,0.656,0.721,15.8,26.2,,,,,,1084.0,2026-03-21 16:01:08-07:00
73.06,1.0,10.0,2026-03-21 23:02:16,37.08161,-121.59959,350.0,0.0,44.3,-12.6,,,,,23:02:15,10.7,-1.0,9.9,0.0,221.0,0.0,-0.01,1.0,99.0,19.0,31.0,0.0,30.01,2167.0,,,153.0,,,,,0.0,0.0,,,,,,,,,,,,,,,,,,,30.0,26.0,1122.0,1122.0,14.8,2.8,,2.8,18.3,,,39.3,0.0,0.0,-0.0,7.6,5.9,,,,,29.0,237.0,29.0,201.0,29.0,252.0,29.0,216.0,,,7.0,1.0,,18.3,17.0,0.004,,,0.654,0.726,29.9,26.1,,,,,,1122.0,2026-03-21 16:01:08-07:00
74.06,1.0,10.0,2026-03-21 23:02:17,37.08161,-121.59959,350.0,0.0,44.3,-12.6,,,,,23:02:16,10.7,-1.0,9.9,0.0,221.0,0.0,-0.01,1.0,99.0,27.0,31.0,0.0,30.01,2167.0,,,153.0,,,,,0.0,0.0,,,,,,,,,,,,,,,,,,,49.0,26.0,1102.0,1102.0,14.6,3.1,,3.1,18.7,,,39.3,0.0,0.0,-0.0,7.6,5.9,,,,,29.0,275.0,29.0,242.0,29.0,287.0,30.0,254.0,,,7.0,1.0,,18.7,17.0,0.004,,,0.656,0.725,49.2,26.1,,,,,,1102.0,2026-03-21 16:01:08-07:00
75.06,1.0,10.0,2026-03-21 23:02:18,37.08161,-121.59959,351.0,0.0,44.3,-12.6,,,,,23:02:17,10.7,-1.0,9.8,0.0,221.0,-0.0,-0.01,1.0,99.0,15.0,31.0,0.0,30.01,2167.0,,,153.0,,,,,0.0,0.0,,,,,,,,,,,,,,,,,,,66.0,26.0,1189.0,1189.0,14.3,3.1,,3.1,19.4,,,39.3,0.0,0.0,-0.0,7.6,5.9,,,,,29.0,308.0,30.0,276.0,30.0,324.0,30.0,290.0,,,7.0,1.0,,19.4,17.0,0.004,,,0.654,0.724,65.8,26.1,,,,,,1189.0,2026-03-21 16:01:08-07:00
76.06,1.0,10.0,2026-03-21 23:02:19,37.08161,-121.59959,352.0,0.0,44.3,-12.6,,,,,23:02:18,10.8,-1.0,9.8,0.0,221.0,-0.0,-0.02,1.0,99.0,-11.0,31.0,0.0,30.01,2178.0,,,153.0,,,,,0.0,0.0,,,,,,,,,,,,,,,,,,,73.0,26.0,1149.0,1149.0,14.1,3.1,,3.1,19.7,,,39.3,0.0,0.0,-0.0,7.6,5.9,,,,,30.0,339.0,30.0,305.0,30.0,360.0,31.0,325.0,,,6.0,1.0,,19.7,17.0,0.004,,,0.654,0.721,72.8,26.1,,,,,,1149.0,2026-03-21 16:01:08-07:00
77.06,1.0,10.0,2026-03-21 23:02:20,37.08161,-121.59959,352.0,0.0,44.3,-12.6,,,,,23:02:19,10.8,-1.0,9.8,0.0,221.0,-0.0,-0.02,1.0,99.0,-21.0,31.0,0.0,30.01,2178.0,,,153.0,,,,,0.0,0.0,,,,,,,,,,,,,,,,,,,75.0,26.0,1172.0,1172.0,14.1,3.0,,3.0,20.0,,,39.3,0.0,0.0,-0.0,7.6,5.9,,,,,30.0,368.0,31.0,333.0,30.0,397.0,31.0,351.0,,,7.0,1.0,,20.0,17.0,0.004,,,0.654,0.724,74.6,26.1,,,,,,1172.0,2026-03-21 16:01:08-07:00
78.06,1.0,10.0,2026-03-21 23:02:21,37.08161,-121.59959,353.0,0.0,44.3,-12.6,,,,,23:02:20,10.8,-0.9,9.8,0.0,221.0,-0.0,-0.02,1.0,99.0,3.0,31.0,0.0,30.01,2178.0,,,153.0,,,,,0.0,0.0,,,,,,,,,,,,,,,,,,,76.0,26.0,1211.0,1211.0,14.0,3.0,,3.0,20.1,,,39.3,0.0,0.0,-0.0,7.6,5.9,,,,,31.0,391.0,31.0,358.0,31.0,433.0,32.0,375.0,,,7.0,1.0,,20.1,17.0,0.004,,,0.654,0.723,75.5,26.1,,,,,,1211.0,2026-03-21 16:01:08-07:00
79.06,1.0,10.0,2026-03-21 23:02:22,37.08161,-121.59959,353.0,0.0,44.3,-12.6,,,,,23:02:21,10.9,-0.8,9.9,0.0,221.0,-0.0,-0.02,1.0,99.0,17.0,31.0,0.0,30.01,2188.0,,,153.0,,,,,0.0,0.0,,,,,,,,,,,,,,,,,,,76.0,26.0,1145.0,1145.0,13.2,2.9,,2.9,20.6,,,39.3,0.0,0.0,-0.0,7.6,5.9,,,,,31.0,413.0,32.0,381.0,31.0,451.0,32.0,397.0,,,7.0,1.0,,20.6,17.0,0.004,,,0.654,0.723,75.8,26.1,,,,,,1145.0,2026-03-21 16:01:08-07:00
80.06,1.0,10.0,2026-03-21 23:02:23,37.08161,-121.59959,354.0,0.0,44.3,-12.6,,,,,23:02:22,10.8,-0.9,9.9,0.0,221.0,-0.0,-0.02,1.0,99.0,-16.0,31.0,0.0,30.01,2188.0,,,153.0,,,,,0.0,0.0,,,,,,,,,,,,,,,,,,,68.0,26.0,821.0,821.0,13.5,2.8,,2.8,20.8,,,39.3,0.0,0.0,-0.0,7.6,5.9,,,,,31.0,428.0,32.0,390.0,31.0,460.0,32.0,413.0,,,7.0,1.0,,20.8,17.0,0.004,,,0.654,0.728,68.1,26.1,,,,,,821.0,2026-03-21 16:01:08-07:00
81.06,1.0,10.0,2026-03-21 23:02:24,37.08161,-121.59959,354.0,0.0,44.3,-12.6,,,,,23:02:23,10.8,-0.9,10.0,0.0,221.0,0.0,-0.02,1.0,99.0,-38.0,31.0,0.0,30.01,2188.0,,,153.0,,,,,0.0,0.0,,,,,,,,,,,,,,,,,,,64.0,26.0,794.0,794.0,14.8,2.6,,2.6,20.7,,,39.3,0.0,0.0,-0.0,7.6,5.9,,,,,32.0,436.0,33.0,401.0,32.0,465.0,33.0,418.0,,,7.0,1.0,,20.7,17.0,0.004,,,0.659,0.73,64.4,26.1,,,,,,794.0,2026-03-21 16:01:08-07:00
82.06,1.0,10.0,2026-03-21 23:02:25,37.08161,-121.59959,355.0,0.0,44.3,-12.6,,,,,23:02:24,10.8,-0.9,10.0,0.0,221.0,0.0,-0.02,1.0,99.0,-9.0,31.0,0.0,30.01,2189.0,,,153.0,,,,,0.0,0.0,,,,,,,,,,,,,,,,,,,62.0,26.0,718.0,718.0,15.6,2.5,,2.5,20.9,,,39.3,0.0,0.0,0.0,7.6,5.9,,,,,32.0,442.0,33.0,411.0,32.0,464.0,33.0,426.0,,,7.0,1.0,,20.9,17.0,0.004,,,0.658,0.736,62.3,26.1,,,,,,718.0,2026-03-21 16:01:08-07:00
83.06,1.0,10.0,2026-03-21 23:02:26,37.08161,-121.59959,355.0,0.0,44.3,-12.6,,,,,23:02:25,10.8,-0.9,10.0,0.0,221.0,0.0,-0.02,1.0,99.0,10.0,31.0,0.0,30.01,2189.0,,,153.0,,,,,0.0,0.0,,,,,,,,,,,,,,,,,,,62.0,26.0,801.0,801.0,15.7,2.4,,2.4,21.1,,,39.3,0.0,0.0,0.0,7.6,5.9,,,,,32.0,446.0,33.0,416.0,32.0,466.0,33.0,432.0,,,7.0,1.0,,21.1,17.0,0.004,,,0.659,0.73,62.2,26.1,,,,,,801.0,2026-03-21 16:01:08-07:00
84.06,1.0,10.0,2026-03-21 23:02:27,37.08161,-121.59959,356.0,0.0,44.3,-12.6,,,,,23:02:26,10.8,-1.0,9.9,0.0,221.0,-0.0,-0.02,1.0,99.0,47.0,31.0,0.0,30.01,2189.0,,,153.0,,,,,0.0,0.0,,,,,,,,,,,,,,,,,,,62.0,26.0,773.0,773.0,15.5,2.2,,2.2,21.3,,,39.3,0.0,0.0,0.0,7.6,5.9,,,,,33.0,453.0,34.0,424.0,33.0,470.0,34.0,444.0,,,7.0,1.0,,21.3,17.0,0.004,,,0.658,0.726,62.3,26.1,,,,,,773.0,2026-03-21 16:01:08-07:00
85.06,1.0,10.0,2026-03-21 23:02:28,37.08161,-121.59959,356.0,0.0,44.3,-12.6,,,,,23:02:27,10.7,-1.0,9.9,0.0,221.0,-0.0,-0.02,1.0,99.0,39.0,31.0,0.0,30.01,2199.0,,,153.0,,,,,0.0,0.0,,,,,,,,,,,,,,,,,,,61.0,27.0,768.0,768.0,16.6,2.2,,2.2,21.3,,,39.3,0.0,0.0,14.7,7.6,5.9,,,,,35.0,458.0,36.0,434.0,35.0,473.0,36.0,450.0,,,7.0,0.0,,21.3,17.0,0.004,,,0.657,0.726,60.8,27.2,,,,,,768.0,2026-03-21 16:01:08-07:00
86.06,1.0,10.0,2026-03-21 23:02:29,37.08161,-121.59959,356.0,0.0,44.3,-12.6,,,,,23:02:28,10.7,-1.1,9.8,0.0,221.0,-0.0,-0.02,1.0,99.0,62.0,31.0,0.0,30.01,2200.0,,,153.0,,,,,0.0,0.0,,,,,,,,,,,,,,,,,,,61.0,27.0,741.0,741.0,16.4,2.0,,2.0,21.5,,,39.3,0.0,0.0,27.9,7.6,5.9,,,,,35.0,460.0,36.0,439.0,35.0,480.0,36.0,445.0,,,7.0,0.0,,21.5,17.0,0.004,,,0.658,0.725,61.0,27.2,,,,,,741.0,2026-03-21 16:01:08-07:00
87.06,1.0,10.0,2026-03-21 23:02:30,37.08161,-121.59959,357.0,0.0,44.3,-12.6,,,,,23:02:29,10.7,-1.0,9.8,0.0,221.0,-0.0,-0.02,0.9,99.0,51.0,31.0,0.0,30.01,2200.0,,,153.0,,,,,0.0,0.0,,,,,,,2.0,,,7.0,,,,,,,,,60.0,27.0,691.0,691.0,16.5,2.0,,2.0,21.5,,,39.3,0.0,0.0,34.8,7.6,5.9,,,,,35.0,461.0,36.0,446.0,35.0,486.0,36.0,454.0,,,7.0,0.0,,21.5,17.0,0.004,,,0.657,0.726,60.4,27.1,,,,,,691.0,2026-03-21 16:01:08-07:00
88.06,1.0,10.0,2026-03-21 23:02:31,37.08161,-121.59959,357.0,0.0,44.3,-12.6,,,,,23:02:30,10.7,-1.1,9.7,0.0,221.0,-0.0,-0.01,1.0,99.0,36.0,31.0,0.0,30.01,2200.0,,,153.0,,,,,0.0,0.0,,,,,,,2.0,,,7.0,,,,,,,,,61.0,27.0,791.0,791.0,16.1,1.9,,1.9,21.9,,,39.3,0.0,0.0,40.1,7.6,5.9,,,,,36.0,464.0,37.0,452.0,36.0,498.0,37.0,461.0,,,7.0,0.0,,21.9,17.0,0.004,,,0.659,0.725,61.2,27.2,,,,,,791.0,2026-03-21 16:01:08-07:00
89.06,1.0,10.0,2026-03-21 23:02:32,37.08161,-121.59959,357.0,0.0,44.3,-12.6,,,,,23:02:31,10.7,-1.0,9.7,0.0,222.0,-0.0,-0.01,1.0,99.0,80.0,31.0,0.0,30.01,2201.0,,,153.0,,,,,0.0,0.0,,,,,,,2.0,,,7.0,,,,,,,,,62.0,27.0,786.0,786.0,15.5,1.8,,1.8,22.0,,,39.3,0.0,0.0,44.1,7.6,5.9,,,,,36.0,466.0,37.0,458.0,36.0,500.0,37.0,465.0,,,7.0,0.0,,22.0,17.0,0.004,,,0.657,0.726,62.1,27.2,,,,,,786.0,2026-03-21 16:01:08-07:00
90.06,1.0,10.0,2026-03-21 23:02:33,37.0816,-121.59959,358.0,0.0,44.3,-12.6,,,,,23:02:32,10.7,-1.0,9.7,0.0,222.0,0.0,-0.02,1.0,99.0,37.0,31.0,0.0,30.01,2201.0,,,153.0,,,,,0.0,0.0,,,,,,,2.0,,,7.0,,,,,3.0,0.0,0.0,1200.0,62.0,27.0,782.0,782.0,15.4,1.8,,1.8,22.3,,,39.3,0.0,0.0,46.0,7.6,5.9,,,,,37.0,471.0,38.0,465.0,37.0,501.0,38.0,469.0,,,7.0,0.0,,22.3,17.0,0.004,,,0.657,0.726,62.1,27.2,,,,,,782.0,2026-03-21 16:01:08-07:00
91.06,1.0,10.0,2026-03-21 23:02:34,37.0816,-121.59959,358.0,0.0,44.3,-12.6,,,,,23:02:33,10.7,-1.1,9.8,0.0,223.0,-0.0,-0.02,1.0,99.0,61.0,31.0,0.0,30.01,2202.0,,,153.0,,,,,0.0,0.0,,,,,,,2.0,,,7.0,,,,,3.0,1.0,0.0,1200.0,62.0,27.0,844.0,844.0,15.9,1.8,,1.8,22.4,,,39.3,0.0,0.0,47.0,7.6,5.9,,,,,37.0,473.0,38.0,469.0,37.0,495.0,38.0,469.0,,,7.0,0.0,,22.4,17.0,0.004,,,0.657,0.731,62.1,27.3,,,,,,844.0,2026-03-21 16:01:08-07:00
92.06,1.0,10.0,2026-03-21 23:02:35,37.0816,-121.59959,358.0,0.0,44.3,-12.6,,,,,23:02:34,10.7,-1.1,9.7,0.0,224.0,-0.0,-0.02,1.0,99.0,45.0,31.0,0.0,30.01,2203.0,,,153.0,,,,,0.0,0.0,,,,,,,2.0,,,7.0,,,,,1.0,0.0,0.0,1200.0,64.0,27.0,879.0,879.0,14.9,1.8,,1.8,22.5,,,39.3,0.0,0.0,46.6,7.6,5.9,,,,,37.0,476.0,38.0,473.0,37.0,504.0,39.0,475.0,,,7.0,0.0,,22.5,17.0,0.004,,,0.654,0.726,64.4,27.1,,,,,,879.0,2026-03-21 16:01:08-07:00
93.06,1.0,10.0,2026-03-21 23:02:36,37.0816,-121.59959,358.0,0.0,44.3,-12.6,,,,,23:02:35,10.7,-1.2,9.6,0.0,224.0,-0.0,-0.02,1.0,99.0,8.0,31.0,0.0,30.01,2203.0,,,153.0,,,,,0.0,0.0,,,,,,,2.0,,,7.0,,,,,1.0,0.0,0.0,1200.0,67.0,27.0,987.0,987.0,14.6,1.8,,1.8,22.7,,,39.3,0.0,0.0,41.4,7.6,5.9,,,,,37.0,481.0,38.0,477.0,37.0,514.0,39.0,484.0,,,7.0,0.0,,22.7,17.0,0.002,,,0.656,0.728,66.6,26.9,,,,,,987.0,2026-03-21 16:01:08-07:00
94.06,1.0,10.0,2026-03-21 23:02:37,37.0816,-121.59959,359.0,0.1,44.3,-12.6,,,,,23:02:36,10.8,-1.2,9.6,0.0,224.0,-0.0,-0.02,1.0,99.0,9.0,31.0,0.0,30.01,2214.0,,,153.0,,,,,0.0,0.0,,,,,,,2.0,,,7.0,,,,,,,,,68.0,27.0,974.0,974.0,14.1,1.8,,1.8,22.9,,,39.3,0.0,0.0,35.6,7.6,5.9,,,,,37.0,487.0,39.0,484.0,37.0,520.0,39.0,484.0,,,7.0,0.0,,22.9,17.0,0.002,,,0.656,0.723,67.8,26.8,,,,,,974.0,2026-03-21 16:01:08-07:00
95.06,1.0,10.0,2026-03-21 23:02:38,37.0816,-121.59958,359.0,0.0,44.3,-12.6,,,,,23:02:37,10.8,-1.2,9.6,0.0,224.0,-0.0,-0.02,1.0,99.0,-17.0,31.0,0.0,30.01,2214.0,,,153.0,,,,,0.0,0.0,,,,,,,2.0,,,7.0,,,,,,,,,68.0,27.0,935.0,935.0,14.1,1.9,,1.9,23.1,,,39.3,0.0,0.0,30.2,7.6,5.9,,,,,38.0,495.0,39.0,487.0,38.0,519.0,39.0,491.0,,,7.0,0.0,,23.1,17.0,0.002,,,0.654,0.721,68.1,26.7,,,,,,935.0,2026-03-21 16:01:08-07:00
96.06,1.0,10.0,2026-03-21 23:02:39,37.08159,-121.59957,372.0,0.0,44.3,-12.6,,,,,23:02:38,10.7,-1.2,9.5,0.0,224.0,-0.0,-0.01,1.0,99.0,31.0,31.0,0.0,30.01,2214.0,,,153.0,,,,,0.0,0.0,,,,,,,2.0,,,7.0,,,,,,,,,69.0,27.0,1012.0,1012.0,14.0,1.9,,1.9,23.4,,,39.3,0.0,0.0,25.6,7.6,5.9,,,,,38.0,501.0,40.0,492.0,38.0,523.0,40.0,501.0,,,7.0,0.0,,23.4,17.0,0.002,,,0.654,0.723,68.8,26.7,,,,,,1012.0,2026-03-21 16:01:08-07:00
97.06,1.0,10.0,2026-03-21 23:02:40,37.08159,-121.59957,373.0,0.0,44.3,-12.6,,,,,23:02:39,10.7,-1.1,9.5,0.0,225.0,-0.0,-0.01,1.0,99.0,-25.0,31.0,0.0,30.01,2215.0,,,153.0,,,,,0.0,0.0,,,,,,,2.0,,,7.0,,,,,,,,,71.0,27.0,1028.0,1028.0,13.3,2.0,,2.0,23.6,,,39.3,0.0,0.0,22.1,7.6,5.9,,,,,39.0,505.0,40.0,497.0,39.0,530.0,40.0,511.0,,,7.0,0.0,,23.6,17.0,0.002,,,0.654,0.72,70.5,26.6,,,,,,1028.0,2026-03-21 16:01:08-07:00
98.06,1.0,10.0,2026-03-21 23:02:41,37.08158,-121.59957,373.0,0.0,44.3,-12.6,,,,,23:02:40,10.7,-1.2,9.5,0.0,225.0,-0.0,-0.02,1.0,99.0,-9.0,31.0,0.0,30.01,2215.0,,,153.0,,,,,0.0,0.0,,,,,,,2.0,,,7.0,,,,,,,,,71.0,27.0,1037.0,1037.0,13.3,2.0,,2.0,23.8,,,39.3,0.0,0.0,19.4,7.6,5.9,,,,,39.0,509.0,40.0,502.0,39.0,529.0,40.0,516.0,,,7.0,0.0,,23.8,17.0,0.002,,,0.656,0.721,71.0,26.6,,,,,,1037.0,2026-03-21 16:01:08-07:00
99.06,1.0,10.0,2026-03-21 23:02:42,37.08159,-121.59956,374.0,0.0,44.3,-12.6,,,,,23:02:41,10.7,-1.1,9.5,0.0,225.0,-0.0,-0.02,1.0,99.0,-15.0,31.0,0.0,30.01,2215.0,,,153.0,,,,,0.0,0.0,,,,,,,2.0,,,7.0,,,,,,,,,71.0,27.0,1024.0,1024.0,13.1,2.1,,2.1,24.0,,,39.3,0.0,0.0,17.2,7.6,5.9,,,,,40.0,512.0,41.0,507.0,40.0,532.0,41.0,525.0,,,7.0,0.0,,24.0,17.0,0.002,,,0.654,0.724,71.1,26.6,,,,,,1024.0,2026-03-21 16:01:08-07:00
100.06,1.0,10.0,2026-03-21 23:02:43,37.08159,-121.59956,374.0,0.0,44.3,-12.6,,,,,23:02:42,10.7,-1.1,9.6,0.0,225.0,-0.0,-0.02,1.0,99.0,-54.0,31.0,0.0,30.01,2224.0,,,153.0,,,,,0.0,0.0,,,,,,,2.0,,,7.0,,,,,,,,,71.0,27.0,1040.0,1040.0,13.1,2.1,,2.1,24.2,,,39.3,0.0,0.0,15.3,7.6,5.9,,,,,40.0,515.0,42.0,511.0,40.0,537.0,42.0,530.0,,,7.0,0.0,,24.2,17.0,0.002,,,0.656,0.73,71.3,26.6,,,,,,1040.0,2026-03-21 16:01:08-07:00
101.06,1.0,10.0,2026-03-21 23:02:44,37.08159,-121.59956,374.0,0.0,44.3,-12.6,,,,,23:02:43,10.7,-1.1,9.6,0.0,225.0,-0.0,-0.01,1.0,99.0,-55.0,31.0,0.0,30.01,2224.0,,,153.0,,,,,0.0,0.0,,,,,,,2.0,,,7.0,,,,,,,,,71.0,27.0,1015.0,1015.0,13.1,2.1,,2.1,24.3,,,39.3,0.0,0.0,13.9,7.6,5.9,,,,,41.0,518.0,42.0,515.0,41.0,538.0,42.0,543.0,,,7.0,0.0,,24.3,17.0,0.002,,,0.657,0.728,70.8,26.5,,,,,,1015.0,2026-03-21 16:01:08-07:00
102.06,1.0,10.0,2026-03-21 23:02:45,37.08159,-121.59956,375.0,0.0,44.3,-12.6,,,,,23:02:44,10.7,-1.0,9.6,0.0,225.0,-0.1,-0.01,1.0,99.0,-64.0,31.0,0.0,30.01,2224.0,,,153.0,,,,,0.0,0.0,,,,,,,2.0,,,7.0,,,,,,,,,71.0,27.0,1018.0,1018.0,13.1,2.1,,2.1,24.5,,,39.3,0.0,0.0,12.6,7.6,5.9,,,,,41.0,520.0,42.0,518.0,41.0,539.0,43.0,546.0,,,7.0,0.0,,24.5,17.0,0.002,,,0.654,0.725,70.7,26.5,,,,,,1018.0,2026-03-21 16:01:08-07:00
103.06,1.0,10.0,2026-03-21 23:02:46,37.08159,-121.59956,375.0,0.0,44.3,-12.6,,,,,23:02:45,10.7,-1.2,9.6,0.0,225.0,-0.0,-0.02,1.0,99.0,-58.0,31.0,0.0,30.01,2224.0,,,153.0,,,,,0.0,0.0,,,,,,,2.0,,,7.0,,,,,,,,,71.0,27.0,1039.0,1039.0,13.2,2.2,,2.2,24.6,,,39.3,0.0,0.0,11.3,7.6,5.9,,,,,42.0,522.0,43.0,522.0,42.0,536.0,43.0,542.0,,,7.0,0.0,,24.6,17.0,0.002,,,0.656,0.729,71.0,26.5,,,,,,1039.0,2026-03-21 16:01:08-07:00
104.06,1.0,10.0,2026-03-21 23:02:47,37.08159,-121.59957,376.0,0.0,44.3,-12.6,,,,,23:02:46,10.7,-1.2,9.6,0.0,224.0,-0.0,-0.02,1.0,99.0,-88.0,31.0,0.0,30.01,2224.0,,,153.0,,,,,0.0,0.0,,,,,,,2.0,,,7.0,,,,,,,,,71.0,27.0,1024.0,1024.0,13.3,2.2,,2.2,24.8,,,39.3,0.0,0.0,10.4,7.6,5.9,,,,,42.0,525.0,44.0,526.0,42.0,537.0,44.0,544.0,,,7.0,0.0,,24.8,17.0,0.002,,,0.654,0.723,70.6,26.5,,,,,,1024.0,2026-03-21 16:01:08-07:00
105.06,1.0,10.0,2026-03-21 23:02:48,37.08159,-121.59957,376.0,0.0,44.3,-12.6,,,,,23:02:47,10.8,-1.1,9.6,0.0,224.0,-0.0,-0.02,1.0,99.0,-17.0,32.0,0.0,30.01,2224.0,,,153.0,,,,,0.0,0.0,,,,,,,2.0,,,7.0,,,,,,,,,71.0,27.0,1016.0,1016.0,13.3,2.2,,2.2,24.9,,,39.3,0.0,0.0,9.6,7.6,5.9,,,,,43.0,528.0,44.0,530.0,43.0,538.0,44.0,546.0,,,7.0,0.0,,24.9,17.0,0.002,,,0.654,0.721,70.6,26.5,,,,,,1016.0,2026-03-21 16:01:08-07:00
106.06,1.0,10.0,2026-03-21 23:02:49,37.08159,-121.59957,376.0,0.0,44.3,-12.6,,,,,23:02:48,10.8,-1.1,9.6,0.0,223.0,0.0,-0.02,0.9,99.0,-60.0,31.0,0.0,30.01,2232.0,,,153.0,,,,,0.0,0.0,,,,,,,2.0,,,-2.0,,,,,,,,,70.0,27.0,1032.0,1032.0,13.6,2.2,,2.2,25.0,,,39.3,0.0,0.0,9.0,7.6,5.9,,,,,43.0,530.0,44.0,532.0,43.0,540.0,45.0,538.0,,,7.0,0.0,,25.0,17.0,0.002,,,0.654,0.723,70.2,26.5,,,,,,1032.0,2026-03-21 16:01:08-07:00
107.06,1.0,10.0,2026-03-21 23:02:50,37.08159,-121.59957,376.0,0.0,44.3,-12.6,,,,,23:02:49,10.8,-1.1,9.6,0.0,223.0,-0.0,-0.02,1.0,99.0,-9.0,32.0,0.0,30.01,2232.0,,,153.0,,,,,0.0,0.0,,,,,,,2.0,,,-4.0,,,,,,,,,70.0,27.0,1017.0,1017.0,13.7,2.1,,2.1,25.1,,,39.3,0.0,0.0,8.4,7.6,5.9,,,,,43.0,531.0,45.0,534.0,43.0,531.0,45.0,543.0,,,7.0,0.0,,25.1,17.0,0.002,,,0.654,0.723,69.9,26.5,,,,,,1017.0,2026-03-21 16:01:08-07:00
108.06,1.0,10.0,2026-03-21 23:02:51,37.08159,-121.59957,377.0,0.1,44.3,-12.6,,,,,23:02:50,10.8,-1.2,9.6,0.0,223.0,-0.0,-0.01,0.9,99.0,10.0,32.0,0.0,30.01,2232.0,,,153.0,,,,,0.0,0.0,,,,,,,2.0,,,-4.0,,,,,,,,,71.0,27.0,1020.0,1020.0,13.5,2.1,,2.1,25.2,,,39.3,0.0,0.0,8.0,7.6,5.9,,,,,44.0,534.0,45.0,537.0,44.0,537.0,46.0,545.0,,,7.0,0.0,,25.2,17.0,0.002,,,0.656,0.721,70.6,26.5,,,,,,1020.0,2026-03-21 16:01:08-07:00
109.06,1.0,10.0,2026-03-21 23:02:52,37.08159,-121.59957,377.0,0.0,44.3,-12.6,,,,,23:02:51,10.7,-1.2,9.6,0.0,223.0,-0.0,-0.02,1.0,99.0,29.0,32.0,0.0,30.01,2232.0,,,153.0,,,,,0.0,0.0,,,,,,,2.0,,,-5.0,,,,,,,,,70.0,27.0,1013.0,1013.0,13.5,2.1,,2.1,25.4,,,39.3,0.0,0.0,7.6,7.6,5.9,,,,,44.0,537.0,46.0,541.0,44.0,539.0,46.0,548.0,,,7.0,0.0,,25.4,17.0,0.002,,,0.654,0.718,70.5,26.5,,,,,,1013.0,2026-03-21 16:01:08-07:00
110.06,1.0,10.0,2026-03-21 23:02:53,37.08159,-121.59957,377.0,0.0,44.3,-12.6,,,,,23:02:52,10.7,-1.1,9.7,0.0,223.0,-0.0,-0.02,1.0,99.0,6.0,32.0,0.0,30.01,2232.0,,,153.0,,,,,0.0,0.0,,,,,,,2.0,,,-6.0,,,,,,,,,71.0,27.0,1002.0,1002.0,13.4,2.1,,2.1,25.5,,,39.3,0.0,0.0,7.4,7.6,5.9,,,,,45.0,540.0,46.0,543.0,45.0,541.0,47.0,549.0,,,7.0,0.0,,25.5,17.0,0.002,,,0.656,0.724,70.5,26.6,,,,,,1002.0,2026-03-21 16:01:08-07:00
111.06,1.0,10.0,2026-03-21 23:02:54,37.08159,-121.59957,377.0,0.0,44.3,-12.6,,,,,23:02:53,10.8,-1.1,9.6,0.0,223.0,-0.0,-0.02,1.0,99.0,-20.0,32.0,0.0,30.01,2232.0,,,153.0,,,,,0.0,0.0,,,,,,,2.0,,,-10.0,,,,,,,,,70.0,27.0,987.0,987.0,13.5,2.1,,2.1,25.5,,,39.3,0.0,0.0,7.5,7.6,5.9,,,,,45.0,541.0,47.0,546.0,45.0,543.0,48.0,550.0,,,7.0,0.0,,25.5,17.0,0.002,,,0.654,0.72,70.4,26.6,,,,,,987.0,2026-03-21 16:01:08-07:00
112.06,2.0,10.0,2026-03-21 23:02:55,37.08158,-121.59958,359.0,0.0,44.3,-12.6,,,,,23:02:54,10.8,-1.2,9.5,0.0,223.0,-0.0,-0.02,1.0,99.0,-22.0,32.0,0.0,30.01,2233.0,,,153.0,,,,,0.0,0.0,,,,,,,2.0,,,-22.0,,,,,,,,,70.0,27.0,1024.0,1024.0,13.5,2.2,,2.2,25.6,,,39.3,0.0,0.0,7.4,7.6,5.9,,,,,46.0,543.0,47.0,550.0,46.0,543.0,48.0,551.0,,,7.0,0.0,,25.6,17.0,0.002,,,0.654,0.72,70.3,26.6,,,,,,1024.0,2026-03-21 16:01:08-07:00
113.06,2.0,10.0,2026-03-21 23:02:56,37.08158,-121.59958,359.0,0.1,44.3,-12.6,,,,,23:02:55,10.8,-1.1,9.6,0.0,223.0,-0.0,-0.02,0.9,99.0,-38.0,32.0,0.0,30.01,2233.0,,,153.0,,,,,0.0,0.0,,,,,,,2.0,,,-32.0,,,,,,,,,70.0,27.0,996.0,996.0,13.4,2.2,,2.2,25.7,,,39.3,0.0,0.0,7.3,7.6,5.9,,,,,47.0,545.0,48.0,552.0,47.0,545.0,48.0,554.0,,,7.0,0.0,,25.7,17.0,0.002,,,0.654,0.719,70.1,26.6,,,,,,996.0,2026-03-21 16:01:08-07:00
114.06,2.0,10.0,2026-03-21 23:02:57,37.08158,-121.59958,358.0,0.0,44.3,-12.6,,,,,23:02:56,10.8,-1.1,9.7,0.0,223.0,0.0,-0.02,1.0,99.0,-16.0,32.0,0.0,30.01,2233.0,,,153.0,,,,,0.0,0.0,,,,,,,2.0,,,-33.0,,,,,3.0,0.0,0.0,1200.0,71.0,27.0,990.0,990.0,13.5,2.2,,2.2,25.7,,,39.3,0.0,0.0,7.2,7.6,5.9,,,,,47.0,548.0,48.0,553.0,47.0,544.0,49.0,558.0,,,7.0,0.0,,25.7,17.0,0.002,,,0.656,0.728,70.5,26.6,,,,,,990.0,2026-03-21 16:01:08-07:00
115.06,2.0,10.0,2026-03-21 23:02:58,37.08158,-121.59958,357.0,0.0,44.3,-12.6,,,,,23:02:57,10.8,-1.0,9.7,0.0,223.0,0.0,-0.01,1.0,99.0,15.0,32.0,0.0,30.01,2233.0,,,153.0,,,,,0.0,0.0,,,,,,,2.0,,,-34.0,,,,,1.0,1.0,0.0,1200.0,70.0,27.0,1044.0,1044.0,13.6,2.2,,2.2,25.8,,,39.3,0.0,0.0,7.0,7.6,5.9,,,,,48.0,549.0,49.0,556.0,48.0,551.0,50.0,560.0,,,7.0,0.0,,25.8,17.0,0.002,,,0.654,0.721,70.5,26.6,,,,,,1044.0,2026-03-21 16:01:08-07:00
116.06,2.0,10.0,2026-03-21 23:02:59,37.08158,-121.59958,356.0,0.0,44.3,-12.6,,,,,23:02:58,10.8,-1.0,9.7,0.0,223.0,-0.0,-0.01,0.9,99.0,30.0,32.0,0.0,30.01,2233.0,,,153.0,,,,,0.0,0.0,,,,,,,2.0,,,-35.0,,,,,1.0,0.0,0.0,1200.0,71.0,27.0,1019.0,1019.0,13.5,2.2,,2.2,25.8,,,39.3,0.0,0.0,7.0,7.6,5.9,,,,,48.0,551.0,50.0,560.0,48.0,551.0,50.0,562.0,,,7.0,0.0,,25.8,17.0,0.002,,,0.656,0.723,70.7,26.6,,,,,,1019.0,2026-03-21 16:01:08-07:00
117.06,2.0,10.0,2026-03-21 23:03:00,37.08158,-121.59958,356.0,0.0,44.3,-12.6,,,,,23:02:59,10.8,-1.0,9.8,0.0,223.0,0.0,-0.02,1.0,99.0,32.0,32.0,0.0,30.01,2233.0,,,153.0,,,,,0.0,0.0,,,,,,,2.0,,,-35.0,,,,,1.0,0.0,0.0,1200.0,71.0,27.0,1024.0,1024.0,13.5,2.2,,2.2,25.9,,,39.3,0.0,0.0,6.9,7.6,5.9,,,,,48.0,553.0,50.0,562.0,48.0,553.0,51.0,562.0,,,7.0,0.0,,25.9,17.0,0.001,,,0.654,0.72,70.8,26.6,,,,,,1024.0,2026-03-21 16:01:08-07:00
118.06,2.0,10.0,2026-03-21 23:03:01,37.08158,-121.59958,355.0,0.0,44.3,-12.6,,,,,23:03:00,10.8,-1.0,9.8,0.0,223.0,-0.0,-0.02,1.0,99.0,66.0,32.0,0.0,30.01,2233.0,,,153.0,,,,,0.0,0.0,,,,,,,2.0,,,-37.0,,,,,1.0,0.0,0.0,1200.0,71.0,27.0,1027.0,1027.0,13.3,2.2,,2.2,25.9,,,39.3,0.0,0.0,6.8,7.6,5.9,,,,,49.0,555.0,51.0,563.0,49.0,555.0,51.0,563.0,,,7.0,0.0,,25.9,17.0,0.002,,,0.654,0.718,70.9,26.6,,,,,,1027.0,2026-03-21 16:01:08-07:00
119.06,2.0,10.0,2026-03-21 23:03:02,37.08158,-121.59958,355.0,0.0,44.3,-12.6,,,,,23:03:01,10.7,-0.9,9.9,0.0,223.0,-0.0,-0.02,1.0,99.0,85.0,32.0,0.0,30.01,2233.0,,,153.0,,,,,0.0,0.0,,,,,,,2.0,,,-40.0,,,,,1.0,0.0,0.0,1200.0,71.0,27.0,1044.0,1044.0,13.2,2.2,,2.2,25.9,,,39.3,0.0,0.0,6.7,7.6,5.9,,,,,49.0,558.0,51.0,564.0,50.0,556.0,52.0,565.0,,,7.0,0.0,,25.9,17.0,0.001,,,0.656,0.726,71.0,26.7,,,,,,1044.0,2026-03-21 16:01:08-07:00
120.06,2.0,10.0,2026-03-21 23:03:03,37.08158,-121.59958,355.0,0.0,44.3,-12.6,,,,,23:03:02,10.7,-1.0,9.9,0.0,223.0,-0.0,-0.01,0.9,99.0,80.0,32.0,0.0,30.01,2234.0,,,153.0,,,,,0.0,0.0,,,,,,,2.0,,,-41.0,,,,,1.0,0.0,0.0,1200.0,71.0,27.0,1036.0,1036.0,13.2,2.2,,2.2,25.9,,,39.3,0.0,0.0,6.6,7.6,5.9,,,,,50.0,561.0,52.0,564.0,50.0,558.0,53.0,567.0,,,7.0,0.0,,25.9,17.0,0.001,,,0.654,0.723,71.0,26.7,,,,,,1036.0,2026-03-21 16:01:08-07:00
121.06,2.0,10.0,2026-03-21 23:03:04,37.08158,-121.59958,356.0,0.0,44.3,-12.6,,,,,23:03:03,10.8,-0.9,9.9,0.0,223.0,-0.0,-0.02,1.0,99.0,68.0,32.0,0.0,30.01,2234.0,,,153.0,,,,,0.0,0.0,,,,,,,2.0,,,-42.0,,,,,1.0,0.0,0.0,1200.0,71.0,27.0,1039.0,1039.0,13.3,2.2,,2.2,26.0,,,39.3,0.0,0.0,6.5,7.6,5.9,,,,,50.0,563.0,52.0,565.0,51.0,560.0,54.0,571.0,,,7.0,0.0,,26.0,17.0,0.001,,,0.653,0.721,70.9,26.7,,,,,,1039.0,2026-03-21 16:01:08-07:00
122.06,2.0,10.0,2026-03-21 23:03:05,37.08158,-121.59958,356.0,0.0,44.3,-12.6,,,,,23:03:04,10.7,-1.0,9.9,0.0,223.0,-0.0,-0.02,1.0,99.0,73.0,32.0,0.0,30.01,2234.0,,,153.0,,,,,0.0,0.0,,,,,,,2.0,,,-42.0,,,,,1.0,0.0,0.0,1200.0,71.0,27.0,1020.0,1020.0,13.2,2.2,,2.2,25.9,,,39.3,0.0,0.0,6.4,7.6,5.9,,,,,51.0,565.0,53.0,567.0,51.0,561.0,54.0,572.0,,,7.0,0.0,,25.9,17.0,0.001,,,0.654,0.724,70.8,26.7,,,,,,1020.0,2026-03-21 16:01:08-07:00
123.06,2.0,10.0,2026-03-21 23:03:06,37.08158,-121.59958,355.0,0.0,44.3,-12.6,,,,,23:03:05,10.7,-1.0,9.9,0.0,223.0,0.0,-0.02,1.0,99.0,49.0,32.0,0.0,30.01,2242.0,,,153.0,,,,,0.0,0.0,,,,,,,2.0,,,-43.0,,,,,1.0,0.0,0.0,1200.0,71.0,27.0,1029.0,1029.0,13.3,2.2,,2.2,25.9,,,39.3,0.0,0.0,6.3,7.6,5.9,,,,,51.0,566.0,54.0,570.0,52.0,562.0,55.0,572.0,,,7.0,0.0,,25.9,17.0,0.001,,,0.654,0.721,70.6,26.7,,,,,,1029.0,2026-03-21 16:01:08-07:00
124.06,2.0,10.0,2026-03-21 23:03:07,37.08158,-121.59958,354.0,0.0,44.3,-12.6,,,,,23:03:06,10.7,-1.0,9.9,0.0,226.0,-0.0,-0.02,1.0,99.0,91.0,32.0,0.0,30.01,2242.0,,,153.0,,,,,0.0,0.0,,,,,,,2.0,,,-43.0,,,,,1.0,0.0,0.0,1200.0,71.0,27.0,1042.0,1042.0,13.3,2.1,,2.1,25.7,,,39.3,0.0,0.0,6.2,7.6,5.9,,,,,52.0,567.0,54.0,572.0,52.0,563.0,55.0,572.0,,,7.0,0.0,,25.7,17.0,0.001,,,0.653,0.72,70.9,26.7,,,,,,1042.0,2026-03-21 16:01:08-07:00
125.06,2.0,10.0,2026-03-21 23:03:08,37.08158,-121.59958,354.0,0.0,44.3,-12.6,,,,,23:03:07,10.7,-1.0,9.9,0.0,226.0,-0.0,-0.02,0.9,99.0,42.0,32.0,0.0,30.01,2242.0,,,153.0,,,,,0.0,0.0,,,,,,,2.0,,,-43.0,,,,,1.0,0.0,0.0,1200.0,71.0,27.0,1042.0,1042.0,13.2,2.2,,2.2,25.8,,,39.3,0.0,0.0,6.2,7.6,5.9,,,,,53.0,568.0,54.0,573.0,53.0,564.0,56.0,574.0,,,7.0,0.0,,25.8,17.0,0.001,,,0.653,0.719,71.2,26.7,,,,,,1042.0,2026-03-21 16:01:08-07:00
126.06,2.0,10.0,2026-03-21 23:03:09,37.0816,-121.59959,350.0,0.0,44.3,-12.6,,,,,23:03:08,10.8,-1.0,9.8,0.0,227.0,-0.0,-0.02,1.0,99.0,50.0,32.0,0.0,30.01,2249.0,,,153.0,,,,,0.0,0.0,,,,,,,1.0,,,5.0,,,,,1.0,0.0,0.0,1200.0,71.0,27.0,1040.0,1040.0,13.2,2.2,,2.2,25.8,,,39.3,0.0,0.0,6.1,7.6,5.9,,,,,53.0,570.0,55.0,575.0,53.0,565.0,56.0,575.0,,,7.0,0.0,,25.8,17.0,0.001,,,0.656,0.73,71.0,26.7,,,,,,1040.0,2026-03-21 16:01:08-07:00
127.06,2.0,10.0,2026-03-21 23:03:10,37.0816,-121.59959,348.0,0.0,44.3,-12.6,,,,,23:03:09,10.8,-1.1,9.7,0.0,228.0,-0.0,-0.02,1.0,99.0,73.0,32.0,0.0,30.01,2249.0,,,153.0,,,,,0.0,0.0,,,,,,,0.0,,,6.0,,,,,1.0,0.0,0.0,1200.0,71.0,27.0,1048.0,1048.0,13.1,2.2,,2.2,25.8,,,39.3,0.0,0.0,6.0,7.6,5.9,,,,,53.0,571.0,56.0,575.0,54.0,566.0,57.0,575.0,,,7.0,0.0,,25.8,17.0,0.001,,,0.654,0.73,71.2,26.8,,,,,,1048.0,2026-03-21 16:01:08-07:00
128.06,2.0,10.0,2026-03-21 23:03:11,37.0816,-121.59959,348.0,0.0,44.3,-12.6,,,,,23:03:10,10.8,-1.1,9.7,0.0,230.0,-0.0,-0.02,1.1,99.0,84.0,32.0,0.0,30.01,2249.0,,,153.0,,,,,0.0,0.0,,,,,,,0.0,,,4.0,,,,,1.0,0.0,0.0,1200.0,71.0,27.0,1066.0,1066.0,13.1,2.1,,2.1,25.9,,,39.3,0.0,0.0,5.9,7.6,5.9,,,,,54.0,572.0,56.0,576.0,55.0,568.0,58.0,579.0,,,7.0,0.0,,25.9,17.0,0.001,,,0.653,0.728,71.4,26.8,,,,,,1066.0,2026-03-21 16:01:08-07:00
129.06,2.0,10.0,2026-03-21 23:03:12,37.0816,-121.59959,348.0,0.0,44.3,-12.6,,,,,23:03:11,10.8,-1.1,9.7,0.0,230.0,0.0,-0.02,1.0,99.0,55.0,32.0,0.0,30.01,2252.0,,,153.0,,,,,0.0,0.0,,,,,,,0.0,,,5.0,,,,,1.0,0.0,0.0,1200.0,72.0,27.0,1064.0,1064.0,13.0,2.1,,2.1,25.9,,,39.3,0.0,0.0,5.9,7.6,5.9,,,,,55.0,573.0,57.0,578.0,55.0,568.0,58.0,581.0,,,7.0,0.0,,25.9,17.0,0.001,,,0.654,0.723,71.6,26.8,,,,,,1064.0,2026-03-21 16:01:08-07:00
130.06,2.0,10.0,2026-03-21 23:03:13,37.08161,-121.59959,346.0,0.0,44.3,-12.6,,,,,23:03:12,10.7,-1.1,9.7,0.0,230.0,0.0,-0.01,1.0,99.0,22.0,32.0,0.0,30.01,2252.0,,,153.0,,,,,0.0,0.0,,,,,,,0.0,,,5.0,,,,,1.0,0.0,0.0,1200.0,72.0,27.0,1064.0,1064.0,12.9,2.1,,2.1,25.9,,,39.3,0.0,0.0,5.8,7.6,5.9,,,,,55.0,574.0,57.0,580.0,56.0,570.0,59.0,584.0,,,7.0,0.0,,25.9,17.0,0.001,,,0.653,0.721,71.6,26.8,,,,,,1064.0,2026-03-21 16:01:08-07:00
131.06,2.0,10.0,2026-03-21 23:03:14,37.08161,-121.5996,345.0,0.0,44.3,-12.6,,,,,23:03:13,10.7,-1.2,9.7,0.0,230.0,-0.0,-0.02,1.0,99.0,-12.0,32.0,0.0,30.01,2252.0,,,153.0,,,,,0.0,0.0,,,,,,,0.0,,,5.0,,,,,1.0,0.0,0.0,1200.0,72.0,27.0,1059.0,1059.0,12.8,2.1,,2.1,25.9,,,39.3,0.0,0.0,5.7,7.6,5.9,,,,,56.0,575.0,58.0,580.0,56.0,571.0,60.0,584.0,,,7.0,0.0,,25.9,17.0,0.001,,,0.653,0.729,71.7,26.8,,,,,,1059.0,2026-03-21 16:01:08-07:00
132.06,2.0,10.0,2026-03-21 23:03:15,37.08161,-121.59959,345.0,0.0,44.3,-12.6,,,,,23:03:14,10.6,-1.1,9.6,0.0,230.0,-0.0,-0.02,1.0,99.0,17.0,32.0,0.0,30.01,2253.0,,,10.0,,,,,0.0,0.0,,,,,,,0.0,,,4.0,,,,,1.0,0.0,0.0,1200.0,72.0,27.0,1068.0,1068.0,12.8,2.1,,2.1,25.9,,,39.3,0.0,0.0,5.7,7.6,5.9,,,,,56.0,577.0,58.0,581.0,57.0,572.0,60.0,585.0,,,7.0,0.0,,25.9,17.0,0.001,,,0.653,0.728,71.9,26.8,,,,,,1068.0,2026-03-21 16:01:08-07:00
133.06,2.0,10.0,2026-03-21 23:03:16,37.08161,-121.59959,346.0,0.0,44.3,-12.6,,,,,23:03:15,10.7,-1.1,9.6,0.0,230.0,-0.1,-0.02,1.0,99.0,8.0,32.0,0.0,30.01,2253.0,,,10.0,,,,,0.0,0.0,,,,,,,0.0,,,4.0,,,,,1.0,0.0,0.0,1200.0,72.0,27.0,1070.0,1070.0,13.0,2.1,,2.1,25.8,,,39.3,0.0,0.0,5.6,7.6,5.9,,,,,57.0,578.0,59.0,583.0,58.0,573.0,61.0,588.0,,,7.0,0.0,,25.8,17.0,0.001,,,0.653,0.728,71.6,26.8,,,,,,1070.0,2026-03-21 16:01:08-07:00
134.06,2.0,10.0,2026-03-21 23:03:17,37.08161,-121.59959,346.0,0.0,44.3,-12.6,,,,,23:03:16,10.7,-1.1,9.6,0.0,230.0,-0.1,-0.02,0.9,99.0,3.0,32.0,0.0,30.01,2253.0,,,10.0,,,,,0.0,0.0,,,,,,,0.0,,,4.0,,,,,1.0,0.0,0.0,1200.0,72.0,27.0,1062.0,1062.0,12.9,2.1,,2.1,25.8,,,39.3,0.0,0.0,5.6,7.6,5.9,,,,,57.0,579.0,59.0,584.0,58.0,575.0,62.0,588.0,,,7.0,0.0,,25.8,17.0,0.001,,,0.654,0.723,71.6,26.9,,,,,,1062.0,2026-03-21 16:01:08-07:00
135.06,2.0,10.0,2026-03-21 23:03:18,37.08161,-121.59959,346.0,0.1,44.3,-12.6,,,,,23:03:17,10.8,-1.1,9.6,0.0,230.0,-0.0,-0.02,1.0,99.0,14.0,32.0,0.0,30.01,2253.0,,,10.0,,,,,0.0,0.0,,,,,,,0.0,,,4.0,,,,,1.0,0.0,0.0,1200.0,71.0,27.0,1055.0,1055.0,13.0,2.1,,2.1,25.8,,,39.3,0.0,0.0,5.5,7.6,5.9,,,,,58.0,580.0,60.0,585.0,58.0,577.0,62.0,589.0,,,7.0,0.0,,25.8,17.0,0.001,,,0.654,0.729,71.5,26.9,,,,,,1055.0,2026-03-21 16:01:08-07:00
136.06,2.0,10.0,2026-03-21 23:03:19,37.08162,-121.59959,344.0,0.0,44.3,-12.6,,,,,23:03:18,10.8,-1.1,9.6,0.0,230.0,-0.0,-0.02,1.0,99.0,12.0,32.0,0.0,30.01,2254.0,,,10.0,,,,,0.0,0.0,,,,,,,0.0,,,4.0,,,,,1.0,0.0,0.0,1200.0,71.0,27.0,1041.0,1041.0,13.1,2.1,,2.1,25.8,,,39.3,0.0,0.0,5.5,7.6,5.9,,,,,58.0,581.0,61.0,587.0,59.0,578.0,63.0,591.0,,,7.0,0.0,,25.8,17.0,0.001,,,0.653,0.723,71.0,26.9,,,,,,1041.0,2026-03-21 16:01:08-07:00
137.06,2.0,10.0,2026-03-21 23:03:20,37.08162,-121.59959,344.0,0.0,44.3,-12.6,,,,,23:03:19,10.8,-1.1,9.6,0.0,230.0,-0.0,-0.02,0.9,99.0,-16.0,32.0,0.0,30.01,2254.0,,,10.0,,,,,0.0,0.0,,,,,,,0.0,,,4.0,,,,,1.0,0.0,0.0,1200.0,71.0,27.0,1072.0,1072.0,13.2,2.1,,2.1,25.8,,,39.3,0.0,0.0,5.5,7.6,5.9,,,,,59.0,582.0,61.0,587.0,60.0,578.0,64.0,591.0,,,7.0,0.0,,25.8,17.0,0.001,,,0.654,0.719,71.1,26.9,,,,,,1072.0,2026-03-21 16:01:08-07:00
138.06,2.0,10.0,2026-03-21 23:03:21,37.08162,-121.59959,344.0,0.0,44.3,-12.6,,,,,23:03:20,10.7,-1.1,9.7,0.0,230.0,-0.0,-0.02,1.0,99.0,-54.0,32.0,0.0,30.01,2254.0,,,10.0,,,,,0.0,0.0,,,,,,,0.0,,,3.0,,,,,1.0,0.0,0.0,1200.0,71.0,27.0,1066.0,1066.0,13.2,2.1,,2.1,25.9,,,39.3,0.0,0.0,5.4,7.6,5.9,,,,,59.0,582.0,62.0,588.0,60.0,578.0,64.0,592.0,,,7.0,0.0,,25.9,17.0,0.001,,,0.654,0.718,71.5,26.9,,,,,,1066.0,2026-03-21 16:01:08-07:00
139.06,2.0,10.0,2026-03-21 23:03:22,37.08162,-121.59959,344.0,0.1,44.3,-12.6,,,,,23:03:21,10.7,-1.1,9.6,0.0,230.0,-0.0,-0.02,1.0,99.0,-78.0,32.0,0.0,30.01,2254.0,,,10.0,,,,,0.0,0.0,,,,,,,0.0,,,3.0,,,,,1.0,0.0,0.0,1200.0,71.0,27.0,1062.0,1062.0,13.1,2.1,,2.1,25.9,,,39.3,0.0,0.0,5.4,7.6,5.9,,,,,60.0,583.0,62.0,588.0,61.0,580.0,65.0,594.0,,,7.0,0.0,,25.9,17.0,0.001,,,0.653,0.729,71.3,26.9,,,,,,1062.0,2026-03-21 16:01:08-07:00
140.06,2.0,10.0,2026-03-21 23:03:23,37.08162,-121.59959,344.0,0.0,44.3,-12.6,,,,,23:03:22,10.7,-1.1,9.7,0.0,230.0,-0.0,-0.02,1.0,99.0,-29.0,32.0,0.0,30.01,2254.0,,,10.0,,,,,0.0,0.0,,,,,,,0.0,,,3.0,,,,,1.0,0.0,0.0,1200.0,71.0,27.0,1055.0,1055.0,13.0,2.1,,2.1,25.9,,,39.3,0.0,0.0,5.3,7.6,5.9,,,,,60.0,584.0,63.0,589.0,61.0,581.0,65.0,594.0,,,7.0,0.0,,25.9,17.0,0.001,,,0.653,0.731,71.1,27.0,,,,,,1055.0,2026-03-21 16:01:08-07:00
141.06,2.0,10.0,2026-03-21 23:03:24,37.08162,-121.59959,344.0,0.0,44.3,-12.6,,,,,23:03:23,10.7,-1.1,9.7,0.0,230.0,-0.0,-0.02,1.0,99.0,-72.0,32.0,0.0,30.01,2254.0,,,10.0,,,,,0.0,0.0,,,,,,,0.0,,,3.0,,,,,1.0,0.0,0.0,1200.0,71.0,27.0,1055.0,1055.0,13.1,2.1,,2.1,25.8,,,39.3,0.0,0.0,5.3,7.6,5.9,,,,,61.0,585.0,63.0,590.0,62.0,581.0,66.0,595.0,,,7.0,0.0,,25.8,17.0,0.001,,,0.656,0.726,71.1,27.0,,,,,,1055.0,2026-03-21 16:01:08-07:00
142.06,2.0,10.0,2026-03-21 23:03:25,37.08162,-121.59959,343.0,0.0,44.3,-12.6,,,,,23:03:24,10.6,-1.1,9.6,0.0,230.0,-0.1,-0.02,1.0,99.0,-20.0,32.0,0.0,30.01,2254.0,,,10.0,,,,,0.0,0.0,,,,,,,0.0,,,3.0,,,,,1.0,0.0,0.0,1200.0,71.0,27.0,1056.0,1056.0,13.1,2.1,,2.1,25.8,,,39.3,0.0,0.0,5.2,7.6,5.9,,,,,61.0,586.0,64.0,591.0,62.0,582.0,67.0,596.0,,,7.0,0.0,,25.8,17.0,0.001,,,0.653,0.723,71.3,27.0,,,,,,1056.0,2026-03-21 16:01:08-07:00
143.06,2.0,10.0,2026-03-21 23:03:26,37.08162,-121.59959,343.0,0.0,44.3,-12.6,,,,,23:03:25,10.6,-1.0,9.7,0.0,230.0,-0.0,-0.02,0.9,99.0,-38.0,32.0,0.0,30.01,2254.0,,,10.0,,,,,0.0,0.0,,,,,,,0.0,,,3.0,,,,,1.0,0.0,0.0,1200.0,72.0,27.0,1069.0,1069.0,13.0,2.1,,2.1,25.9,,,39.2,0.0,0.0,5.2,7.6,5.9,,,,,62.0,586.0,64.0,591.0,63.0,583.0,67.0,595.0,,,7.0,0.0,,25.9,17.0,0.001,,,0.654,0.721,71.6,27.0,,,,,,1069.0,2026-03-21 16:01:08-07:00
144.06,2.0,10.0,2026-03-21 23:03:27,37.08162,-121.59959,343.0,0.0,44.3,-12.6,,,,,23:03:26,10.6,-1.0,9.7,0.0,230.0,-0.0,-0.02,1.0,99.0,-41.0,32.0,0.0,29.96,2254.0,,,10.0,,,,,0.0,0.0,,,,,,,0.0,,,3.0,,,,,1.0,0.0,0.0,1200.0,72.0,27.0,1072.0,1072.0,12.9,2.1,,2.1,25.9,,,39.2,0.0,0.0,5.2,7.6,5.9,,,,,62.0,586.0,65.0,592.0,64.0,584.0,68.0,598.0,,,7.0,0.0,,25.9,17.0,0.001,,,0.653,0.724,71.6,27.0,,,,,,1072.0,2026-03-21 16:01:08-07:00
145.06,2.0,10.0,2026-03-21 23:03:28,37.08162,-121.59959,342.0,0.0,44.3,-12.6,,,,,23:03:27,10.6,-0.9,9.8,0.0,230.0,-0.0,-0.02,1.0,99.0,-45.0,32.0,0.0,29.96,2262.0,,,10.0,,,,,0.0,0.0,,,,,,,0.0,,,3.0,,,,,1.0,0.0,0.0,1200.0,71.0,27.0,1073.0,1073.0,12.9,2.1,,2.1,25.9,,,39.2,0.0,0.0,5.2,7.6,5.9,,,,,63.0,588.0,65.0,593.0,64.0,584.0,68.0,599.0,,,7.0,0.0,,25.9,17.0,0.001,,,0.654,0.725,71.5,27.1,,,,,,1073.0,2026-03-21 16:01:08-07:00
146.06,2.0,10.0,2026-03-21 23:03:29,37.08162,-121.59959,341.0,0.0,44.3,-12.6,,,,,23:03:28,10.7,-1.0,9.8,0.0,230.0,-0.0,-0.02,1.0,99.0,14.0,32.0,0.0,29.96,2262.0,,,10.0,,,,,0.0,0.0,,,,,,,0.0,,,3.0,,,,,1.0,0.0,0.0,1200.0,72.0,27.0,1078.0,1078.0,12.9,2.1,,2.1,25.9,,,39.2,0.0,0.0,5.1,7.6,5.9,,,,,63.0,588.0,66.0,594.0,65.0,585.0,69.0,600.0,,,7.0,0.0,,25.9,17.0,0.001,,,0.653,0.723,71.6,27.1,,,,,,1078.0,2026-03-21 16:01:08-07:00
147.06,2.0,10.0,2026-03-21 23:03:30,37.08162,-121.59959,341.0,0.0,44.3,-12.6,,,,,23:03:29,10.7,-1.0,9.7,0.0,230.0,-0.1,-0.02,1.0,99.0,-18.0,32.0,0.0,29.96,2262.0,,,10.0,,,,,0.0,0.0,,,,,,,0.0,,,3.0,,,,,1.0,0.0,0.0,1200.0,72.0,27.0,1070.0,1070.0,12.9,2.2,,2.2,25.9,,,39.2,0.0,0.0,5.1,7.6,5.9,,,,,64.0,589.0,67.0,595.0,65.0,586.0,70.0,602.0,,,7.0,0.0,,25.9,17.0,0.001,,,0.653,0.728,71.5,27.1,,,,,,1070.0,2026-03-21 16:01:08-07:00
