Session Time,GPS Fix Quality,Number of Satellites,GPS Date & Time,Latitude (deg),Longitude (deg),GPS Altitude (feet),Ground Speed (knots),Ground Track (deg),Mag Var (deg),Cross Track Error (NM),Destination Waypoint ID,Range to Destination (NM),Bearing to Destination (deg),System Time,Pitch (deg),Roll (deg),Magnetic Heading (deg),Indicated Airspeed (knots),Pressure Altitude (ft),Turn Rate (deg/s),Lateral Accel (g),Vertical Accel(g),Angle of Attack (%),Vertical Speed (ft/min),OAT (deg C),True Airspeed (knots),Barometer Setting (inHg),Density Altitude (ft),Wind Direction (deg),Wind Speed (knots),Heading Bug (deg),Altitude Bug (ft),Airspeed Bug (knots),Vertical Speed Bug (ft/min),Course (deg),CDI Source Type,CDI Source Port,CDI Scale (NM),CDI Deflection (%),Glideslope (%),AP Engaged,AP Roll Mode,AP Roll Force,AP Roll Position (steps),AP Roll Slip (bool),AP Pitch Force,AP Pitch Position (steps),AP Pitch Slip (bool),AP Yaw Force,AP Yaw Position,AP Yaw Slip (bool),Transponder Status,Transponder Reply (bool),Transponder Identing (bool),Transponder Code (octal),Oil Pressure (PSI),Oil Temp (deg C),RPM L,RPM R,Manifold Pressure (inHg),Fuel Flow 1 (gal/hr),Fuel Flow 2 (gal/hr),Total Fuel Flow (gal/hr),Fuel Pressure (PSI),Fuel Level L (gal),Fuel Level R (gal),Fuel Remaining (gal),Volts 1,Volts 2,Amps,Hobbs Time,Tach Time,Thermocouple 1 (deg C),Thermocouple 2 (deg C),Thermocouple 3 (deg C),Thermocouple 4 (deg C),CHT 4 (deg C),EGT 4 (deg C),CHT 3 (deg C),EGT 3 (deg C),CHT 2 (deg C),EGT 2 (deg C),CHT 1 (deg C),EGT 1 (deg C),Thermocouple 13 (deg C),Thermocouple 14 (deg C),ELEV POSITION (%),CO PPM PRESSURE (PSI),GP Input 3,FUEL PRESSURE (PSI),AILERN POSITION (%),CANOPY CONTACT (V),GP Input 7,GP Input 8,LEFT LEVEL (Sensor V),RIGHT LEVEL (Sensor V),OIL PRESSURE (PSI),OIL TEMPERATURE (deg C),GP Input 13,Contacts,Percent Power,EGT Leaning State,Unnamed: 103,RPM,Flight ID
7.06,1.0,9.0,2026-05-13 17:41:18,37.08141,-121.59962,454.0,0.0,84.2,-12.6,,,,,17:41:18,10.8,-0.4,6.8,0.0,107.0,0.1,-0.01,1.0,99.0,-82.0,21.0,0.0,29.99,877.0,,,309.0,,,,,0.0,0.0,,,,,,,,,,,,,,,,,,,0.0,16.0,0.0,0.0,30.2,0.0,,0.0,0.0,,,37.0,0.0,0.0,-0.6,14.9,12.3,,,,,17.0,18.0,17.0,19.0,17.0,18.0,17.0,19.0,,,-31.0,254.5,,0.0,8.0,0.0,,,0.654,0.814,0.0,16.4,,,,,,0.0,2026-05-13 10:41:18-07:00
8.06,1.0,9.0,2026-05-13 17:41:19,37.08144,-121.59962,390.0,0.0,84.2,-12.6,,,,,17:41:19,10.8,-0.4,6.8,0.0,106.0,0.1,-0.01,1.0,99.0,-70.0,21.0,0.0,29.99,877.0,,,309.0,,,,,0.0,0.0,,,,,,,,,,,,,,,,,,,0.0,16.0,0.0,0.0,30.2,0.0,,0.0,0.0,,,37.0,0.0,0.0,-0.6,14.9,12.3,,,,,17.0,18.0,17.0,19.0,17.0,18.0,17.0,19.0,,,-31.0,254.5,,0.0,8.0,0.0,,,0.654,0.815,0.0,16.4,,,,,,0.0,2026-05-13 10:41:18-07:00
9.06,1.0,9.0,2026-05-13 17:41:20,37.08144,-121.59962,388.0,0.0,84.2,-12.6,,,,,17:41:20,10.8,-0.4,6.8,0.0,105.0,0.1,-0.01,1.0,99.0,-65.0,21.0,0.0,29.99,877.0,,,309.0,,,,,0.0,0.0,,,,,,,,,,,,,,,,,,,0.0,16.0,0.0,0.0,30.2,0.0,,0.0,0.0,,,37.0,0.0,0.0,-0.6,14.9,12.3,,,,,17.0,18.0,17.0,19.0,17.0,18.0,18.0,19.0,,,-31.0,254.5,,0.0,8.0,0.0,,,0.653,0.814,0.0,16.4,,,,,,0.0,2026-05-13 10:41:18-07:00
10.06,1.0,9.0,2026-05-13 17:41:21,37.08144,-121.59962,386.0,0.0,84.2,-12.6,,,,,17:41:21,10.8,-0.4,6.8,0.0,103.0,0.1,-0.01,1.0,99.0,-82.0,21.0,0.0,29.99,883.0,,,309.0,,,,,0.0,0.0,,,,,,,,,,,,,,,,,,,0.0,16.0,0.0,0.0,30.2,0.0,,0.0,0.0,,,37.0,0.0,0.0,-0.6,14.9,12.3,,,,,17.0,18.0,17.0,19.0,17.0,18.0,18.0,19.0,,,-31.0,254.5,,0.0,8.0,0.0,,,0.653,0.814,0.0,16.4,,,,,,0.0,2026-05-13 10:41:18-07:00
11.06,1.0,9.0,2026-05-13 17:41:22,37.08144,-121.59962,385.0,0.0,84.2,-12.6,,,,,17:41:22,10.8,-0.4,6.8,0.0,102.0,0.1,-0.01,1.0,99.0,-55.0,21.0,0.0,29.99,881.0,,,309.0,,,,,0.0,0.0,,,,,,,,,,,,,,,,,,,0.0,16.0,0.0,0.0,30.2,0.0,,0.0,0.0,,,37.0,0.0,0.0,-0.6,14.9,12.3,,,,,17.0,18.0,17.0,19.0,17.0,18.0,18.0,19.0,,,-31.0,254.5,,0.0,8.0,0.0,,,0.654,0.814,0.0,16.4,,,,,,0.0,2026-05-13 10:41:18-07:00
12.06,1.0,9.0,2026-05-13 17:41:23,37.08145,-121.59962,384.0,0.0,84.2,-12.6,,,,,17:41:23,10.8,-0.4,6.7,0.0,100.0,0.1,-0.01,1.0,99.0,-99.0,21.0,0.0,29.99,881.0,,,309.0,,,,,0.0,0.0,,,,,,,,,,,,,,,,,,,0.0,16.0,0.0,0.0,30.2,0.0,,0.0,0.0,,,37.0,0.0,0.0,-0.6,14.9,12.3,,,,,17.0,18.0,17.0,19.0,17.0,18.0,18.0,19.0,,,-31.0,254.5,,0.0,8.0,0.0,,,0.654,0.814,0.0,16.4,,,,,,0.0,2026-05-13 10:41:18-07:00
13.06,1.0,9.0,2026-05-13 17:41:24,37.08145,-121.59962,383.0,0.0,84.2,-12.6,,,,,17:41:24,10.8,-0.5,6.7,0.0,97.0,0.1,-0.01,1.0,99.0,-139.0,21.0,0.0,29.99,881.0,,,309.0,,,,,0.0,0.0,,,,,,,,,,,,,,,,,,,0.0,16.0,0.0,0.0,30.2,0.0,,0.0,0.0,,,37.0,0.0,0.0,-0.6,14.9,12.3,,,,,17.0,18.0,17.0,19.0,17.0,18.0,18.0,19.0,,,-30.0,254.5,,0.0,8.0,0.0,,,0.653,0.815,0.0,16.4,,,,,,0.0,2026-05-13 10:41:18-07:00
14.06,1.0,9.0,2026-05-13 17:41:25,37.08145,-121.59962,381.0,0.0,84.2,-12.6,,,,,17:41:25,10.8,-0.5,6.7,0.0,94.0,0.1,-0.01,1.0,99.0,-132.0,21.0,0.0,29.99,875.0,,,309.0,,,,,0.0,0.0,,,,,,,,,,,,,,,,,,,0.0,16.0,0.0,0.0,30.2,0.0,,0.0,0.0,,,37.0,0.0,0.0,-0.6,14.9,12.3,,,,,17.0,18.0,17.0,19.0,17.0,18.0,18.0,19.0,,,-31.0,254.5,,0.0,8.0,0.0,,,0.653,0.814,0.0,16.4,,,,,,0.0,2026-05-13 10:41:18-07:00
15.06,1.0,9.0,2026-05-13 17:41:26,37.08145,-121.59962,379.0,0.0,84.2,-12.6,,,,,17:41:26,10.8,-0.5,6.7,0.0,91.0,0.1,-0.01,1.0,99.0,-160.0,21.0,0.0,29.99,875.0,,,309.0,,,,,0.0,0.0,,,,,,,,,,,,,,,,,,,0.0,16.0,0.0,0.0,30.2,0.0,,0.0,0.0,,,37.0,0.0,0.0,-0.6,14.9,12.3,,,,,17.0,18.0,17.0,19.0,17.0,18.0,18.0,19.0,,,-31.0,254.5,,0.0,8.0,0.0,,,0.654,0.814,0.0,16.4,,,,,,0.0,2026-05-13 10:41:18-07:00
16.06,1.0,9.0,2026-05-13 17:41:27,37.08146,-121.59962,376.0,0.0,84.2,-12.6,,,,,17:41:27,10.7,-0.5,6.7,0.0,88.0,0.1,-0.01,1.0,99.0,-200.0,21.0,0.0,29.99,874.0,,,309.0,,,,,0.0,0.0,,,,,,,,,,,,,,,,,,,0.0,16.0,0.0,0.0,30.2,0.0,,0.0,0.0,,,37.0,0.0,0.0,-0.6,14.9,12.3,,,,,17.0,18.0,17.0,19.0,17.0,18.0,18.0,19.0,,,-31.0,254.5,,0.0,8.0,0.0,,,0.653,0.814,0.0,16.4,,,,,,0.0,2026-05-13 10:41:18-07:00
17.06,1.0,9.0,2026-05-13 17:41:28,37.08146,-121.59962,374.0,0.0,84.2,-12.6,,,,,17:41:28,10.8,-0.5,6.7,0.0,85.0,0.1,-0.01,1.0,99.0,-171.0,21.0,0.0,29.99,871.0,,,309.0,,,,,0.0,0.0,,,,,,,,,,,,,,,,,,,0.0,16.0,0.0,0.0,30.2,0.0,,0.0,0.0,,,37.0,0.0,0.0,-0.6,14.9,12.3,,,,,17.0,18.0,17.0,19.0,17.0,18.0,18.0,19.0,,,-31.0,254.5,,0.0,8.0,0.0,,,0.653,0.814,0.0,16.4,,,,,,0.0,2026-05-13 10:41:18-07:00
18.06,1.0,9.0,2026-05-13 17:41:29,37.08146,-121.59962,371.0,0.0,84.2,-12.6,,,,,17:41:29,10.8,-0.5,6.7,0.0,84.0,0.1,-0.01,1.0,99.0,-125.0,21.0,0.0,29.99,870.0,,,309.0,,,,,0.0,0.0,,,,,,,,,,,,,,,,,,,0.0,16.0,0.0,0.0,30.2,0.0,,0.0,0.0,,,37.0,0.0,0.0,-0.6,14.9,12.3,,,,,17.0,18.0,17.0,19.0,17.0,18.0,18.0,19.0,,,-30.0,254.5,,0.0,8.0,0.0,,,0.653,0.814,0.0,16.4,,,,,,0.0,2026-05-13 10:41:18-07:00
19.06,1.0,9.0,2026-05-13 17:41:30,37.08146,-121.59962,369.0,0.0,84.2,-12.6,,,,,17:41:30,10.8,-0.5,6.6,0.0,84.0,0.1,-0.01,1.0,99.0,-98.0,21.0,0.0,29.99,870.0,,,309.0,,,,,0.0,0.0,,,,,,,,,,,,,,,,,,,0.0,16.0,0.0,0.0,30.2,0.0,,0.0,0.0,,,37.0,0.0,0.0,-0.6,14.9,12.3,,,,,17.0,18.0,17.0,19.0,17.0,18.0,18.0,19.0,,,-31.0,254.5,,0.0,8.0,0.0,,,0.653,0.814,0.0,16.4,,,,,,0.0,2026-05-13 10:41:18-07:00
20.06,1.0,9.0,2026-05-13 17:41:31,37.08147,-121.59962,366.0,0.0,84.2,-12.6,,,,,17:41:31,10.8,-0.6,6.5,0.0,83.0,0.1,-0.01,1.0,99.0,-73.0,21.0,0.0,29.99,870.0,,,309.0,,,,,0.0,0.0,,,,,,,,,,,,,,,,,,,0.0,16.0,0.0,0.0,30.2,0.0,,0.0,0.0,,,37.0,0.0,0.0,-0.6,14.9,12.3,,,,,17.0,18.0,18.0,19.0,18.0,19.0,18.0,19.0,,,-31.0,254.5,,0.0,8.0,0.0,,,0.653,0.814,0.0,16.4,,,,,,0.0,2026-05-13 10:41:18-07:00
21.06,1.0,9.0,2026-05-13 17:41:32,37.08147,-121.59962,363.0,0.0,84.2,-12.6,,,,,17:41:32,10.8,-0.5,6.6,0.0,83.0,0.1,-0.01,1.0,99.0,-26.0,21.0,0.0,29.99,869.0,,,309.0,,,,,0.0,0.0,,,,,,,,,,,,,,,,,,,0.0,16.0,0.0,0.0,30.2,0.0,,0.0,0.0,,,37.0,0.0,0.0,-0.6,14.9,12.3,,,,,17.0,18.0,17.0,19.0,17.0,18.0,18.0,19.0,,,-32.0,254.4,,0.0,8.0,0.0,,,0.653,0.814,0.0,16.4,,,,,,0.0,2026-05-13 10:41:18-07:00
22.06,1.0,9.0,2026-05-13 17:41:33,37.08147,-121.59962,360.0,0.0,84.2,-12.6,,,,,17:41:33,10.8,-0.6,6.5,0.0,83.0,0.1,-0.01,1.0,99.0,-27.0,21.0,0.0,29.99,869.0,,,309.0,,,,,0.0,0.0,,,,,,,,,,,,,,,,,,,0.0,16.0,0.0,0.0,30.2,0.0,,0.0,0.0,,,37.0,0.0,0.0,-0.6,14.9,12.3,,,,,17.0,18.0,18.0,19.0,18.0,19.0,18.0,19.0,,,-32.0,254.4,,0.0,8.0,0.0,,,0.654,0.814,0.0,16.4,,,,,,0.0,2026-05-13 10:41:18-07:00
23.06,1.0,9.0,2026-05-13 17:41:34,37.08148,-121.59962,357.0,0.0,84.2,-12.6,,,,,17:41:34,10.8,-0.6,6.5,0.0,81.0,0.1,-0.01,1.0,99.0,-64.0,21.0,0.0,29.99,869.0,,,309.0,,,,,0.0,0.0,,,,,,,,,,,,,,,,,,,0.0,16.0,0.0,0.0,30.2,0.0,,0.0,0.0,,,37.0,0.0,0.0,-0.6,14.9,12.3,,,,,17.0,18.0,17.0,19.0,18.0,18.0,18.0,19.0,,,-33.0,254.4,,0.0,8.0,0.0,,,0.653,0.814,0.0,16.4,,,,,,0.0,2026-05-13 10:41:18-07:00
24.06,1.0,9.0,2026-05-13 17:41:35,37.08148,-121.59962,355.0,0.0,84.2,-12.6,,,,,17:41:35,10.8,-0.6,6.5,0.0,80.0,0.1,-0.01,1.0,99.0,-71.0,21.0,0.0,29.99,868.0,,,309.0,,,,,0.0,0.0,,,,,,,,,,,,,,,,,,,0.0,16.0,0.0,0.0,30.2,0.0,,0.0,0.0,,,37.0,0.0,0.0,-0.6,14.9,12.3,,,,,17.0,18.0,17.0,19.0,18.0,18.0,18.0,19.0,,,-33.0,254.4,,0.0,8.0,0.0,,,0.653,0.814,0.0,16.4,,,,,,0.0,2026-05-13 10:41:18-07:00
25.06,1.0,9.0,2026-05-13 17:41:36,37.08148,-121.59961,353.0,0.0,84.2,-12.6,,,,,17:41:36,10.8,-0.6,6.4,0.0,79.0,0.1,-0.01,1.0,99.0,-80.0,21.0,0.0,29.99,868.0,,,309.0,,,,,0.0,0.0,,,,,,,,,,,,,,,,,,,0.0,16.0,0.0,0.0,30.2,0.0,,0.0,0.0,,,37.0,0.0,0.0,-0.6,14.9,12.3,,,,,17.0,18.0,17.0,19.0,18.0,18.0,18.0,19.0,,,-33.0,254.4,,0.0,8.0,0.0,,,0.653,0.814,0.0,16.4,,,,,,0.0,2026-05-13 10:41:18-07:00
26.06,1.0,9.0,2026-05-13 17:41:37,37.08149,-121.59961,352.0,0.0,84.2,-12.6,,,,,17:41:37,10.8,-0.6,6.4,0.0,78.0,0.1,-0.01,1.0,99.0,-69.0,22.0,0.0,29.99,868.0,,,309.0,,,,,0.0,0.0,,,,,,,,,,,,,,,,,,,0.0,16.0,0.0,0.0,30.2,0.0,,0.0,0.0,,,37.0,0.0,0.0,-0.6,14.9,12.3,,,,,17.0,18.0,17.0,19.0,18.0,18.0,18.0,19.0,,,-34.0,254.4,,0.0,8.0,0.0,,,0.653,0.814,0.0,16.4,,,,,,0.0,2026-05-13 10:41:18-07:00
27.06,1.0,9.0,2026-05-13 17:41:38,37.08149,-121.59961,350.0,0.0,84.2,-12.6,,,,,17:41:38,10.8,-0.6,6.4,0.0,77.0,0.1,-0.01,1.0,99.0,-48.0,22.0,0.0,29.99,873.0,,,309.0,,,,,0.0,0.0,,,,,,,,,,,,,,,,,,,0.0,16.0,0.0,0.0,30.2,0.0,,0.0,0.0,,,37.0,0.0,0.0,-0.6,14.9,12.3,,,,,17.0,18.0,17.0,19.0,18.0,18.0,18.0,19.0,,,-34.0,254.4,,0.0,8.0,0.0,,,0.653,0.814,0.0,16.4,,,,,,0.0,2026-05-13 10:41:18-07:00
28.06,1.0,9.0,2026-05-13 17:41:39,37.08149,-121.59961,350.0,0.0,84.2,-12.6,,,,,17:41:39,10.8,-0.6,6.4,0.0,77.0,0.1,-0.01,1.0,99.0,-15.0,22.0,0.0,29.99,873.0,,,309.0,,,,,0.0,0.0,,,,,,,,,,,,,,,,,,,0.0,16.0,0.0,0.0,30.2,0.0,,0.0,0.0,,,37.0,0.0,0.0,-0.6,14.9,12.3,,,,,17.0,18.0,17.0,19.0,18.0,18.0,18.0,19.0,,,-33.0,254.4,,0.0,8.0,0.0,,,0.653,0.814,0.0,16.4,,,,,,0.0,2026-05-13 10:41:18-07:00
29.06,1.0,9.0,2026-05-13 17:41:40,37.08149,-121.59961,349.0,0.0,84.2,-12.6,,,,,17:41:40,10.8,-0.6,6.4,0.0,77.0,0.1,-0.01,1.0,99.0,-2.0,22.0,0.0,29.99,873.0,,,309.0,,,,,0.0,0.0,,,,,,,,,,,,,,,,,,,0.0,16.0,0.0,0.0,30.2,0.0,,0.0,0.0,,,37.0,0.0,0.0,-0.6,14.9,12.3,,,,,17.0,18.0,17.0,19.0,17.0,18.0,18.0,19.0,,,-33.0,254.4,,0.0,8.0,0.0,,,0.653,0.814,0.0,16.4,,,,,,0.0,2026-05-13 10:41:18-07:00
30.06,1.0,9.0,2026-05-13 17:41:41,37.08149,-121.59961,349.0,0.0,84.2,-12.6,-9.99,KTCY,37.2,11.7,17:41:41,10.8,-0.6,6.5,0.0,77.0,0.1,-0.01,1.0,99.0,25.0,22.0,0.0,29.99,872.0,,,309.0,,,,30.0,0.0,0.0,5.0,-99.0,,,,,,,,,,,,,,,,,0.0,16.0,0.0,0.0,30.2,0.0,,0.0,0.0,,,37.0,0.0,0.0,-0.6,14.9,12.3,,,,,17.0,18.0,17.0,19.0,17.0,18.0,18.0,19.0,,,-33.0,254.4,,0.0,8.0,0.0,,,0.653,0.814,0.0,16.4,,,,,,0.0,2026-05-13 10:41:18-07:00
31.06,1.0,9.0,2026-05-13 17:41:42,37.08149,-121.59961,349.0,0.0,84.2,-12.6,-9.99,KTCY,37.2,11.7,17:41:42,10.8,-0.5,6.5,0.0,77.0,0.1,-0.01,1.0,99.0,5.0,22.0,0.0,29.99,872.0,,,309.0,,,,30.0,0.0,0.0,5.0,-99.0,,,,,,,,,,,,,,,,,0.0,16.0,0.0,0.0,30.2,0.0,,0.0,0.0,,,37.0,0.0,0.0,-0.6,14.9,12.3,,,,,17.0,18.0,17.0,19.0,17.0,18.0,18.0,19.0,,,-33.0,254.4,,0.0,8.0,0.0,,,0.653,0.814,0.0,16.4,,,,,,0.0,2026-05-13 10:41:18-07:00
32.06,1.0,9.0,2026-05-13 17:41:43,37.08149,-121.59961,349.0,0.0,84.2,-12.6,-9.99,KTCY,37.2,11.7,17:41:43,10.7,-0.6,6.5,0.0,77.0,0.1,-0.01,1.0,99.0,5.0,22.0,0.0,29.99,872.0,,,309.0,,,,30.0,0.0,0.0,5.0,-99.0,,,,,,,,,,,,,,,,,0.0,16.0,0.0,0.0,30.2,0.0,,0.0,0.0,,,37.0,0.0,0.0,-0.6,14.9,12.3,,,,,17.0,18.0,17.0,19.0,17.0,18.0,18.0,19.0,,,-34.0,254.4,,0.0,8.0,0.0,,,0.653,0.814,0.0,16.4,,,,,,0.0,2026-05-13 10:41:18-07:00
33.06,1.0,9.0,2026-05-13 17:41:44,37.08149,-121.59961,350.0,0.0,84.2,-12.6,-9.99,KTCY,37.2,11.7,17:41:44,10.7,-0.6,6.6,0.0,77.0,0.1,-0.01,1.0,99.0,-5.0,22.0,0.0,29.99,873.0,,,309.0,,,,30.0,0.0,0.0,5.0,-99.0,,,,,,,,,,,,,,,,,0.0,16.0,0.0,0.0,30.2,0.0,,0.0,0.0,,,37.0,0.0,0.0,-0.6,14.9,12.3,,,,,17.0,18.0,17.0,19.0,17.0,18.0,18.0,19.0,,,-34.0,254.4,,0.0,8.0,0.0,,,0.653,0.814,0.0,16.4,,,,,,0.0,2026-05-13 10:41:18-07:00
34.06,1.0,9.0,2026-05-13 17:41:45,37.08149,-121.59961,350.0,0.0,84.2,-12.6,-9.99,KTCY,37.2,11.7,17:41:45,10.7,-0.5,6.6,0.0,77.0,0.1,-0.01,1.0,99.0,-21.0,22.0,0.0,29.99,873.0,,,309.0,,,,30.0,0.0,0.0,5.0,-99.0,,,,,,,,,,,,,,,,,0.0,16.0,0.0,0.0,30.2,0.0,,0.0,0.0,,,37.0,0.0,0.0,-0.6,14.9,12.3,,,,,18.0,19.0,18.0,19.0,18.0,19.0,18.0,19.0,,,-33.0,254.4,,0.0,8.0,0.0,,,0.653,0.814,0.0,16.4,,,,,,0.0,2026-05-13 10:41:18-07:00
35.06,1.0,9.0,2026-05-13 17:41:46,37.08149,-121.59961,351.0,0.0,84.2,-12.6,-9.99,KTCY,37.2,11.7,17:41:46,10.7,-0.5,6.6,0.0,77.0,0.1,-0.01,1.0,99.0,-37.0,22.0,0.0,29.99,873.0,,,309.0,,,,30.0,0.0,0.0,5.0,-99.0,,,,,,,,,,,,,,,,,0.0,16.0,0.0,0.0,30.2,0.0,,0.0,0.0,,,37.0,0.0,0.0,-0.6,14.9,12.3,,,,,18.0,19.0,18.0,19.0,18.0,19.0,18.0,19.0,,,-34.0,254.4,,0.0,8.0,0.0,,,0.654,0.814,0.0,16.4,,,,,,0.0,2026-05-13 10:41:18-07:00
36.06,1.0,9.0,2026-05-13 17:41:47,37.08149,-121.5996,352.0,0.0,84.2,-12.6,-9.99,KTCY,37.2,11.7,17:41:47,10.7,-0.5,6.6,0.0,76.0,0.1,-0.01,1.0,99.0,-46.0,22.0,0.0,29.99,883.0,,,309.0,,,,30.0,0.0,0.0,5.0,-99.0,,,,,,,,,,,,,,,,,0.0,16.0,0.0,0.0,30.2,0.0,,0.0,0.0,,,37.0,0.0,0.0,-0.6,14.9,12.3,,,,,18.0,19.0,18.0,19.0,18.0,19.0,18.0,19.0,,,-34.0,254.4,,0.0,8.0,0.0,,,0.653,0.814,0.0,16.4,,,,,,0.0,2026-05-13 10:41:18-07:00
37.06,1.0,9.0,2026-05-13 17:41:48,37.08149,-121.5996,349.0,0.0,84.2,-12.6,-9.99,KTCY,37.2,11.7,17:41:48,10.8,-0.6,6.5,0.0,75.0,0.1,-0.01,1.0,99.0,-52.0,22.0,0.0,29.99,883.0,,,309.0,,,,30.0,0.0,0.0,5.0,-99.0,,,,,,,,,,,,,,,,,0.0,16.0,0.0,0.0,30.2,0.0,,0.0,0.0,,,37.0,0.0,0.0,-0.6,14.9,12.3,,,,,18.0,19.0,18.0,19.0,18.0,19.0,18.0,19.0,,,-34.0,254.4,,0.0,8.0,0.0,,,0.653,0.814,0.0,16.4,,,,,,0.0,2026-05-13 10:41:18-07:00
38.06,1.0,9.0,2026-05-13 17:41:49,37.08149,-121.5996,350.0,0.0,84.2,-12.6,-9.99,KTCY,37.2,11.7,17:41:49,10.8,-0.6,6.5,0.0,74.0,0.1,-0.01,1.0,99.0,-58.0,22.0,0.0,29.99,883.0,,,309.0,,,,30.0,0.0,0.0,5.0,-99.0,,,,,,,,,,,,,,,,,0.0,16.0,0.0,0.0,30.2,0.0,,0.0,0.0,,,37.0,0.0,0.0,-0.6,14.9,12.3,,,,,18.0,19.0,18.0,19.0,18.0,19.0,18.0,19.0,,,-34.0,254.4,,0.0,8.0,0.0,,,0.653,0.814,0.0,16.4,,,,,,0.0,2026-05-13 10:41:18-07:00
39.06,1.0,9.0,2026-05-13 17:41:50,37.08149,-121.5996,350.0,0.0,84.2,-12.6,-9.99,KTCY,37.2,11.7,17:41:50,10.7,-0.6,6.5,0.0,72.0,0.1,-0.01,1.0,99.0,-75.0,22.0,0.0,29.99,879.0,,,309.0,,,,30.0,0.0,0.0,5.0,-99.0,,,,,,,,,,,,,,,,,0.0,16.0,0.0,0.0,30.2,0.0,,0.0,0.0,,,37.0,0.0,0.0,-0.6,14.9,12.3,,,,,18.0,19.0,18.0,19.0,18.0,19.0,18.0,19.0,,,-34.0,254.4,,0.0,8.0,0.0,,,0.653,0.814,0.0,16.4,,,,,,0.0,2026-05-13 10:41:18-07:00
40.06,1.0,9.0,2026-05-13 17:41:51,37.08149,-121.5996,351.0,0.0,84.2,-12.6,-9.99,KTCY,37.2,11.7,17:41:51,10.8,-0.6,6.5,0.0,71.0,0.1,-0.01,1.0,99.0,-85.0,22.0,0.0,29.99,879.0,,,309.0,,,,30.0,0.0,0.0,5.0,-99.0,,,,,,,,,,,,,,,,,0.0,16.0,0.0,0.0,30.2,0.0,,0.0,0.0,,,37.0,0.0,0.0,-0.6,14.9,12.3,,,,,18.0,19.0,18.0,19.0,18.0,19.0,18.0,19.0,,,-34.0,254.4,,0.0,8.0,0.0,,,0.653,0.814,0.0,16.4,,,,,,0.0,2026-05-13 10:41:18-07:00
41.06,1.0,9.0,2026-05-13 17:41:52,37.08149,-121.5996,352.0,0.0,84.2,-12.6,-9.99,KTCY,37.2,11.7,17:41:52,10.8,-0.6,6.5,0.0,69.0,0.1,-0.01,1.0,99.0,-106.0,22.0,0.0,29.99,879.0,,,309.0,,,,30.0,0.0,0.0,5.0,-99.0,,,,,,,,,,,,,,,,,0.0,16.0,0.0,0.0,30.2,0.0,,0.0,0.0,,,37.0,0.0,0.0,-0.6,14.9,12.3,,,,,18.0,19.0,18.0,19.0,18.0,19.0,18.0,19.0,,,-34.0,254.4,,0.0,8.0,0.0,,,0.653,0.814,0.0,16.4,,,,,,0.0,2026-05-13 10:41:18-07:00
42.06,1.0,8.0,2026-05-13 17:41:53,37.08155,-121.59958,288.0,0.0,84.2,-12.6,-9.99,KTCY,37.2,11.7,17:41:53,10.7,-0.6,6.5,0.0,67.0,0.1,-0.01,1.0,99.0,-95.0,22.0,0.0,29.99,883.0,,,309.0,,,,30.0,0.0,0.0,5.0,-99.0,,,,,,,,,,,,,,,,,0.0,16.0,0.0,0.0,30.2,0.0,,0.0,0.0,,,37.0,0.0,0.0,-0.7,14.9,12.3,,,,,17.0,19.0,18.0,19.0,18.0,19.0,18.0,19.0,,,-33.0,228.2,,0.0,8.0,0.0,,,0.653,0.814,0.0,16.4,,,,,,0.0,2026-05-13 10:41:18-07:00
43.06,1.0,8.0,2026-05-13 17:41:54,37.08155,-121.59958,288.0,0.0,84.2,-12.6,-9.99,KTCY,37.2,11.7,17:41:54,10.8,-0.6,6.5,0.0,66.0,0.1,-0.01,1.0,99.0,-111.0,22.0,0.0,29.99,883.0,,,309.0,,,,30.0,0.0,0.0,5.0,-99.0,,,,,,,,,,,,,,,,,0.0,16.0,0.0,0.0,30.2,0.0,,0.0,0.0,,,37.0,0.0,0.0,-0.7,14.9,12.3,,,,,17.0,19.0,18.0,19.0,18.0,19.0,18.0,19.0,,,-33.0,177.6,,0.0,8.0,0.0,,,0.654,0.814,0.0,16.4,,,,,,0.0,2026-05-13 10:41:18-07:00
44.06,1.0,8.0,2026-05-13 17:41:55,37.08155,-121.59958,289.0,0.0,84.2,-12.6,-9.99,KTCY,37.2,11.7,17:41:55,10.8,-0.6,6.5,0.0,63.0,0.1,-0.01,1.0,99.0,-121.0,22.0,0.0,29.99,883.0,,,309.0,,,,30.0,0.0,0.0,5.0,-99.0,,,,,,,,,,,,,,,,,0.0,16.0,0.0,0.0,30.2,0.0,,0.0,0.0,,,37.0,0.0,0.0,-0.7,14.9,12.3,,,,,17.0,19.0,18.0,19.0,18.0,19.0,18.0,19.0,,,-33.0,138.3,,0.0,8.0,0.0,,,0.653,0.814,0.0,16.4,,,,,,0.0,2026-05-13 10:41:18-07:00
45.06,1.0,8.0,2026-05-13 17:41:56,37.08155,-121.59958,290.0,0.0,84.2,-12.6,-9.99,KTCY,37.2,11.7,17:41:56,10.8,-0.6,6.5,0.0,62.0,0.1,-0.01,1.0,99.0,-108.0,22.0,0.0,29.99,876.0,,,309.0,,,,30.0,0.0,0.0,5.0,-99.0,,,,,,,,,,,,,,,,,0.0,16.0,0.0,0.0,30.2,0.0,,0.0,0.0,,,37.0,0.0,0.0,-0.7,14.9,12.3,,,,,17.0,19.0,18.0,19.0,18.0,19.0,18.0,19.0,,,-33.0,107.7,,0.0,8.0,0.0,,,0.653,0.814,0.0,16.4,,,,,,0.0,2026-05-13 10:41:18-07:00
46.06,1.0,8.0,2026-05-13 17:41:57,37.08155,-121.59958,290.0,0.0,84.2,-12.6,-9.99,KTCY,37.2,11.7,17:41:57,10.8,-0.6,6.4,0.0,60.0,0.1,-0.01,1.0,99.0,-102.0,22.0,0.0,29.99,876.0,,,309.0,,,,30.0,0.0,0.0,5.0,-99.0,,,,,,,,,,,,,,,,,0.0,16.0,0.0,0.0,30.2,0.0,,0.0,0.0,,,37.0,0.0,0.0,-0.7,14.9,12.3,,,,,17.0,19.0,18.0,19.0,18.0,19.0,18.0,19.0,,,-33.0,83.9,,0.0,8.0,0.0,,,0.653,0.814,0.0,16.4,,,,,,0.0,2026-05-13 10:41:18-07:00
47.06,1.0,8.0,2026-05-13 17:41:58,37.08155,-121.59958,291.0,0.0,84.2,-12.6,-9.99,KTCY,37.2,11.7,17:41:58,10.8,-0.6,6.4,0.0,60.0,0.1,-0.01,1.0,99.0,-76.0,22.0,0.0,29.99,876.0,,,309.0,,,,30.0,0.0,0.0,5.0,-99.0,,,,,,,,,,,,,,,,,0.0,16.0,0.0,0.0,30.2,0.0,,0.0,0.0,,,37.0,0.0,0.0,-0.7,14.9,12.3,,,,,18.0,19.0,18.0,19.0,18.0,19.0,18.0,19.0,,,-33.0,65.4,,0.0,8.0,0.0,,,0.653,0.814,0.0,16.4,,,,,,0.0,2026-05-13 10:41:18-07:00
48.06,1.0,8.0,2026-05-13 17:41:59,37.08155,-121.59958,292.0,0.0,84.2,-12.6,-9.99,KTCY,37.2,11.7,17:41:59,10.8,-0.6,6.3,0.0,60.0,0.1,-0.01,1.0,99.0,-47.0,22.0,0.0,29.99,872.0,,,309.0,,,,30.0,0.0,0.0,5.0,-99.0,,,,,,,,,,,,,,,,,0.0,16.0,0.0,0.0,30.2,0.0,,0.0,0.0,,,37.0,0.0,0.0,-0.7,14.9,12.3,,,,,18.0,19.0,18.0,19.0,18.0,19.0,18.0,19.0,,,-33.0,51.1,,0.0,8.0,0.0,,,0.653,0.814,0.0,16.4,,,,,,0.0,2026-05-13 10:41:18-07:00
49.06,1.0,8.0,2026-05-13 17:42:00,37.08155,-121.59958,293.0,0.0,84.2,-12.6,-9.99,KTCY,37.2,11.7,17:42:00,10.8,-0.6,6.4,0.0,60.0,0.1,-0.01,1.0,99.0,-20.0,22.0,0.0,29.99,873.0,,,309.0,,,,30.0,0.0,0.0,5.0,-99.0,,,,,,,,,,,,,,,,,0.0,16.0,0.0,0.0,30.2,0.0,,0.0,0.0,,,37.0,0.0,0.0,-0.7,14.9,12.3,,,,,18.0,19.0,18.0,19.0,18.0,19.0,18.0,19.0,,,-33.0,39.9,,0.0,8.0,0.0,,,0.653,0.814,0.0,16.4,,,,,,0.0,2026-05-13 10:41:18-07:00
50.06,1.0,8.0,2026-05-13 17:42:01,37.08155,-121.59958,293.0,0.0,84.2,-12.6,-9.99,KTCY,37.2,11.7,17:42:01,10.8,-0.6,6.4,0.0,59.0,0.1,-0.01,1.0,99.0,-36.0,22.0,0.0,29.99,873.0,,,309.0,,,,30.0,0.0,0.0,5.0,-99.0,,,,,,,,,,,,,,,,,0.0,16.0,0.0,0.0,30.2,0.0,,0.0,0.0,,,37.0,0.0,0.0,-0.7,14.9,12.3,,,,,18.0,19.0,18.0,19.0,18.0,19.0,18.0,19.0,,,-33.0,31.2,,0.0,8.0,0.0,,,0.654,0.814,0.0,16.4,,,,,,0.0,2026-05-13 10:41:18-07:00
51.06,1.0,8.0,2026-05-13 17:42:02,37.08155,-121.59959,294.0,0.0,84.2,-12.6,-9.99,KTCY,37.2,11.7,17:42:02,10.8,-0.5,6.4,0.0,58.0,0.1,-0.01,1.0,99.0,-43.0,22.0,0.0,29.99,873.0,,,309.0,,,,30.0,0.0,0.0,5.0,-99.0,,,,,,,,,,,,,,,,,0.0,16.0,0.0,0.0,30.2,0.0,,0.0,0.0,,,37.0,0.0,0.0,-0.7,14.9,12.3,,,,,18.0,19.0,18.0,19.0,18.0,19.0,18.0,19.0,,,-32.0,24.5,,0.0,8.0,0.0,,,0.654,0.814,0.0,16.4,,,,,,0.0,2026-05-13 10:41:18-07:00
52.06,1.0,8.0,2026-05-13 17:42:03,37.08155,-121.59959,295.0,0.0,84.2,-12.6,-9.99,KTCY,37.2,11.7,17:42:03,10.7,-0.5,6.4,0.0,57.0,0.1,-0.01,1.0,99.0,-52.0,22.0,0.0,29.99,880.0,,,309.0,,,,30.0,0.0,0.0,5.0,-99.0,,,,,,,,,,,,,,,,,0.0,16.0,0.0,0.0,30.2,0.0,,0.0,0.0,,,37.0,0.0,0.0,-0.7,14.9,12.3,,,,,18.0,19.0,18.0,19.0,18.0,19.0,18.0,19.0,,,-32.0,19.3,,0.0,8.0,0.0,,,0.653,0.813,0.0,16.4,,,,,,0.0,2026-05-13 10:41:18-07:00
53.06,1.0,8.0,2026-05-13 17:42:04,37.08155,-121.59959,295.0,0.0,84.2,-12.6,-9.99,KTCY,37.2,11.7,17:42:04,10.7,-0.5,6.5,0.0,56.0,0.1,-0.01,1.0,99.0,-68.0,22.0,0.0,29.99,880.0,,,309.0,,,,30.0,0.0,0.0,5.0,-99.0,,,,,,,,,,,,,,,,,0.0,16.0,0.0,0.0,30.2,0.0,,0.0,0.0,,,37.0,0.0,0.0,-0.7,14.9,12.3,,,,,18.0,19.0,18.0,19.0,18.0,19.0,18.0,19.0,,,-32.0,15.2,,0.0,8.0,0.0,,,0.653,0.813,0.0,16.4,,,,,,0.0,2026-05-13 10:41:18-07:00
54.06,1.0,8.0,2026-05-13 17:42:05,37.08155,-121.59959,296.0,0.0,84.2,-12.6,-9.99,KTCY,37.2,11.7,17:42:05,10.8,-0.6,6.5,0.0,56.0,0.1,-0.01,1.0,99.0,-42.0,22.0,0.0,29.99,880.0,,,309.0,,,,30.0,0.0,0.0,5.0,-99.0,,,,,,,,,,,,,,,,,0.0,16.0,0.0,0.0,30.2,0.0,,0.0,0.0,,,37.0,0.0,0.0,-0.7,14.9,12.3,,,,,18.0,19.0,18.0,19.0,18.0,19.0,18.0,19.0,,,-32.0,12.0,,0.0,8.0,0.0,,,0.653,0.813,0.0,16.4,,,,,,0.0,2026-05-13 10:41:18-07:00
55.06,1.0,8.0,2026-05-13 17:42:06,37.08155,-121.59959,297.0,0.0,84.2,-12.6,-9.99,KTCY,37.2,11.7,17:42:06,10.8,-0.6,6.4,0.0,56.0,0.1,-0.01,1.0,99.0,-5.0,22.0,0.0,29.99,878.0,,,309.0,,,,30.0,0.0,0.0,5.0,-99.0,,,,,,,,,,,,,,,,,0.0,16.0,0.0,0.0,30.2,0.0,,0.0,0.0,,,37.0,0.0,0.0,-0.7,14.9,12.3,,,,,18.0,19.0,18.0,19.0,18.0,19.0,18.0,19.0,,,-31.0,9.6,,0.0,8.0,0.0,,,0.653,0.813,0.0,16.4,,,,,,0.0,2026-05-13 10:41:18-07:00
56.06,1.0,8.0,2026-05-13 17:42:07,37.08155,-121.59959,297.0,0.0,84.2,-12.6,-9.99,KTCY,37.2,11.7,17:42:07,10.8,-0.6,6.5,0.0,56.0,0.1,-0.01,1.0,99.0,21.0,22.0,0.0,29.99,878.0,,,309.0,,,,30.0,0.0,0.0,5.0,-99.0,,,,,,,,,,,,,,,,,0.0,16.0,0.0,0.0,30.2,0.0,,0.0,0.0,,,37.0,0.0,0.0,-0.7,14.9,12.3,,,,,18.0,19.0,18.0,19.0,18.0,19.0,18.0,19.0,,,-30.0,7.6,,0.0,8.0,0.0,,,0.653,0.813,0.0,16.4,,,,,,0.0,2026-05-13 10:41:18-07:00
57.06,1.0,8.0,2026-05-13 17:42:08,37.08155,-121.59959,298.0,0.0,84.2,-12.6,-9.99,KTCY,37.2,11.7,17:42:08,10.8,-0.6,6.4,0.0,56.0,0.1,-0.01,1.0,99.0,33.0,22.0,0.0,29.99,878.0,,,309.0,,,,30.0,0.0,0.0,5.0,-99.0,,,,,,,,,,,,,,,,,0.0,16.0,0.0,0.0,30.2,0.0,,0.0,0.0,,,37.0,0.0,0.0,-0.7,14.9,12.3,,,,,18.0,19.0,18.0,19.0,18.0,19.0,18.0,19.0,,,-30.0,6.1,,0.0,8.0,0.0,,,0.653,0.814,0.0,16.4,,,,,,0.0,2026-05-13 10:41:18-07:00
58.06,1.0,8.0,2026-05-13 17:42:09,37.08155,-121.59959,298.0,0.0,84.2,-12.6,-9.99,KTCY,37.2,11.7,17:42:09,10.8,-0.6,6.4,0.0,56.0,0.1,-0.01,1.0,99.0,48.0,22.0,0.0,29.99,888.0,,,309.0,,,,30.0,0.0,0.0,5.0,-99.0,,,,,,,,,,,,,,,,,0.0,16.0,0.0,0.0,30.2,0.0,,0.0,0.0,,,37.0,0.0,0.0,-0.7,14.9,12.3,,,,,18.0,19.0,18.0,19.0,18.0,19.0,18.0,19.0,,,-31.0,5.0,,0.0,8.0,0.0,,,0.653,0.813,0.0,16.4,,,,,,0.0,2026-05-13 10:41:18-07:00
59.06,1.0,8.0,2026-05-13 17:42:10,37.08155,-121.59959,298.0,0.0,84.2,-12.6,-9.99,KTCY,37.2,11.7,17:42:10,10.8,-0.6,6.4,0.0,56.0,0.1,-0.01,1.0,99.0,48.0,22.0,0.0,29.99,888.0,,,309.0,,,,30.0,0.0,0.0,5.0,-99.0,,,,,,,,,,,,,,,,,0.0,16.0,0.0,0.0,30.2,0.0,,0.0,0.0,,,37.0,0.0,0.0,-0.7,14.9,12.3,,,,,18.0,19.0,18.0,19.0,18.0,19.0,18.0,19.0,,,-30.0,4.1,,0.0,8.0,0.0,,,0.653,0.813,0.0,16.4,,,,,,0.0,2026-05-13 10:41:18-07:00
60.06,1.0,8.0,2026-05-13 17:42:11,37.08155,-121.59959,299.0,0.0,84.2,-12.6,-9.99,KTCY,37.2,11.7,17:42:11,10.8,-0.6,6.4,0.0,56.0,0.1,-0.01,1.0,99.0,29.0,22.0,0.0,29.99,888.0,,,309.0,,,,30.0,0.0,0.0,5.0,-99.0,,,,,,,,,,,,,,,,,0.0,16.0,0.0,0.0,30.2,0.0,,0.0,0.0,,,37.0,0.0,0.0,-0.7,14.9,12.3,,,,,18.0,19.0,18.0,19.0,18.0,19.0,18.0,19.0,,,-30.0,3.4,,0.0,8.0,0.0,,,0.653,0.813,0.0,16.4,,,,,,0.0,2026-05-13 10:41:18-07:00
61.06,1.0,8.0,2026-05-13 17:42:12,37.08155,-121.59959,299.0,0.0,84.2,-12.6,-9.99,KTCY,37.2,11.7,17:42:12,10.8,-0.6,6.5,0.0,56.0,0.1,-0.01,1.0,99.0,45.0,22.0,0.0,29.99,888.0,,,309.0,,,,30.0,0.0,0.0,5.0,-99.0,,,,,,,,,,,,,,,,,0.0,16.0,0.0,0.0,30.2,0.0,,0.0,0.0,,,37.0,0.0,0.0,-0.7,14.9,12.3,,,,,18.0,19.0,18.0,19.0,18.0,19.0,18.0,19.0,,,-30.0,2.9,,0.0,8.0,0.0,,,0.653,0.813,0.0,16.4,,,,,,0.0,2026-05-13 10:41:18-07:00
62.06,1.0,8.0,2026-05-13 17:42:13,37.08155,-121.59959,299.0,0.0,84.2,-12.6,-9.99,KTCY,37.2,11.7,17:42:13,10.8,-0.6,6.5,0.0,56.0,0.1,-0.01,1.0,99.0,61.0,22.0,0.0,29.99,888.0,,,309.0,,,,30.0,0.0,0.0,5.0,-99.0,,,,,,,,,,,,,,,,,0.0,16.0,0.0,0.0,30.2,0.0,,0.0,0.0,,,37.0,0.0,0.0,-0.7,14.9,12.3,,,,,18.0,19.0,18.0,19.0,18.0,19.0,18.0,19.0,,,-29.0,2.5,,0.0,8.0,0.0,,,0.653,0.813,0.0,16.4,,,,,,0.0,2026-05-13 10:41:18-07:00
63.06,1.0,8.0,2026-05-13 17:42:14,37.08155,-121.59959,299.0,0.0,84.2,-12.6,-9.99,KTCY,37.2,11.7,17:42:14,10.8,-0.6,6.5,0.0,56.0,0.1,-0.01,1.0,99.0,25.0,22.0,0.0,29.99,888.0,,,309.0,,,,30.0,0.0,0.0,5.0,-99.0,,,,,,,,,,,,,,,,,0.0,16.0,0.0,0.0,30.2,0.0,,0.0,0.0,,,37.0,0.0,0.0,-0.7,14.9,12.3,,,,,18.0,19.0,18.0,19.0,18.0,19.0,18.0,19.0,,,-29.0,2.1,,0.0,8.0,0.0,,,0.653,0.813,0.0,16.4,,,,,,0.0,2026-05-13 10:41:18-07:00
64.06,1.0,8.0,2026-05-13 17:42:15,37.08154,-121.59959,300.0,0.0,84.2,-12.6,-9.99,KTCY,37.2,11.7,17:42:15,10.8,-0.6,6.5,0.0,56.0,0.1,-0.01,1.0,99.0,8.0,22.0,0.0,29.99,889.0,,,309.0,,,,30.0,0.0,0.0,5.0,-99.0,,,,,,,,,,,,,,,,,0.0,16.0,0.0,0.0,30.2,0.0,,0.0,0.0,,,37.0,0.0,0.0,-0.7,14.9,12.3,,,,,18.0,19.0,18.0,19.0,18.0,19.0,18.0,19.0,,,-28.0,1.9,,0.0,8.0,0.0,,,0.653,0.813,0.0,16.4,,,,,,0.0,2026-05-13 10:41:18-07:00
65.06,1.0,8.0,2026-05-13 17:42:16,37.08154,-121.59959,300.0,0.0,84.2,-12.6,-9.99,KTCY,37.2,11.7,17:42:16,10.8,-0.6,6.5,0.0,56.0,0.1,-0.01,1.0,99.0,-22.0,22.0,0.0,29.99,889.0,,,309.0,,,,30.0,0.0,0.0,5.0,-99.0,,,,,,,,,,,,,,,,,0.0,16.0,0.0,0.0,30.2,0.0,,0.0,2.8,,,37.0,0.0,0.0,-0.6,14.9,12.3,,,,,18.0,19.0,18.0,19.0,18.0,19.0,18.0,19.0,,,-28.0,1.7,,2.8,8.0,0.0,,,0.653,0.813,0.0,16.4,,,,,,0.0,2026-05-13 10:41:18-07:00
66.06,1.0,8.0,2026-05-13 17:42:17,37.08154,-121.59959,300.0,0.0,84.2,-12.6,-9.99,KTCY,37.2,11.7,17:42:17,10.8,-0.6,6.5,0.0,56.0,0.1,-0.01,1.0,99.0,-22.0,22.0,0.0,29.99,889.0,,,309.0,,,,30.0,0.0,0.0,5.0,-99.0,,,,,,,,,,,,,,,,,0.0,16.0,0.0,0.0,30.2,0.0,,0.0,31.2,,,37.0,0.0,0.0,-0.6,14.9,12.3,,,,,18.0,19.0,18.0,19.0,18.0,19.0,18.0,19.0,,,-28.0,1.5,,31.2,8.0,0.0,,,0.653,0.813,0.0,16.4,,,,,,0.0,2026-05-13 10:41:18-07:00
67.06,1.0,8.0,2026-05-13 17:42:18,37.08154,-121.59959,316.0,0.0,84.2,-12.6,-9.99,KTCY,37.2,11.7,17:42:18,10.8,-0.6,6.4,0.0,56.0,0.1,-0.01,1.0,99.0,-1.0,22.0,0.0,29.99,898.0,,,309.0,,,,30.0,0.0,0.0,5.0,-99.0,,,,,,,,,,,,,,,,,0.0,16.0,0.0,0.0,30.2,0.0,,0.0,32.4,,,37.0,0.0,0.0,-0.6,14.9,12.3,,,,,18.0,19.0,18.0,19.0,18.0,19.0,18.0,19.0,,,-28.0,1.4,,32.4,8.0,0.0,,,0.653,0.813,0.0,16.4,,,,,,0.0,2026-05-13 10:41:18-07:00
68.06,1.0,8.0,2026-05-13 17:42:19,37.08154,-121.59959,315.0,0.0,84.2,-12.6,-9.99,KTCY,37.2,11.7,17:42:19,10.8,-0.6,6.4,0.0,56.0,0.1,-0.01,1.0,99.0,-20.0,22.0,0.0,29.99,898.0,,,309.0,,,,30.0,0.0,0.0,5.0,-99.0,,,,,,,,,,,,,,,,,0.0,16.0,0.0,0.0,30.2,0.5,,0.5,32.3,,,37.0,0.0,0.0,-0.6,14.9,12.3,,,,,18.0,19.0,18.0,19.0,18.0,19.0,18.0,19.0,,,-28.0,1.3,,32.3,8.0,0.0,,,0.653,0.813,0.0,16.4,,,,,,0.0,2026-05-13 10:41:18-07:00
69.06,1.0,8.0,2026-05-13 17:42:20,37.08154,-121.59959,315.0,0.0,84.2,-12.6,-9.99,KTCY,37.2,11.7,17:42:20,10.8,-0.7,6.4,0.0,56.0,0.1,-0.01,1.0,99.0,-15.0,22.0,0.0,29.99,899.0,,,309.0,,,,30.0,0.0,0.0,5.0,-99.0,,,,,,,,,,,,,,,,,0.0,16.0,0.0,0.0,30.2,1.3,,1.3,32.3,,,37.0,0.0,0.0,-0.6,14.9,12.3,,,,,18.0,19.0,18.0,19.0,18.0,19.0,18.0,19.0,,,-28.0,1.3,,32.3,8.0,0.0,,,0.653,0.813,0.0,16.4,,,,,,0.0,2026-05-13 10:41:18-07:00
70.06,1.0,8.0,2026-05-13 17:42:21,37.08154,-121.59959,315.0,0.0,84.2,-12.6,-9.99,KTCY,37.2,11.7,17:42:21,10.9,-0.7,6.3,0.0,56.0,0.1,-0.01,1.0,99.0,-32.0,22.0,0.0,29.99,899.0,,,309.0,,,,30.0,0.0,0.0,5.0,-99.0,,,,,,,,,,,,,,,,,0.0,16.0,0.0,0.0,30.2,1.9,,1.9,32.3,,,37.0,0.0,0.0,-0.6,14.9,12.3,,,,,18.0,19.0,18.0,19.0,18.0,19.0,18.0,19.0,,,-29.0,1.2,,32.3,8.0,0.0,,,0.653,0.814,0.0,16.4,,,,,,0.0,2026-05-13 10:41:18-07:00
71.06,1.0,9.0,2026-05-13 17:42:22,37.08154,-121.59959,306.0,0.0,84.2,-12.6,-9.99,KTCY,37.2,11.7,17:42:22,10.9,-0.7,6.3,0.0,56.0,0.1,-0.01,1.0,99.0,-45.0,22.0,0.0,29.99,899.0,,,309.0,,,,30.0,0.0,0.0,5.0,-99.0,,,,,,,,,,,,,,,,,0.0,16.0,0.0,0.0,30.2,2.4,,2.4,32.3,,,37.0,0.0,0.0,-0.6,14.9,12.3,,,,,18.0,19.0,18.0,19.0,18.0,19.0,18.0,19.0,,,-28.0,1.1,,32.3,8.0,0.0,,,0.653,0.813,0.0,16.4,,,,,,0.0,2026-05-13 10:41:18-07:00
72.06,1.0,9.0,2026-05-13 17:42:23,37.08154,-121.59959,307.0,0.0,84.2,-12.6,-9.99,KTCY,37.2,11.7,17:42:23,10.9,-0.7,6.3,0.0,56.0,0.1,-0.01,1.0,99.0,-97.0,22.0,0.0,29.99,909.0,,,309.0,,,,30.0,0.0,0.0,5.0,-99.0,,,,,,,,,,,,,,,,,0.0,16.0,0.0,0.0,30.2,2.7,,2.7,32.4,,,37.0,0.0,0.0,-0.6,14.9,12.3,,,,,18.0,19.0,18.0,19.0,18.0,19.0,18.0,19.0,,,-29.0,1.1,,32.4,8.0,0.0,,,0.653,0.813,0.0,16.4,,,,,,0.0,2026-05-13 10:41:18-07:00
73.06,1.0,9.0,2026-05-13 17:42:24,37.08154,-121.59959,308.0,0.0,84.2,-12.6,-9.99,KTCY,37.2,11.7,17:42:24,10.9,-0.6,6.4,0.0,56.0,0.1,-0.01,1.0,99.0,-82.0,22.0,0.0,29.99,909.0,,,309.0,,,,30.0,0.0,0.0,5.0,-99.0,,,,,,,,,,,,,,,,,0.0,16.0,0.0,0.0,30.2,3.0,,3.0,32.3,,,37.0,0.0,0.0,-0.5,14.9,12.3,,,,,18.0,19.0,18.0,19.0,18.0,19.0,18.0,19.0,,,-29.0,1.1,,32.3,8.0,0.0,,,0.653,0.814,0.0,16.4,,,,,,0.0,2026-05-13 10:41:18-07:00
74.06,1.0,9.0,2026-05-13 17:42:25,37.08154,-121.59959,309.0,0.0,84.2,-12.6,-9.99,KTCY,37.2,11.7,17:42:25,10.9,-0.6,6.3,0.0,54.0,0.1,-0.01,1.0,99.0,-80.0,22.0,0.0,29.99,909.0,,,309.0,,,,30.0,0.0,0.0,5.0,-99.0,,,,,,,,,,,,,,,,,0.0,16.0,0.0,0.0,30.2,3.1,,3.1,33.3,,,37.0,0.0,0.0,-0.5,14.9,12.3,,,,,18.0,19.0,18.0,19.0,18.0,19.0,18.0,19.0,,,-29.0,1.0,,33.3,8.0,0.0,,,0.653,0.814,0.0,16.4,,,,,,0.0,2026-05-13 10:41:18-07:00
75.06,1.0,9.0,2026-05-13 17:42:26,37.08154,-121.59959,311.0,0.0,84.2,-12.6,-9.99,KTCY,37.2,11.7,17:42:26,10.9,-0.6,6.3,0.0,52.0,0.1,-0.01,1.0,99.0,-88.0,22.0,0.0,29.99,907.0,,,309.0,,,,30.0,0.0,0.0,5.0,-99.0,,,,,,,,,,,,,,,,,0.0,16.0,0.0,0.0,30.2,2.6,,2.6,33.3,,,37.0,0.0,0.0,-0.6,14.9,12.3,,,,,18.0,19.0,18.0,20.0,18.0,19.0,18.0,20.0,,,-30.0,1.0,,33.3,8.0,0.0,,,0.653,0.813,0.0,16.4,,,,,,0.0,2026-05-13 10:41:18-07:00
76.06,1.0,9.0,2026-05-13 17:42:27,37.08154,-121.59959,313.0,0.0,84.2,-12.6,-9.99,KTCY,37.2,11.7,17:42:27,10.9,-0.6,6.3,0.0,52.0,0.1,-0.01,1.0,99.0,-91.0,22.0,0.0,29.99,907.0,,,309.0,,,,30.0,0.0,0.0,5.0,-99.0,,,,,,,,,,,,,,,,,0.0,16.0,0.0,0.0,30.2,2.6,,2.6,32.9,,,37.0,0.0,0.0,-0.6,14.9,12.3,,,,,18.0,19.0,18.0,19.0,18.0,19.0,18.0,19.0,,,-29.0,1.0,,32.9,8.0,0.0,,,0.653,0.813,0.0,16.4,,,,,,0.0,2026-05-13 10:41:18-07:00
77.06,1.0,9.0,2026-05-13 17:42:28,37.08154,-121.59959,315.0,0.0,84.2,-12.6,-9.99,KTCY,37.2,11.7,17:42:28,10.9,-0.6,6.3,0.0,51.0,0.1,-0.01,1.0,99.0,-74.0,22.0,0.0,29.99,907.0,,,309.0,,,,30.0,0.0,0.0,5.0,-99.0,,,,,,,,,,,,,,,,,0.0,16.0,0.0,0.0,30.2,2.6,,2.6,32.7,,,37.0,0.0,0.0,-0.6,14.9,12.3,,,,,18.0,19.0,18.0,19.0,18.0,19.0,18.0,19.0,,,-29.0,1.0,,32.7,8.0,0.0,,,0.653,0.814,0.0,16.4,,,,,,0.0,2026-05-13 10:41:18-07:00
78.06,1.0,9.0,2026-05-13 17:42:29,37.08153,-121.59959,317.0,0.0,84.2,-12.6,-9.99,KTCY,37.2,11.7,17:42:29,10.9,-0.6,6.3,0.0,51.0,0.0,-0.01,1.0,99.0,-39.0,22.0,0.0,29.99,904.0,,,309.0,,,,30.0,0.0,0.0,5.0,-99.0,,,,,,,,,,,,,,,,,0.0,16.0,0.0,0.0,30.2,0.0,,0.0,32.5,,,37.0,0.0,0.0,-0.6,14.9,12.3,,,,,18.0,19.0,18.0,20.0,18.0,19.0,18.0,20.0,,,-29.0,1.0,,32.5,8.0,0.0,,,0.654,0.813,0.0,16.4,,,,,,0.0,2026-05-13 10:41:18-07:00
79.06,1.0,9.0,2026-05-13 17:42:30,37.08153,-121.59959,319.0,0.1,84.2,-12.6,-9.99,KTCY,37.2,11.7,17:42:30,10.9,-0.6,6.3,0.0,51.0,0.1,-0.01,1.0,99.0,13.0,22.0,0.0,29.99,904.0,,,309.0,,,,30.0,0.0,0.0,5.0,-99.0,,,,,,,,,,,,,,,,,0.0,16.0,0.0,0.0,30.2,0.0,,0.0,32.3,,,37.0,0.0,0.0,-0.7,14.9,12.3,,,,,18.0,19.0,18.0,20.0,18.0,19.0,19.0,20.0,,,-29.0,1.0,,32.3,8.0,0.0,,,0.653,0.813,0.0,16.4,,,,,,0.0,2026-05-13 10:41:18-07:00
80.06,1.0,9.0,2026-05-13 17:42:31,37.08153,-121.59959,321.0,0.0,84.2,-12.6,-9.99,KTCY,37.2,11.7,17:42:31,10.9,-0.7,6.3,0.0,51.0,0.1,-0.01,1.0,99.0,28.0,22.0,0.0,29.99,904.0,,,309.0,,,,30.0,0.0,0.0,5.0,-99.0,,,,,,,,,,,,,,,,,0.0,16.0,0.0,0.0,30.2,0.0,,0.0,32.1,,,37.0,0.0,0.0,-0.7,14.9,12.3,,,,,18.0,19.0,18.0,20.0,18.0,19.0,18.0,20.0,,,-29.0,1.0,,32.1,8.0,0.0,,,0.653,0.813,0.0,16.4,,,,,,0.0,2026-05-13 10:41:18-07:00
81.06,1.0,9.0,2026-05-13 17:42:32,37.08153,-121.59959,322.0,0.0,84.2,-12.6,-9.99,KTCY,37.2,11.7,17:42:32,10.9,-0.7,6.3,0.0,51.0,0.1,-0.01,1.0,99.0,25.0,22.0,0.0,29.99,913.0,,,309.0,,,,30.0,0.0,0.0,5.0,-99.0,,,,,,,,,,,,,,,,,0.0,16.0,0.0,0.0,30.2,0.0,,0.0,32.0,,,37.0,0.0,0.0,-0.7,14.9,12.3,,,,,18.0,19.0,18.0,20.0,18.0,19.0,18.0,20.0,,,-29.0,1.0,,32.0,8.0,0.0,,,0.653,0.813,0.0,16.4,,,,,,0.0,2026-05-13 10:41:18-07:00
82.06,1.0,9.0,2026-05-13 17:42:33,37.08152,-121.59959,324.0,0.1,84.2,-12.6,-9.99,KTCY,37.2,11.7,17:42:33,10.9,-0.6,6.3,0.0,51.0,0.0,-0.01,1.0,99.0,-7.0,22.0,0.0,29.99,914.0,,,309.0,,,,30.0,0.0,0.0,5.0,-99.0,,,,,,,,,,,,,,,,,0.0,16.0,0.0,0.0,30.2,0.0,,0.0,31.8,,,37.0,0.0,0.0,-0.7,14.9,12.3,,,,,18.0,19.0,18.0,20.0,18.0,19.0,18.0,20.0,,,-29.0,1.0,,31.8,8.0,0.0,,,0.653,0.814,0.0,16.4,,,,,,0.0,2026-05-13 10:41:18-07:00
83.06,1.0,9.0,2026-05-13 17:42:34,37.08152,-121.59959,326.0,0.0,84.2,-12.6,-9.99,KTCY,37.2,11.7,17:42:34,10.9,-0.6,6.3,0.0,51.0,0.1,-0.01,1.0,99.0,-34.0,22.0,0.0,29.99,914.0,,,309.0,,,,30.0,0.0,0.0,5.0,-99.0,,,,,,,,,,,,,,,,,0.0,16.0,0.0,0.0,30.2,0.0,,0.0,31.7,,,37.0,0.0,0.0,-0.7,14.9,12.3,,,,,18.0,19.0,18.0,20.0,18.0,19.0,18.0,20.0,,,-29.0,1.0,,31.7,8.0,0.0,,,0.653,0.813,0.0,16.4,,,,,,0.0,2026-05-13 10:41:18-07:00
84.06,1.0,9.0,2026-05-13 17:42:35,37.08152,-121.59959,327.0,0.0,84.2,-12.6,-9.99,KTCY,37.2,11.7,17:42:35,10.9,-0.6,6.3,0.0,51.0,0.1,-0.01,1.0,99.0,-31.0,22.0,0.0,29.99,914.0,,,309.0,,,,30.0,0.0,0.0,5.0,-99.0,,,,,,,,,,,,,,,,,0.0,16.0,0.0,0.0,30.2,0.0,,0.0,31.5,,,37.0,0.0,0.0,-0.7,14.9,12.3,,,,,18.0,19.0,18.0,20.0,18.0,19.0,18.0,20.0,,,-29.0,1.0,,31.5,8.0,0.0,,,0.653,0.813,0.0,16.4,,,,,,0.0,2026-05-13 10:41:18-07:00
85.06,1.0,9.0,2026-05-13 17:42:36,37.08152,-121.59959,328.0,0.0,84.2,-12.6,-9.99,KTCY,37.2,11.7,17:42:36,10.8,-0.6,6.3,0.0,51.0,0.1,-0.01,1.0,99.0,-17.0,22.0,0.0,29.99,924.0,,,309.0,,,,30.0,0.0,0.0,5.0,-99.0,,,,,,,,,,,,,,,,,0.0,16.0,0.0,0.0,30.2,0.0,,0.0,31.4,,,37.0,0.0,0.0,-0.7,14.9,12.3,,,,,18.0,19.0,18.0,20.0,18.0,19.0,18.0,20.0,,,-29.0,1.0,,31.4,8.0,0.0,,,0.653,0.813,0.0,16.4,,,,,,0.0,2026-05-13 10:41:18-07:00
86.06,1.0,9.0,2026-05-13 17:42:37,37.08147,-121.59962,383.0,0.0,84.2,-12.6,-9.99,KTCY,37.2,11.7,17:42:37,10.9,-0.6,6.3,0.0,51.0,0.1,-0.01,1.0,99.0,5.0,22.0,0.0,29.99,924.0,,,309.0,,,,30.0,0.0,0.0,5.0,-99.0,,,,,,,,,,,,,,,,,0.0,16.0,0.0,0.0,30.2,0.0,,0.0,31.3,,,37.0,0.0,0.0,-0.7,14.9,12.3,,,,,18.0,19.0,18.0,20.0,18.0,19.0,18.0,20.0,,,-30.0,0.0,,31.3,8.0,0.0,,,0.653,0.814,0.0,16.4,,,,,,0.0,2026-05-13 10:41:18-07:00
87.06,1.0,9.0,2026-05-13 17:42:38,37.08147,-121.59962,383.0,0.0,84.2,-12.6,-9.99,KTCY,37.2,11.7,17:42:38,10.9,-0.6,6.3,0.0,51.0,0.1,-0.01,1.0,99.0,22.0,22.0,0.0,29.99,924.0,,,309.0,,,,30.0,0.0,0.0,5.0,-99.0,,,,,,,,,,,,,,,,,0.0,16.0,0.0,0.0,30.2,0.0,,0.0,31.2,,,37.0,0.0,0.0,-0.7,14.9,12.3,,,,,18.0,19.0,18.0,20.0,18.0,19.0,18.0,20.0,,,-29.0,0.0,,31.2,8.0,0.0,,,0.653,0.813,0.0,16.4,,,,,,0.0,2026-05-13 10:41:18-07:00
88.06,1.0,9.0,2026-05-13 17:42:39,37.08147,-121.59962,383.0,0.0,84.2,-12.6,-9.99,KTCY,37.2,11.7,17:42:39,10.9,-0.6,6.4,0.0,51.0,0.1,-0.01,1.0,99.0,41.0,22.0,0.0,29.99,924.0,,,309.0,,,,30.0,0.0,0.0,5.0,-99.0,,,,,,,,,,,,,,,,,0.0,16.0,0.0,0.0,30.2,0.0,,0.0,31.1,,,37.0,0.0,0.0,-0.7,14.9,12.3,,,,,18.0,19.0,18.0,20.0,18.0,19.0,18.0,20.0,,,-29.0,0.0,,31.1,8.0,0.0,,,0.653,0.813,0.0,16.4,,,,,,0.0,2026-05-13 10:41:18-07:00
89.06,1.0,9.0,2026-05-13 17:42:40,37.08147,-121.59962,382.0,0.0,84.2,-12.6,-9.99,KTCY,37.2,11.7,17:42:40,10.8,-0.6,6.4,0.0,51.0,0.1,-0.01,1.0,99.0,52.0,22.0,0.0,29.99,924.0,,,309.0,,,,30.0,0.0,0.0,5.0,-99.0,,,,,,,,,,,,,,,,,0.0,16.0,0.0,0.0,30.2,0.0,,0.0,31.0,,,37.0,0.0,0.0,-0.7,14.9,12.3,,,,,18.0,19.0,18.0,19.0,18.0,19.0,18.0,20.0,,,-29.0,0.0,,31.0,8.0,0.0,,,0.653,0.813,0.0,16.4,,,,,,0.0,2026-05-13 10:41:18-07:00
90.06,1.0,9.0,2026-05-13 17:42:41,37.08147,-121.59962,381.0,0.0,84.2,-12.6,-9.99,KTCY,37.2,11.7,17:42:41,10.8,-0.5,6.5,0.0,51.0,0.1,-0.01,1.0,99.0,75.0,22.0,0.0,29.99,925.0,,,309.0,,,,30.0,0.0,0.0,5.0,-99.0,,,,,,,,,,,,,,,,,0.0,16.0,0.0,0.0,30.2,0.0,,0.0,30.8,,,37.0,0.0,0.0,-0.7,14.9,12.3,,,,,18.0,19.0,18.0,20.0,18.0,19.0,18.0,20.0,,,-29.0,0.0,,30.8,8.0,0.0,,,0.653,0.813,0.0,16.4,,,,,,0.0,2026-05-13 10:41:18-07:00
91.06,2.0,9.0,2026-05-13 17:42:42,37.08146,-121.59963,384.0,0.0,84.2,-12.6,-9.99,KTCY,37.2,11.7,17:42:42,10.9,-0.5,6.5,0.0,51.0,0.1,-0.01,1.0,99.0,81.0,22.0,0.0,29.99,925.0,,,309.0,,,,30.0,0.0,0.0,5.0,-99.0,,,,,,,,,,,,,,,,,0.0,16.0,0.0,0.0,30.2,0.0,,0.0,30.7,,,37.0,0.0,0.0,-0.7,14.9,12.3,,,,,18.0,19.0,18.0,20.0,18.0,19.0,18.0,20.0,,,-29.0,0.0,,30.7,8.0,0.0,,,0.653,0.813,0.0,16.4,,,,,,0.0,2026-05-13 10:41:18-07:00
92.06,2.0,9.0,2026-05-13 17:42:43,37.08146,-121.59963,382.0,0.1,84.2,-12.6,-9.99,KTCY,37.2,11.7,17:42:43,10.9,-0.5,6.5,0.0,51.0,0.1,-0.01,1.0,99.0,69.0,22.0,0.0,29.99,925.0,,,309.0,,,,30.0,0.0,0.0,5.0,-99.0,,,,,,,,,,,,,,,,,0.0,16.0,0.0,0.0,30.2,0.0,,0.0,30.6,,,37.0,0.0,0.0,-0.7,14.9,12.3,,,,,18.0,19.0,18.0,19.0,18.0,19.0,18.0,20.0,,,-29.0,0.0,,30.6,8.0,0.0,,,0.653,0.813,0.0,16.4,,,,,,0.0,2026-05-13 10:41:18-07:00
93.06,2.0,9.0,2026-05-13 17:42:44,37.08146,-121.59963,381.0,0.0,84.2,-12.6,-9.99,KTCY,37.2,11.7,17:42:44,10.8,-0.5,6.5,0.0,51.0,0.1,-0.01,1.0,99.0,49.0,22.0,0.0,29.99,934.0,,,309.0,,,,30.0,0.0,0.0,5.0,-99.0,,,,,,,,,,,,,,,,,0.0,16.0,0.0,0.0,30.2,0.0,,0.0,30.6,,,37.0,0.0,0.0,-0.7,14.9,12.3,,,,,18.0,19.0,18.0,19.0,18.0,19.0,18.0,20.0,,,-29.0,0.0,,30.6,8.0,0.0,,,0.653,0.813,0.0,16.4,,,,,,0.0,2026-05-13 10:41:18-07:00
94.06,2.0,9.0,2026-05-13 17:42:45,37.08146,-121.59963,379.0,0.0,84.2,-12.6,-9.99,KTCY,37.2,11.7,17:42:45,10.9,-0.5,6.5,0.0,52.0,0.1,-0.01,1.0,99.0,78.0,22.0,0.0,29.99,934.0,,,309.0,,,,30.0,0.0,0.0,5.0,-99.0,,,,,,,,,,,,,,,,,0.0,16.0,0.0,0.0,30.2,0.0,,0.0,30.4,,,37.0,0.0,0.0,-0.7,14.9,12.3,,,,,18.0,19.0,18.0,19.0,18.0,19.0,18.0,19.0,,,-29.0,0.0,,30.4,8.0,0.0,,,0.653,0.813,0.0,16.4,,,,,,0.0,2026-05-13 10:41:18-07:00
95.06,2.0,9.0,2026-05-13 17:42:46,37.08146,-121.59963,377.0,0.0,84.2,-12.6,-9.99,KTCY,37.2,11.7,17:42:46,10.9,-0.5,6.5,0.0,53.0,0.1,-0.01,1.0,99.0,85.0,22.0,0.0,29.99,934.0,,,309.0,,,,30.0,0.0,0.0,5.0,-99.0,,,,,,,,,,,,,,,,,0.0,16.0,0.0,0.0,30.2,0.0,,0.0,30.4,,,37.0,0.0,0.0,-0.7,14.9,12.3,,,,,18.0,19.0,18.0,19.0,18.0,19.0,18.0,20.0,,,-28.0,0.0,,30.4,8.0,0.0,,,0.653,0.813,0.0,16.4,,,,,,0.0,2026-05-13 10:41:18-07:00
96.06,2.0,9.0,2026-05-13 17:42:47,37.08147,-121.59962,375.0,0.0,84.2,-12.6,-9.99,KTCY,37.2,11.7,17:42:47,10.8,-0.5,6.6,0.0,56.0,0.1,-0.01,1.0,99.0,95.0,22.0,0.0,29.99,940.0,,,309.0,,,,30.0,0.0,0.0,5.0,-99.0,,,,,,,,,,,,,,,,,0.0,16.0,0.0,0.0,30.2,0.0,,0.0,30.3,,,37.0,0.0,0.0,-0.7,14.9,12.3,,,,,18.0,19.0,18.0,19.0,18.0,19.0,18.0,19.0,,,-28.0,0.0,,30.3,8.0,0.0,,,0.653,0.813,0.0,16.4,,,,,,0.0,2026-05-13 10:41:18-07:00
97.06,2.0,9.0,2026-05-13 17:42:48,37.08147,-121.59962,368.0,0.0,84.2,-12.6,-9.99,KTCY,37.2,11.7,17:42:48,10.8,-0.5,6.5,0.0,57.0,0.1,-0.01,1.0,99.0,89.0,22.0,0.0,29.99,940.0,,,309.0,,,,30.0,0.0,0.0,5.0,-99.0,,,,,,,,,,,,,,,,,0.0,16.0,0.0,0.0,30.2,0.0,,0.0,30.2,,,37.0,0.0,0.0,-0.7,14.9,12.3,,,,,18.0,19.0,18.0,19.0,18.0,19.0,18.0,20.0,,,-25.0,0.0,,30.2,8.0,0.0,,,0.653,0.813,0.0,16.4,,,,,,0.0,2026-05-13 10:41:18-07:00
98.06,2.0,9.0,2026-05-13 17:42:49,37.08147,-121.59961,368.0,0.1,84.2,-12.6,-9.99,KTCY,37.2,11.7,17:42:49,10.8,-0.6,6.5,0.0,57.0,0.1,-0.01,1.0,99.0,52.0,22.0,0.0,29.99,940.0,,,309.0,,,,30.0,0.0,0.0,5.0,-99.0,,,,,,,,,,,,,,,,,0.0,16.0,0.0,0.0,30.2,0.0,,0.0,30.1,,,37.0,0.0,0.0,-0.7,14.9,12.3,,,,,18.0,19.0,18.0,20.0,18.0,19.0,19.0,20.0,,,-26.0,0.0,,30.1,8.0,0.0,,,0.653,0.813,0.0,16.4,,,,,,0.0,2026-05-13 10:41:18-07:00
99.06,2.0,9.0,2026-05-13 17:42:50,37.08148,-121.59961,366.0,0.0,84.2,-12.6,-9.99,KTCY,37.2,11.7,17:42:50,10.9,-0.6,6.5,0.0,57.0,0.1,-0.01,1.0,99.0,37.0,22.0,0.0,29.99,943.0,,,309.0,,,,30.0,0.0,0.0,5.0,-99.0,,,,,,,,,,,,,,,,,0.0,16.0,0.0,0.0,30.2,0.0,,0.0,30.0,,,37.0,0.0,0.0,-0.7,14.9,12.3,,,,,18.0,19.0,18.0,20.0,18.0,19.0,19.0,20.0,,,-25.0,0.0,,30.0,8.0,0.0,,,0.653,0.813,0.0,16.4,,,,,,0.0,2026-05-13 10:41:18-07:00
100.06,2.0,9.0,2026-05-13 17:42:51,37.08148,-121.59961,368.0,0.0,84.2,-12.6,-9.99,KTCY,37.2,11.7,17:42:51,10.9,-0.6,6.5,0.0,58.0,0.1,-0.01,1.0,99.0,33.0,22.0,0.0,29.99,944.0,,,309.0,,,,30.0,0.0,0.0,5.0,-99.0,,,,,,,,,,,,,,,,,0.0,16.0,0.0,0.0,30.2,0.0,,0.0,29.9,,,37.0,0.0,0.0,-0.7,14.9,12.3,,,,,18.0,19.0,18.0,20.0,18.0,19.0,19.0,20.0,,,-26.0,0.0,,29.9,8.0,0.0,,,0.653,0.813,0.0,16.4,,,,,,0.0,2026-05-13 10:41:18-07:00
101.06,2.0,9.0,2026-05-13 17:42:52,37.08148,-121.59961,368.0,0.0,84.2,-12.6,-9.99,KTCY,37.2,11.7,17:42:52,10.8,-0.5,6.5,0.0,58.0,0.1,-0.01,1.0,99.0,-8.0,22.0,0.0,29.99,944.0,,,309.0,,,,30.0,0.0,0.0,5.0,-99.0,,,,,,,,,,,,,,,,,0.0,16.0,0.0,0.0,30.2,0.0,,0.0,29.8,,,37.0,0.0,0.0,-0.7,14.9,12.3,,,,,18.0,19.0,18.0,20.0,18.0,19.0,19.0,20.0,,,-26.0,0.0,,29.8,8.0,0.0,,,0.653,0.813,0.0,16.4,,,,,,0.0,2026-05-13 10:41:18-07:00
102.06,2.0,9.0,2026-05-13 17:42:53,37.08148,-121.59961,368.0,0.0,84.2,-12.6,-9.99,KTCY,37.2,11.7,17:42:53,10.8,-0.6,6.5,0.0,58.0,0.1,-0.01,1.0,99.0,-15.0,22.0,0.0,29.99,944.0,,,309.0,,,,30.0,0.0,0.0,5.0,-99.0,,,,,,,,,,,,,,,,,0.0,16.0,0.0,0.0,30.2,0.0,,0.0,29.8,,,37.0,0.0,0.0,-0.7,14.9,12.3,,,,,18.0,19.0,18.0,20.0,18.0,19.0,18.0,20.0,,,-26.0,0.0,,29.8,8.0,0.0,,,0.653,0.813,0.0,16.4,,,,,,0.0,2026-05-13 10:41:18-07:00
103.06,2.0,9.0,2026-05-13 17:42:54,37.08148,-121.59961,369.0,0.0,84.2,-12.6,-9.99,KTCY,37.2,11.7,17:42:54,10.8,-0.5,6.5,0.0,58.0,0.1,-0.01,1.0,99.0,15.0,22.0,0.0,29.99,954.0,,,309.0,,,,30.0,0.0,0.0,5.0,-99.0,,,,,,,,,,,,,,,,,0.0,16.0,0.0,0.0,30.2,0.0,,0.0,29.7,,,37.0,0.0,0.0,-0.7,14.9,12.3,,,,,18.0,19.0,18.0,20.0,18.0,19.0,19.0,20.0,,,-30.0,0.0,,29.7,8.0,0.0,,,0.653,0.813,0.0,16.4,,,,,,0.0,2026-05-13 10:41:18-07:00
104.06,2.0,9.0,2026-05-13 17:42:55,37.08148,-121.59961,368.0,0.0,84.2,-12.6,,,,,17:42:55,10.8,-0.6,6.5,0.0,58.0,0.1,-0.01,1.0,99.0,-25.0,22.0,0.0,29.99,953.0,,,309.0,,,,,0.0,0.0,,,,,,,,,,,,,,,,,,,0.0,16.0,0.0,0.0,30.2,0.0,,0.0,29.6,,,37.0,0.0,0.0,-0.7,14.9,12.3,,,,,18.0,19.0,18.0,20.0,18.0,19.0,18.0,20.0,,,-29.0,0.0,,29.6,8.0,0.0,,,0.653,0.813,0.0,16.4,,,,,,0.0,2026-05-13 10:41:18-07:00
105.06,2.0,9.0,2026-05-13 17:42:56,37.08148,-121.59961,370.0,0.1,84.2,-12.6,,,,,17:42:56,10.9,-0.5,6.5,0.0,58.0,0.1,-0.01,1.0,99.0,-26.0,22.0,0.0,29.99,953.0,,,309.0,,,,,0.0,0.0,,,,,,,,,,,,,,,,,,,0.0,16.0,0.0,0.0,30.2,0.0,,0.0,29.6,,,37.0,0.0,0.0,-0.7,14.9,12.3,,,,,18.0,19.0,18.0,20.0,18.0,19.0,18.0,20.0,,,-28.0,0.0,,29.6,8.0,0.0,,,0.653,0.813,0.0,16.4,,,,,,0.0,2026-05-13 10:41:18-07:00
106.06,2.0,9.0,2026-05-13 17:42:57,37.08148,-121.59961,369.0,0.1,84.2,-12.6,,,,,17:42:57,10.8,-0.5,6.5,0.0,58.0,0.1,-0.01,1.0,99.0,-78.0,22.0,0.0,29.99,953.0,,,309.0,,,,,0.0,0.0,,,,,,,,,,,,,,,,,,,0.0,16.0,0.0,0.0,30.2,0.0,,0.0,29.5,,,37.0,0.0,0.0,-0.7,14.9,12.3,,,,,18.0,19.0,18.0,20.0,18.0,19.0,18.0,20.0,,,-29.0,0.0,,29.5,8.0,0.0,,,0.653,0.813,0.0,16.4,,,,,,0.0,2026-05-13 10:41:18-07:00
107.06,2.0,9.0,2026-05-13 17:42:58,37.08148,-121.59961,368.0,0.0,84.2,-12.6,,,,,17:42:58,10.9,-0.6,6.5,0.0,58.0,0.1,-0.01,1.0,99.0,-37.0,22.0,0.0,29.99,954.0,,,309.0,,,,,0.0,0.0,,,,,,,,,,,,,,,,,,,0.0,16.0,0.0,0.0,30.2,0.0,,0.0,29.4,,,37.0,0.0,0.0,-0.7,14.9,12.3,,,,,18.0,19.0,18.0,20.0,18.0,19.0,18.0,20.0,,,-28.0,0.0,,29.4,8.0,0.0,,,0.653,0.813,0.0,16.4,,,,,,0.0,2026-05-13 10:41:18-07:00
108.06,2.0,9.0,2026-05-13 17:42:59,37.08148,-121.59961,368.0,0.0,84.2,-12.6,,,,,17:42:59,10.9,-0.6,6.5,0.0,58.0,0.1,-0.01,1.0,99.0,-42.0,22.0,0.0,29.99,954.0,,,309.0,,,,,0.0,0.0,,,,,,,,,,,,,,,,,,,0.0,16.0,0.0,0.0,30.2,0.0,,0.0,29.3,,,37.0,0.0,0.0,-0.7,14.9,12.3,,,,,18.0,19.0,18.0,20.0,18.0,19.0,18.0,20.0,,,-28.0,0.0,,29.3,8.0,0.0,,,0.653,0.813,0.0,16.4,,,,,,0.0,2026-05-13 10:41:18-07:00
109.06,2.0,9.0,2026-05-13 17:43:00,37.08148,-121.59961,367.0,0.0,84.2,-12.6,,,,,17:43:00,10.9,-0.6,6.4,0.0,58.0,0.1,-0.01,1.0,99.0,-45.0,22.0,0.0,29.99,954.0,,,309.0,,,,,0.0,0.0,,,,,,,,,,,,,,,,,,,0.0,16.0,0.0,0.0,30.2,0.0,,0.0,29.3,,,37.0,0.0,0.0,-0.7,14.9,12.3,,,,,18.0,19.0,18.0,20.0,18.0,19.0,18.0,20.0,,,-28.0,0.0,,29.3,8.0,0.0,,,0.653,0.813,0.0,16.4,,,,,,0.0,2026-05-13 10:41:18-07:00
110.06,2.0,9.0,2026-05-13 17:43:01,37.08149,-121.59961,366.0,0.0,84.2,-12.6,,,,,17:43:01,10.9,-0.6,6.4,0.0,58.0,0.1,-0.01,1.0,99.0,-59.0,22.0,0.0,29.99,954.0,,,309.0,,,,,0.0,0.0,,,,,,,,,,,,,,,,,,,0.0,16.0,0.0,0.0,30.2,0.0,,0.0,29.2,,,37.0,0.0,0.0,-0.7,14.9,12.3,,,,,18.0,19.0,18.0,20.0,18.0,19.0,18.0,20.0,,,-27.0,0.0,,29.2,8.0,0.0,,,0.653,0.813,0.0,16.4,,,,,,0.0,2026-05-13 10:41:18-07:00
111.06,2.0,9.0,2026-05-13 17:43:02,37.08149,-121.59961,363.0,0.0,84.2,-12.6,,,,,17:43:02,10.9,-0.6,6.3,0.0,58.0,0.1,-0.01,1.0,99.0,-32.0,22.0,0.0,29.99,954.0,,,309.0,,,,,0.0,0.0,,,,,,,,,,,,,,,,,,,0.0,16.0,0.0,0.0,30.2,0.0,,0.0,29.1,,,37.0,0.0,0.0,-0.7,14.9,12.3,,,,,18.0,19.0,18.0,20.0,18.0,19.0,18.0,20.0,,,-27.0,0.0,,29.1,8.0,0.0,,,0.653,0.813,0.0,16.4,,,,,,0.0,2026-05-13 10:41:18-07:00
112.06,2.0,9.0,2026-05-13 17:43:03,37.08149,-121.5996,357.0,0.1,84.2,-12.6,,,,,17:43:03,10.9,-0.6,6.4,0.0,58.0,0.1,-0.01,1.0,99.0,-45.0,22.0,0.0,29.99,954.0,,,309.0,,,,,0.0,0.0,,,,,,,,,,,,,,,,,,,0.0,16.0,0.0,0.0,30.2,0.0,,0.0,29.1,,,37.0,0.0,0.0,-0.7,14.9,12.3,,,,,18.0,19.0,18.0,20.0,18.0,19.0,19.0,20.0,,,-27.0,0.0,,29.1,8.0,0.0,,,0.654,0.813,0.0,16.4,,,,,,0.0,2026-05-13 10:41:18-07:00
113.06,2.0,9.0,2026-05-13 17:43:04,37.08149,-121.5996,355.0,0.0,84.2,-12.6,,,,,17:43:04,10.9,-0.6,6.4,0.0,58.0,0.1,-0.01,1.0,99.0,-35.0,22.0,0.0,29.99,954.0,,,309.0,,,,,0.0,0.0,,,,,,,,,,,,,,,,,,,0.0,16.0,0.0,0.0,30.2,0.0,,0.0,29.0,,,37.0,0.0,0.0,-0.7,14.9,12.3,,,,,18.0,19.0,18.0,20.0,18.0,19.0,19.0,20.0,,,-27.0,0.0,,29.0,8.0,0.0,,,0.653,0.813,0.0,16.4,,,,,,0.0,2026-05-13 10:41:18-07:00
114.06,2.0,9.0,2026-05-13 17:43:05,37.08149,-121.5996,353.0,0.1,84.2,-12.6,,,,,17:43:05,10.9,-0.5,6.4,0.0,58.0,0.1,-0.01,1.0,99.0,-25.0,22.0,0.0,29.99,954.0,,,309.0,,,,,0.0,0.0,,,,,,,,,,,,,,,,,,,0.0,16.0,0.0,0.0,30.2,0.0,,0.0,29.0,,,37.0,0.0,0.0,-0.7,14.9,12.3,,,,,18.0,19.0,18.0,20.0,18.0,19.0,19.0,20.0,,,-27.0,0.0,,29.0,8.0,0.0,,,0.653,0.813,0.0,16.4,,,,,,0.0,2026-05-13 10:41:18-07:00
115.06,2.0,9.0,2026-05-13 17:43:06,37.0815,-121.5996,351.0,0.3,84.2,-12.6,,,,,17:43:06,10.9,-0.6,6.5,0.0,58.0,0.1,-0.01,1.0,99.0,-12.0,22.0,0.0,29.99,954.0,,,309.0,,,,,0.0,0.0,,,,,,,,,,,,,,,,,,,0.0,16.0,0.0,0.0,30.2,0.0,,0.0,28.9,,,37.0,0.0,0.0,-0.7,14.9,12.3,,,,,18.0,19.0,18.0,20.0,18.0,19.0,19.0,20.0,,,-27.0,0.0,,28.9,8.0,0.0,,,0.653,0.813,0.0,16.4,,,,,,0.0,2026-05-13 10:41:18-07:00
116.06,2.0,9.0,2026-05-13 17:43:07,37.0815,-121.5996,350.0,0.1,84.2,-12.6,,,,,17:43:07,10.9,-0.6,6.5,0.0,58.0,0.1,-0.01,1.0,99.0,-5.0,22.0,0.0,29.99,954.0,,,309.0,,,,,0.0,0.0,,,,,,,,,,,,,,,,,,,0.0,16.0,0.0,0.0,30.2,0.0,,0.0,28.8,,,37.0,0.0,0.0,-0.7,14.9,12.3,,,,,18.0,19.0,18.0,20.0,18.0,19.0,19.0,20.0,,,-27.0,0.0,,28.8,8.0,0.0,,,0.653,0.813,0.0,16.4,,,,,,0.0,2026-05-13 10:41:18-07:00
117.06,2.0,8.0,2026-05-13 17:43:08,37.08156,-121.59958,293.0,0.0,84.2,-12.6,,,,,17:43:08,10.9,-0.6,6.6,0.0,58.0,0.1,-0.02,1.0,99.0,14.0,22.0,0.0,29.99,955.0,,,309.0,,,,,0.0,0.0,,,,,,,,,,,,,,,,,,,0.0,14.0,283.0,283.0,30.0,0.0,,0.0,29.0,,,37.0,0.0,0.0,-0.7,14.9,12.3,,,,,17.0,22.0,17.0,18.0,17.0,18.0,17.0,18.0,,,-18.0,0.0,,29.0,8.0,0.0,,,0.653,0.828,0.0,14.4,,,,,,283.0,2026-05-13 10:41:18-07:00
118.06,2.0,8.0,2026-05-13 17:43:09,37.08156,-121.59958,293.0,0.1,84.2,-12.6,,,,,17:43:09,10.9,-0.4,6.7,0.0,58.0,0.1,-0.02,1.0,99.0,45.0,23.0,0.0,29.99,955.0,,,309.0,,,,,0.0,0.0,,,,,,,,,,,,,,,,,,,0.0,16.0,109.0,109.0,29.6,0.8,,0.8,22.2,,,37.0,0.0,0.0,-0.6,14.9,12.3,,,,,18.0,33.0,18.0,32.0,18.0,20.0,18.0,35.0,,,-17.0,0.0,,22.2,8.0,0.0,,,0.653,0.824,0.1,16.0,,,,,,109.0,2026-05-13 10:41:18-07:00
119.06,2.0,8.0,2026-05-13 17:43:10,37.08155,-121.59958,294.0,0.1,84.2,-12.6,,,,,17:43:10,10.9,-0.5,6.7,0.0,58.0,0.1,-0.01,1.0,99.0,27.0,23.0,0.0,29.99,955.0,,,309.0,,,,,0.0,0.0,,,,,,,,,,,,,,,,,,,0.0,16.0,109.0,109.0,29.9,1.1,,1.1,22.1,,,37.0,0.0,0.0,-0.6,14.9,12.3,,,,,18.0,33.0,18.0,32.0,18.0,21.0,19.0,35.0,,,-17.0,0.0,,22.1,8.0,0.0,,,0.653,0.822,0.0,16.4,,,,,,109.0,2026-05-13 10:41:18-07:00
120.06,2.0,8.0,2026-05-13 17:43:11,37.08155,-121.59958,294.0,0.0,84.2,-12.6,,,,,17:43:11,10.9,-0.4,6.8,0.0,58.0,0.1,-0.01,1.0,99.0,27.0,23.0,0.0,29.99,964.0,,,309.0,,,,,0.0,0.0,,,,,,,,,,,,,,,,,,,0.0,14.0,125.0,125.0,30.0,0.9,,0.9,22.4,,,37.0,0.0,0.0,-0.6,14.9,12.3,,,,,16.0,30.0,16.0,29.0,16.0,19.0,17.0,32.0,,,-17.0,0.0,,22.4,8.0,0.0,,,0.653,0.833,0.0,13.9,,,,,,125.0,2026-05-13 10:41:18-07:00
121.06,2.0,8.0,2026-05-13 17:43:12,37.08155,-121.59958,294.0,0.0,84.2,-12.6,,,,,17:43:12,10.9,-0.6,6.8,0.0,58.0,0.1,-0.01,1.0,99.0,53.0,23.0,0.0,29.99,964.0,,,309.0,,,,,0.0,0.0,,,,,,,,,,,,,,,,,,,0.0,15.0,195.0,195.0,29.6,1.2,,1.2,18.9,,,37.0,0.0,0.0,-0.6,14.9,12.3,,,,,17.0,30.0,17.0,30.0,17.0,20.0,17.0,32.0,,,-17.0,0.0,,18.9,8.0,0.0,,,0.653,0.824,0.1,14.5,,,,,,195.0,2026-05-13 10:41:18-07:00
122.06,2.0,8.0,2026-05-13 17:43:13,37.08155,-121.59958,295.0,0.1,84.2,-12.6,,,,,17:43:13,10.9,-0.5,6.8,0.0,58.0,0.1,-0.01,1.0,99.0,5.0,23.0,0.0,29.99,964.0,,,309.0,,,,,0.0,0.0,,,,,,,,,,,,,,,,,,,2.0,16.0,687.0,687.0,25.4,1.9,,1.9,23.9,,,37.0,0.0,0.0,-0.6,14.9,12.3,,,,,18.0,53.0,18.0,59.0,18.0,54.0,19.0,56.0,,,-18.0,0.0,,23.9,8.0,0.0,,,0.653,0.819,2.4,16.5,,,7.0,L,,687.0,2026-05-13 10:41:18-07:00
123.06,2.0,8.0,2026-05-13 17:43:14,37.08155,-121.59958,293.0,0.3,84.2,-12.6,,,,,17:43:14,10.8,-0.5,6.8,0.0,58.0,0.1,-0.01,1.0,99.0,33.0,23.0,0.0,29.99,964.0,,,309.0,,,,,0.0,0.0,,,,,,,,,,,,,,,,,,,5.0,16.0,778.0,778.0,21.4,2.3,,2.3,24.0,,,37.0,0.0,0.0,-0.6,14.9,12.3,,,,,18.0,87.0,18.0,98.0,18.0,103.0,19.0,107.0,,,-17.0,0.0,,24.0,8.0,0.0,,,0.657,0.828,5.4,16.4,,,,,,778.0,2026-05-13 10:41:18-07:00
124.06,2.0,7.0,2026-05-13 17:43:15,37.08154,-121.59957,305.0,0.1,84.2,-12.6,,,,,17:43:15,10.8,-0.5,6.7,0.0,58.0,0.1,-0.01,1.0,99.0,4.0,23.0,0.0,29.99,964.0,,,309.0,,,,,0.0,0.0,,,,,,,,,,,,,,,,,,,7.0,16.0,834.0,834.0,19.7,2.6,,2.6,24.2,,,37.0,0.0,0.0,-0.7,14.9,12.3,,,,,18.0,115.0,19.0,137.0,19.0,147.0,19.0,152.0,,,-17.0,0.0,,24.2,8.0,0.0,,,0.658,0.826,7.1,16.4,,,,,,834.0,2026-05-13 10:41:18-07:00
125.06,2.0,7.0,2026-05-13 17:43:16,37.08154,-121.59957,304.0,0.1,84.2,-12.6,,,,,17:43:16,10.8,-0.4,6.7,0.0,58.0,0.1,-0.01,1.0,99.0,-4.0,23.0,0.0,29.99,964.0,,,309.0,,,,,0.0,0.0,,,,,,,,,,,,,,,,,,,10.0,16.0,888.0,888.0,18.7,2.7,,2.7,24.8,,,37.0,0.0,0.0,-0.7,14.9,12.3,,,,,19.0,139.0,19.0,159.0,19.0,186.0,20.0,190.0,,,-16.0,0.0,,24.8,8.0,0.0,,,0.66,0.818,9.6,16.4,,,,,,888.0,2026-05-13 10:41:18-07:00
126.06,2.0,7.0,2026-05-13 17:43:17,37.08154,-121.59957,303.0,0.1,84.2,-12.6,,,,,17:43:17,10.8,-0.5,6.7,0.0,58.0,0.1,-0.01,1.0,99.0,33.0,23.0,0.0,29.99,965.0,,,309.0,,,,,0.0,0.0,,,,,,,,,,,,,,,,,,,13.0,16.0,946.0,946.0,17.7,2.9,,2.9,24.9,,,37.0,0.0,0.0,-0.7,14.9,12.3,,,,,19.0,167.0,19.0,181.0,19.0,220.0,20.0,223.0,,,-16.0,0.0,,24.9,8.0,0.0,,,0.657,0.823,12.6,16.4,,,,,,946.0,2026-05-13 10:41:18-07:00
127.06,2.0,8.0,2026-05-13 17:43:18,37.08165,-121.59962,217.0,0.0,84.2,-12.6,,,,,17:43:18,10.8,-0.4,6.7,0.0,58.0,0.1,-0.01,1.0,99.0,45.0,23.0,0.0,29.99,965.0,,,309.0,,,,,0.0,0.0,,,,,,,,,,,,,,,,,,,16.0,16.0,956.0,956.0,17.0,3.0,,3.0,25.1,,,37.0,0.0,0.0,-0.7,14.9,12.3,,,,,19.0,196.0,19.0,216.0,20.0,251.0,20.0,251.0,,,-17.0,0.0,,25.1,8.0,0.0,,,0.656,0.819,16.2,16.4,,,,,,956.0,2026-05-13 10:41:18-07:00
128.06,2.0,8.0,2026-05-13 17:43:19,37.08165,-121.59961,218.0,0.0,84.2,-12.6,,,,,17:43:19,10.8,-0.5,6.7,0.0,58.0,0.1,-0.01,1.0,99.0,52.0,23.0,0.0,29.99,965.0,,,309.0,,,,,0.0,0.0,,,,,,,,,,,,,,,,,,,21.0,16.0,985.0,985.0,16.3,3.0,,3.0,25.2,,,37.0,0.0,0.0,-0.7,14.9,12.3,,,,,19.0,232.0,20.0,251.0,20.0,279.0,21.0,279.0,,,-17.0,0.0,,25.2,8.0,0.0,,,0.656,0.815,20.5,16.4,,,,,,985.0,2026-05-13 10:41:18-07:00
129.06,2.0,8.0,2026-05-13 17:43:20,37.08164,-121.59962,222.0,0.1,84.2,-12.6,,,,,17:43:20,10.8,-0.4,6.7,0.0,58.0,0.1,-0.01,1.0,99.0,22.0,23.0,0.0,29.99,975.0,,,309.0,,,,,0.0,0.0,,,,,,,,,,,,,,,,,,,26.0,16.0,1024.0,1024.0,15.6,3.0,,3.0,25.4,,,37.0,0.0,0.0,-0.7,14.9,12.3,,,,,20.0,265.0,20.0,281.0,20.0,306.0,21.0,305.0,,,-17.0,0.0,,25.4,8.0,0.0,,,0.656,0.815,25.7,16.4,,,,,,1024.0,2026-05-13 10:41:18-07:00
130.06,2.0,8.0,2026-05-13 17:43:21,37.08164,-121.59961,223.0,0.0,84.2,-12.6,,,,,17:43:21,10.8,-0.4,6.7,0.0,58.0,0.1,-0.01,0.9,99.0,45.0,23.0,0.0,29.99,975.0,,,309.0,,,,,0.0,0.0,,,,,,,,,,,,,,,,,,,32.0,16.0,1062.0,1062.0,15.0,2.8,,2.8,25.6,,,37.0,0.0,0.0,-0.7,14.9,12.3,,,,,20.0,293.0,20.0,308.0,21.0,334.0,22.0,330.0,,,-17.0,0.0,,25.6,8.0,0.0,,,0.656,0.818,31.7,16.4,,,,,,1062.0,2026-05-13 10:41:18-07:00
131.06,2.0,8.0,2026-05-13 17:43:22,37.08163,-121.59961,227.0,0.0,84.2,-12.6,,,,,17:43:22,10.8,-0.4,6.8,0.0,58.0,0.1,-0.01,1.0,99.0,45.0,23.0,0.0,29.99,975.0,,,309.0,,,,,0.0,0.0,,,,,,,,,,,,,,,,,,,39.0,16.0,1082.0,1082.0,14.7,2.7,,2.7,25.8,,,37.0,0.0,0.0,-0.7,14.9,12.3,,,,,20.0,318.0,21.0,330.0,21.0,361.0,23.0,354.0,,,-17.0,0.0,,25.8,8.0,0.0,,,0.654,0.819,38.6,16.4,,,,,,1082.0,2026-05-13 10:41:18-07:00
132.06,2.0,8.0,2026-05-13 17:43:23,37.08163,-121.59961,231.0,0.1,84.2,-12.6,,,,,17:43:23,10.9,-0.4,6.8,0.0,60.0,0.1,-0.01,1.0,99.0,59.0,23.0,0.0,29.99,977.0,,,309.0,,,,,0.0,0.0,,,,,,,,,,,,,,,,,,,46.0,16.0,1097.0,1097.0,14.4,2.7,,2.7,25.9,,,37.0,0.0,0.0,-0.7,14.9,12.3,,,,,21.0,340.0,21.0,351.0,22.0,386.0,23.0,377.0,,,-17.0,0.0,,25.9,8.0,0.0,,,0.654,0.814,46.0,16.4,,,,,,1097.0,2026-05-13 10:41:18-07:00
133.06,2.0,8.0,2026-05-13 17:43:24,37.08163,-121.59961,233.0,0.1,84.2,-12.6,,,,,17:43:24,10.9,-0.4,6.8,0.0,62.0,0.1,-0.01,1.0,99.0,63.0,23.0,0.0,29.99,979.0,,,309.0,,,,,0.0,0.0,,,,,,,,,,,,,,,,,,,53.0,16.0,1044.0,1044.0,14.2,2.6,,2.6,25.9,,,37.0,0.0,0.0,-0.7,14.9,12.3,,,,,21.0,359.0,22.0,368.0,22.0,409.0,24.0,397.0,,,-17.0,0.0,,25.9,8.0,0.0,,,0.654,0.815,53.4,16.4,,,,,,1044.0,2026-05-13 10:41:18-07:00
134.06,2.0,8.0,2026-05-13 17:43:25,37.08162,-121.59961,238.0,0.1,84.2,-12.6,,,,,17:43:25,10.8,-0.5,6.8,0.0,62.0,0.1,-0.01,1.0,99.0,41.0,23.0,0.0,29.99,979.0,,,309.0,,,,,0.0,0.0,,,,,,,,,,,,,,,,,,,60.0,16.0,1028.0,1028.0,14.0,2.5,,2.5,26.0,,,37.0,0.0,0.0,-0.7,14.9,12.3,,,,,21.0,375.0,22.0,384.0,22.0,429.0,24.0,418.0,,,-17.0,0.0,,26.0,8.0,0.0,,,0.654,0.819,60.1,16.4,,,,,,1028.0,2026-05-13 10:41:18-07:00
135.06,2.0,8.0,2026-05-13 17:43:26,37.08162,-121.5996,239.0,0.0,84.2,-12.6,,,,,17:43:26,10.8,-0.5,6.7,0.0,62.0,0.1,-0.01,0.9,99.0,-9.0,23.0,0.0,29.99,979.0,,,309.0,,,,,0.0,0.0,,,,,,,,,,,,,,,,,,,66.0,16.0,1010.0,1010.0,14.0,2.4,,2.4,26.1,,,37.0,0.0,0.0,-0.7,14.9,12.3,,,,,22.0,390.0,23.0,398.0,23.0,449.0,25.0,435.0,,,-17.0,0.0,,26.1,8.0,0.0,,,0.654,0.817,65.6,16.4,,,,,,1010.0,2026-05-13 10:41:18-07:00
136.06,2.0,8.0,2026-05-13 17:43:27,37.08161,-121.5996,244.0,0.0,84.2,-12.6,,,,,17:43:27,10.8,-0.5,6.7,0.0,62.0,0.1,-0.01,1.0,99.0,-6.0,23.0,0.0,29.99,990.0,,,309.0,,,,,0.0,0.0,,,,,,,,,,,,,,,,,,,70.0,16.0,991.0,991.0,13.9,2.3,,2.3,26.1,,,37.0,0.0,0.0,-0.7,14.9,12.3,,,,,22.0,401.0,23.0,410.0,23.0,463.0,25.0,448.0,,,-17.0,0.0,,26.1,8.0,0.0,,,0.654,0.814,69.6,16.4,,,,,,991.0,2026-05-13 10:41:18-07:00
137.06,2.0,8.0,2026-05-13 17:43:28,37.08161,-121.5996,248.0,0.0,84.2,-12.6,,,,,17:43:28,10.8,-0.4,6.7,0.0,62.0,0.1,-0.01,1.0,99.0,17.0,23.0,0.0,29.99,990.0,,,309.0,,,,,0.0,0.0,,,,,,,,,,,,,,,,,,,72.0,17.0,958.0,958.0,13.9,2.3,,2.3,26.1,,,37.0,0.0,0.0,4.3,14.9,12.3,,,,,23.0,410.0,24.0,420.0,24.0,473.0,26.0,460.0,,,-16.0,0.0,,26.1,8.0,0.0,,,0.654,0.814,72.2,17.3,,,,,,958.0,2026-05-13 10:41:18-07:00
138.06,2.0,8.0,2026-05-13 17:43:29,37.0816,-121.59959,251.0,0.0,84.2,-12.6,,,,,17:43:29,10.9,-0.5,6.6,0.0,62.0,0.1,-0.01,1.0,99.0,-15.0,23.0,0.0,29.99,990.0,,,309.0,,,,,0.0,0.0,,,,,,,0.0,,,-45.0,,,,,,,,,74.0,17.0,935.0,935.0,14.5,2.2,,2.2,26.1,,,37.0,0.0,0.0,25.9,14.9,12.3,,,,,23.0,418.0,24.0,428.0,24.0,480.0,26.0,471.0,,,-16.0,0.0,,26.1,8.0,0.0,,,0.654,0.818,73.9,17.3,,,,,,935.0,2026-05-13 10:41:18-07:00
139.06,2.0,8.0,2026-05-13 17:43:30,37.0816,-121.59959,255.0,0.0,84.2,-12.6,,,,,17:43:30,10.9,-0.5,6.6,0.0,62.0,0.1,-0.01,0.9,99.0,-18.0,23.0,0.0,29.99,999.0,,,309.0,,,,,0.0,0.0,,,,,,,0.0,,,-51.0,,,,,,,,,75.0,17.0,935.0,935.0,14.6,2.2,,2.2,26.2,,,37.0,0.0,0.0,38.6,14.9,12.3,,,,,24.0,427.0,25.0,435.0,25.0,488.0,27.0,480.0,,,-16.0,0.0,,26.2,8.0,0.0,,,0.654,0.817,75.0,17.3,,,,,,935.0,2026-05-13 10:41:18-07:00
140.06,2.0,8.0,2026-05-13 17:43:31,37.0816,-121.59959,259.0,0.1,84.2,-12.6,,,,,17:43:31,10.9,-0.6,6.6,0.0,62.0,0.1,-0.01,1.0,99.0,-25.0,23.0,0.0,29.99,999.0,,,309.0,,,,,0.0,0.0,,,,,,,0.0,,,-56.0,,,,,,,,,76.0,17.0,931.0,931.0,14.8,2.2,,2.2,26.2,,,37.0,0.0,0.0,46.1,14.9,12.3,,,,,24.0,434.0,25.0,440.0,25.0,492.0,28.0,487.0,,,-16.0,0.0,,26.2,8.0,0.0,,,0.654,0.817,75.6,17.3,,,,,,931.0,2026-05-13 10:41:18-07:00
141.06,2.0,8.0,2026-05-13 17:43:32,37.08159,-121.59959,265.0,0.1,84.2,-12.6,,,,,17:43:32,10.9,-0.5,6.5,0.0,62.0,0.1,-0.01,0.9,99.0,-2.0,23.0,0.0,29.99,1000.0,,,309.0,,,,,0.0,0.0,,,,,,,0.0,,,-58.0,,,,,,,,,76.0,17.0,932.0,932.0,14.7,2.2,,2.2,26.2,,,37.0,0.0,0.0,50.5,14.9,12.3,,,,,25.0,441.0,26.0,446.0,26.0,496.0,28.0,493.0,,,-16.0,0.0,,26.2,8.0,0.0,,,0.654,0.817,76.1,17.4,,,,,,932.0,2026-05-13 10:41:18-07:00
142.06,2.0,8.0,2026-05-13 17:43:33,37.08159,-121.59959,267.0,0.1,84.2,-12.6,,,,,17:43:33,10.9,-0.5,6.5,0.0,62.0,0.1,-0.01,1.0,99.0,-45.0,23.0,0.0,29.99,1000.0,,,309.0,,,,,0.0,0.0,,,,,,,0.0,,,-61.0,,,,,3.0,0.0,0.0,1200.0,76.0,17.0,915.0,915.0,14.8,2.2,,2.2,26.2,,,37.0,0.0,0.0,52.9,14.9,12.3,,,,,25.0,446.0,26.0,452.0,26.0,502.0,28.0,499.0,,,-16.0,0.0,,26.2,8.0,0.0,,,0.654,0.818,76.3,17.4,,,,,,915.0,2026-05-13 10:41:18-07:00
143.06,2.0,8.0,2026-05-13 17:43:34,37.08158,-121.59959,271.0,0.0,84.2,-12.6,,,,,17:43:34,10.8,-0.5,6.6,0.0,62.0,0.1,-0.01,1.0,99.0,-50.0,23.0,0.0,29.99,1000.0,,,309.0,,,,,0.0,0.0,,,,,,,0.0,,,-62.0,,,,,1.0,0.0,0.0,1200.0,76.0,17.0,934.0,934.0,14.7,2.2,,2.2,26.2,,,37.0,0.0,0.0,54.5,14.9,12.3,,,,,26.0,451.0,27.0,457.0,27.0,507.0,29.0,504.0,,,-15.0,0.0,,26.2,8.0,0.0,,,0.654,0.818,76.5,17.4,,,,,,934.0,2026-05-13 10:41:18-07:00
144.06,2.0,8.0,2026-05-13 17:43:35,37.08158,-121.59959,274.0,0.0,84.2,-12.6,,,,,17:43:35,10.8,-0.5,6.6,0.0,62.0,0.1,-0.01,1.0,99.0,-38.0,23.0,0.0,29.99,1010.0,,,309.0,,,,,0.0,0.0,,,,,,,0.0,,,-62.0,,,,,1.0,0.0,0.0,1200.0,77.0,17.0,929.0,929.0,14.8,2.2,,2.2,26.2,,,37.0,0.0,0.0,55.2,14.9,12.3,,,,,26.0,456.0,27.0,461.0,27.0,512.0,29.0,509.0,,,-16.0,0.0,,26.2,8.0,0.0,,,0.654,0.82,76.5,17.4,,,,,,929.0,2026-05-13 10:41:18-07:00
145.06,2.0,8.0,2026-05-13 17:43:36,37.08158,-121.59959,277.0,0.0,84.2,-12.6,,,,,17:43:36,10.8,-0.4,6.6,0.0,62.0,0.1,-0.01,1.0,99.0,-43.0,23.0,0.0,29.99,1010.0,,,309.0,,,,,0.0,0.0,,,,,,,0.0,,,-63.0,,,,,,,,,77.0,17.0,929.0,929.0,14.7,2.2,,2.2,26.2,,,37.0,0.0,0.0,55.7,14.9,12.3,,,,,26.0,461.0,28.0,465.0,28.0,517.0,30.0,512.0,,,-16.0,0.0,,26.2,8.0,0.0,,,0.653,0.818,76.7,17.4,,,,,,929.0,2026-05-13 10:41:18-07:00
146.06,2.0,8.0,2026-05-13 17:43:37,37.08157,-121.59959,279.0,0.0,84.2,-12.6,,,,,17:43:37,10.8,-0.4,6.7,0.0,62.0,0.1,-0.01,1.0,99.0,-59.0,23.0,0.0,29.99,1010.0,,,309.0,,,,,0.0,0.0,,,,,,,0.0,,,-64.0,,,,,,,,,77.0,17.0,927.0,927.0,14.9,2.2,,2.2,26.2,,,37.0,0.0,0.0,55.8,14.9,12.3,,,,,27.0,465.0,28.0,467.0,28.0,521.0,31.0,517.0,,,-16.0,0.0,,26.2,8.0,0.0,,,0.653,0.815,76.7,17.4,,,,,,927.0,2026-05-13 10:41:18-07:00
147.06,2.0,8.0,2026-05-13 17:43:38,37.08157,-121.59959,279.0,0.1,84.2,-12.6,,,,,17:43:38,10.8,-0.3,6.6,0.0,62.0,0.1,-0.01,1.0,99.0,-78.0,23.0,0.0,29.99,1011.0,,,309.0,,,,,0.0,0.0,,,,,,,0.0,,,-64.0,,,,,,,,,77.0,17.0,923.0,923.0,14.8,2.2,,2.2,26.2,,,37.0,0.0,0.0,55.8,14.9,12.3,,,,,27.0,469.0,29.0,470.0,29.0,526.0,31.0,522.0,,,-16.0,0.0,,26.2,8.0,0.0,,,0.653,0.818,76.7,17.4,,,,,,923.0,2026-05-13 10:41:18-07:00
148.06,2.0,8.0,2026-05-13 17:43:39,37.08154,-121.59957,305.0,0.1,84.2,-12.6,,,,,17:43:39,10.9,-0.4,6.6,0.0,61.0,0.1,-0.01,1.0,99.0,-99.0,23.0,0.0,29.99,1011.0,,,309.0,,,,,0.0,0.0,,,,,,,0.0,,,-64.0,,,,,,,,,77.0,17.0,936.0,936.0,14.8,2.2,,2.2,26.2,,,37.0,0.0,0.0,56.0,14.9,12.3,,,,,28.0,472.0,29.0,474.0,29.0,530.0,32.0,525.0,,,-16.0,0.0,,26.2,8.0,0.0,,,0.653,0.818,76.7,17.4,,,,,,936.0,2026-05-13 10:41:18-07:00
