Session Time,GPS Fix Quality,Number of Satellites,GPS Date & Time,Latitude (deg),Longitude (deg),GPS Altitude (feet),Ground Speed (knots),Ground Track (deg),Mag Var (deg),Cross Track Error (NM),Destination Waypoint ID,Range to Destination (NM),Bearing to Destination (deg),System Time,Pitch (deg),Roll (deg),Magnetic Heading (deg),Indicated Airspeed (knots),Pressure Altitude (ft),Turn Rate (deg/s),Lateral Accel (g),Vertical Accel(g),Angle of Attack (%),Vertical Speed (ft/min),OAT (deg C),True Airspeed (knots),Barometer Setting (inHg),Density Altitude (ft),Wind Direction (deg),Wind Speed (knots),Heading Bug (deg),Altitude Bug (ft),Airspeed Bug (knots),Vertical Speed Bug (ft/min),Course (deg),CDI Source Type,CDI Source Port,CDI Scale (NM),CDI Deflection (%),Glideslope (%),AP Engaged,AP Roll Mode,AP Roll Force,AP Roll Position (steps),AP Roll Slip (bool),AP Pitch Force,AP Pitch Position (steps),AP Pitch Slip (bool),AP Yaw Force,AP Yaw Position,AP Yaw Slip (bool),Transponder Status,Transponder Reply (bool),Transponder Identing (bool),Transponder Code (octal),Oil Pressure (PSI),Oil Temp (deg C),RPM L,RPM R,Manifold Pressure (inHg),Fuel Flow 1 (gal/hr),Fuel Flow 2 (gal/hr),Total Fuel Flow (gal/hr),Fuel Pressure (PSI),Fuel Level L (gal),Fuel Level R (gal),Fuel Remaining (gal),Volts 1,Volts 2,Amps,Hobbs Time,Tach Time,Thermocouple 1 (deg C),Thermocouple 2 (deg C),Thermocouple 3 (deg C),Thermocouple 4 (deg C),CHT 4 (deg C),EGT 4 (deg C),CHT 3 (deg C),EGT 3 (deg C),CHT 2 (deg C),EGT 2 (deg C),CHT 1 (deg C),EGT 1 (deg C),Thermocouple 13 (deg C),Thermocouple 14 (deg C),ELEV POSITION (%),CO PPM PRESSURE (PSI),GP Input 3,FUEL PRESSURE (PSI),AILERN POSITION (%),CANOPY CONTACT (V),GP Input 7,GP Input 8,LEFT LEVEL (Sensor V),RIGHT LEVEL (Sensor V),OIL PRESSURE (PSI),OIL TEMPERATURE (deg C),GP Input 13,Contacts,Percent Power,EGT Leaning State,Unnamed: 103,RPM,AVG_CHT,CHT_Delta_T,OIL_Delta_T,Fuel Flow Integral,Distance Traveled,MPG,Flight ID
6.06,1.0,8.0,2026-04-18 15:46:35,37.0816,-121.59956,330.0,0.0,61.1,-12.6,0.0,,0.0,0.0,0.0,10.8,-0.5,5.9,0.0,208.0,0.1,-0.01,1.0,99.0,-71.0,14.0,0.0,30.08,100.0,0.0,0.0,317.0,0.0,0.0,0.0,0.0,0.0,0.0,0.0,0.0,0.0,0.0,0.0,0.0,0.0,0.0,0.0,0.0,0.0,0.0,0.0,0.0,0.0,0.0,0.0,0.0,0.0,12.0,0.0,0.0,30.1,0.0,0.0,0.0,0.0,0.0,0.0,36.1,0.0,0.0,-0.3,11.1,9.1,0.0,0.0,0.0,0.0,12.0,12.0,12.0,13.0,12.0,12.0,12.0,13.0,0.0,0.0,-2.0,254.6,0.0,0.0,5.0,0.0,0.0,0.0,0.656,0.841,+0.0,11.9,0.0,0.0,0.0,,0.0,0.0,12.0,-2.0,-2.0999999999999996,0.0,0.0,0.0,2026-04-18 08:46:35-07:00
7.06,1.0,9.0,2026-04-18 15:46:36,37.08162,-121.59959,286.0,0.0,61.1,-12.6,0.0,,0.0,0.0,0.0,10.8,-0.5,5.9,0.0,208.0,0.1,-0.01,1.0,99.0,-74.0,14.0,0.0,30.08,107.0,0.0,0.0,317.0,0.0,0.0,0.0,0.0,0.0,0.0,0.0,0.0,0.0,0.0,0.0,0.0,0.0,0.0,0.0,0.0,0.0,0.0,0.0,0.0,0.0,0.0,0.0,0.0,0.0,12.0,0.0,0.0,30.1,0.0,0.0,0.0,0.0,0.0,0.0,36.1,0.0,0.0,-0.3,11.1,9.1,0.0,0.0,0.0,0.0,12.0,12.0,12.0,13.0,12.0,12.0,12.0,13.0,0.0,0.0,-2.0,254.6,0.0,0.0,5.0,0.0,0.0,0.0,0.656,0.841,+0.0,11.9,0.0,0.0,0.0,,0.0,0.0,12.0,-2.0,-2.0999999999999996,0.0,0.0,0.0,2026-04-18 08:46:35-07:00
8.06,1.0,9.0,2026-04-18 15:46:37,37.08159,-121.59959,287.0,0.0,61.1,-12.6,0.0,,0.0,0.0,0.0,10.8,-0.5,5.9,0.0,207.0,0.1,-0.01,1.0,99.0,-77.0,14.0,0.0,30.08,104.0,0.0,0.0,317.0,0.0,0.0,0.0,0.0,0.0,0.0,0.0,0.0,0.0,0.0,0.0,0.0,0.0,0.0,0.0,0.0,0.0,0.0,0.0,0.0,0.0,0.0,0.0,0.0,0.0,12.0,0.0,0.0,30.1,0.0,0.0,0.0,0.0,0.0,0.0,36.1,0.0,0.0,-0.3,11.1,9.1,0.0,0.0,0.0,0.0,12.0,12.0,12.0,13.0,12.0,12.0,12.0,13.0,0.0,0.0,-2.0,254.6,0.0,0.0,5.0,0.0,0.0,0.0,0.654,0.841,+0.0,11.9,0.0,0.0,0.0,,0.0,0.0,12.0,-2.0,-2.0999999999999996,0.0,0.0,0.0,2026-04-18 08:46:35-07:00
9.06,1.0,9.0,2026-04-18 15:46:38,37.0816,-121.59959,285.0,0.0,61.1,-12.6,0.0,,0.0,0.0,0.0,10.8,-0.5,6.0,0.0,205.0,0.1,-0.01,1.0,99.0,-57.0,14.0,0.0,30.08,104.0,0.0,0.0,317.0,0.0,0.0,0.0,0.0,0.0,0.0,0.0,0.0,0.0,0.0,0.0,0.0,0.0,0.0,0.0,0.0,0.0,0.0,0.0,0.0,0.0,0.0,0.0,0.0,0.0,12.0,0.0,0.0,30.1,0.0,0.0,0.0,0.0,0.0,0.0,36.1,0.0,0.0,-0.3,11.1,9.1,0.0,0.0,0.0,0.0,12.0,12.0,12.0,13.0,12.0,12.0,12.0,13.0,0.0,0.0,-1.0,254.6,0.0,0.0,5.0,0.0,0.0,0.0,0.654,0.841,+0.0,11.9,0.0,0.0,0.0,,0.0,0.0,12.0,-2.0,-2.0999999999999996,0.0,0.0,0.0,2026-04-18 08:46:35-07:00
10.06,1.0,9.0,2026-04-18 15:46:39,37.0816,-121.59959,284.0,0.0,61.1,-12.6,0.0,,0.0,0.0,0.0,10.8,-0.5,6.0,0.0,205.0,0.1,-0.01,1.0,99.0,-61.0,14.0,0.0,30.08,104.0,0.0,0.0,317.0,0.0,0.0,0.0,0.0,0.0,0.0,0.0,0.0,0.0,0.0,0.0,0.0,0.0,0.0,0.0,0.0,0.0,0.0,0.0,0.0,0.0,0.0,0.0,0.0,0.0,12.0,0.0,0.0,30.1,0.0,0.0,0.0,0.0,0.0,0.0,36.1,0.0,0.0,-0.3,11.1,9.1,0.0,0.0,0.0,0.0,12.0,12.0,12.0,13.0,12.0,12.0,12.0,13.0,0.0,0.0,-2.0,254.6,0.0,0.0,5.0,0.0,0.0,0.0,0.654,0.841,+0.0,11.9,0.0,0.0,0.0,,0.0,0.0,12.0,-2.0,-2.0999999999999996,0.0,0.0,0.0,2026-04-18 08:46:35-07:00
11.06,1.0,9.0,2026-04-18 15:46:40,37.0816,-121.59959,282.0,0.0,61.1,-12.6,0.0,,0.0,0.0,0.0,10.8,-0.5,6.0,0.0,204.0,0.1,-0.01,1.0,99.0,-62.0,14.0,0.0,30.08,103.0,0.0,0.0,317.0,0.0,0.0,0.0,0.0,0.0,0.0,0.0,0.0,0.0,0.0,0.0,0.0,0.0,0.0,0.0,0.0,0.0,0.0,0.0,0.0,0.0,0.0,0.0,0.0,0.0,12.0,0.0,0.0,30.1,0.0,0.0,0.0,0.0,0.0,0.0,36.1,0.0,0.0,-0.3,11.1,9.1,0.0,0.0,0.0,0.0,12.0,12.0,12.0,13.0,12.0,12.0,12.0,13.0,0.0,0.0,-1.0,254.6,0.0,0.0,5.0,0.0,0.0,0.0,0.654,0.841,+0.0,11.9,0.0,0.0,0.0,,0.0,0.0,12.0,-2.0,-2.0999999999999996,0.0,0.0,0.0,2026-04-18 08:46:35-07:00
12.06,1.0,9.0,2026-04-18 15:46:41,37.0816,-121.59959,281.0,0.0,61.1,-12.6,0.0,,0.0,0.0,0.0,10.9,-0.5,6.0,0.0,203.0,0.1,-0.01,1.0,99.0,-59.0,14.0,0.0,30.08,103.0,0.0,0.0,317.0,0.0,0.0,0.0,0.0,0.0,0.0,0.0,0.0,0.0,0.0,0.0,0.0,0.0,0.0,0.0,0.0,0.0,0.0,0.0,0.0,0.0,0.0,0.0,0.0,0.0,12.0,0.0,0.0,30.1,0.0,0.0,0.0,0.0,0.0,0.0,36.1,0.0,0.0,-0.3,11.1,9.1,0.0,0.0,0.0,0.0,12.0,12.0,12.0,13.0,12.0,12.0,12.0,13.0,0.0,0.0,-1.0,254.6,0.0,0.0,5.0,0.0,0.0,0.0,0.656,0.841,+0.0,11.9,0.0,0.0,0.0,,0.0,0.0,12.0,-2.0,-2.0999999999999996,0.0,0.0,0.0,2026-04-18 08:46:35-07:00
13.06,1.0,9.0,2026-04-18 15:46:42,37.0816,-121.59959,279.0,0.0,61.1,-12.6,0.0,,0.0,0.0,0.0,10.9,-0.5,5.9,0.0,202.0,0.1,-0.01,1.0,99.0,-43.0,14.0,0.0,30.08,103.0,0.0,0.0,317.0,0.0,0.0,0.0,0.0,0.0,0.0,0.0,0.0,0.0,0.0,0.0,0.0,0.0,0.0,0.0,0.0,0.0,0.0,0.0,0.0,0.0,0.0,0.0,0.0,0.0,12.0,0.0,0.0,30.1,0.0,0.0,0.0,0.0,0.0,0.0,36.1,0.0,0.0,-0.3,11.1,9.1,0.0,0.0,0.0,0.0,12.0,12.0,12.0,13.0,12.0,12.0,12.0,13.0,0.0,0.0,-1.0,254.6,0.0,0.0,5.0,0.0,0.0,0.0,0.654,0.841,+0.0,11.8,0.0,0.0,0.0,,0.0,0.0,12.0,-2.0,-2.1999999999999993,0.0,0.0,0.0,2026-04-18 08:46:35-07:00
14.06,1.0,9.0,2026-04-18 15:46:43,37.08161,-121.59959,278.0,0.0,61.1,-12.6,0.0,,0.0,0.0,0.0,10.9,-0.5,6.0,0.0,202.0,0.1,-0.01,1.0,99.0,-24.0,14.0,0.0,30.08,100.0,0.0,0.0,317.0,0.0,0.0,0.0,0.0,0.0,0.0,0.0,0.0,0.0,0.0,0.0,0.0,0.0,0.0,0.0,0.0,0.0,0.0,0.0,0.0,0.0,0.0,0.0,0.0,0.0,12.0,0.0,0.0,30.1,0.0,0.0,0.0,0.0,0.0,0.0,36.1,0.0,0.0,-0.3,11.1,9.1,0.0,0.0,0.0,0.0,12.0,12.0,12.0,13.0,12.0,12.0,12.0,13.0,0.0,0.0,-1.0,254.6,0.0,0.0,5.0,0.0,0.0,0.0,0.654,0.84,+0.0,11.8,0.0,0.0,0.0,,0.0,0.0,12.0,-2.0,-2.1999999999999993,0.0,0.0,0.0,2026-04-18 08:46:35-07:00
15.06,1.0,9.0,2026-04-18 15:46:44,37.08161,-121.59959,276.0,0.0,61.1,-12.6,0.0,,0.0,0.0,0.0,10.9,-0.6,5.9,0.0,202.0,0.1,-0.01,1.0,99.0,-38.0,14.0,0.0,30.08,100.0,0.0,0.0,317.0,0.0,0.0,0.0,0.0,0.0,0.0,0.0,0.0,0.0,0.0,0.0,0.0,0.0,0.0,0.0,0.0,0.0,0.0,0.0,0.0,0.0,0.0,0.0,0.0,0.0,12.0,0.0,0.0,30.1,0.0,0.0,0.0,0.0,0.0,0.0,36.1,0.0,0.0,-0.3,11.1,9.1,0.0,0.0,0.0,0.0,12.0,12.0,12.0,13.0,12.0,12.0,12.0,13.0,0.0,0.0,-1.0,254.6,0.0,0.0,5.0,0.0,0.0,0.0,0.654,0.841,+0.0,11.8,0.0,0.0,0.0,,0.0,0.0,12.0,-2.0,-2.1999999999999993,0.0,0.0,0.0,2026-04-18 08:46:35-07:00
16.06,1.0,9.0,2026-04-18 15:46:45,37.08161,-121.59959,275.0,0.0,61.1,-12.6,0.0,,0.0,0.0,0.0,10.8,-0.6,5.8,0.0,199.0,0.1,-0.01,1.0,99.0,-77.0,14.0,0.0,30.08,100.0,0.0,0.0,317.0,0.0,0.0,0.0,0.0,0.0,0.0,0.0,0.0,0.0,0.0,0.0,0.0,0.0,0.0,0.0,0.0,0.0,0.0,0.0,0.0,0.0,0.0,0.0,0.0,0.0,12.0,0.0,0.0,30.1,0.0,0.0,0.0,0.0,0.0,0.0,36.1,0.0,0.0,-0.3,11.1,9.1,0.0,0.0,0.0,0.0,12.0,12.0,12.0,13.0,12.0,12.0,12.0,13.0,0.0,0.0,-1.0,254.6,0.0,0.0,5.0,0.0,0.0,0.0,0.654,0.841,+0.0,11.8,0.0,0.0,0.0,,0.0,0.0,12.0,-2.0,-2.1999999999999993,0.0,0.0,0.0,2026-04-18 08:46:35-07:00
17.06,1.0,9.0,2026-04-18 15:46:46,37.08162,-121.59959,274.0,0.0,61.1,-12.6,0.0,,0.0,0.0,0.0,10.8,-0.6,5.8,0.0,198.0,0.1,-0.01,1.0,99.0,-73.0,14.0,0.0,30.08,97.0,0.0,0.0,317.0,0.0,0.0,0.0,0.0,0.0,0.0,0.0,0.0,0.0,0.0,0.0,0.0,0.0,0.0,0.0,0.0,0.0,0.0,0.0,0.0,0.0,0.0,0.0,0.0,0.0,12.0,0.0,0.0,30.1,0.0,0.0,0.0,0.0,0.0,0.0,36.1,0.0,0.0,-0.3,11.1,9.1,0.0,0.0,0.0,0.0,12.0,12.0,12.0,13.0,12.0,12.0,12.0,13.0,0.0,0.0,-1.0,254.6,0.0,0.0,5.0,0.0,0.0,0.0,0.654,0.841,+0.0,11.8,0.0,0.0,0.0,,0.0,0.0,12.0,-2.0,-2.1999999999999993,0.0,0.0,0.0,2026-04-18 08:46:35-07:00
18.06,1.0,9.0,2026-04-18 15:46:47,37.08162,-121.59959,273.0,0.0,61.1,-12.6,0.0,,0.0,0.0,0.0,10.8,-0.6,5.8,0.0,197.0,0.1,-0.01,1.0,99.0,-98.0,14.0,0.0,30.08,97.0,0.0,0.0,317.0,0.0,0.0,0.0,0.0,0.0,0.0,0.0,0.0,0.0,0.0,0.0,0.0,0.0,0.0,0.0,0.0,0.0,0.0,0.0,0.0,0.0,0.0,0.0,0.0,0.0,12.0,0.0,0.0,30.1,0.0,0.0,0.0,0.0,0.0,0.0,36.1,0.0,0.0,-0.3,11.1,9.1,0.0,0.0,0.0,0.0,12.0,12.0,12.0,13.0,12.0,12.0,12.0,13.0,0.0,0.0,-1.0,254.6,0.0,0.0,5.0,0.0,0.0,0.0,0.654,0.841,+0.0,11.8,0.0,0.0,0.0,,0.0,0.0,12.0,-2.0,-2.1999999999999993,0.0,0.0,0.0,2026-04-18 08:46:35-07:00
19.06,1.0,9.0,2026-04-18 15:46:48,37.08162,-121.59959,272.0,0.0,61.1,-12.6,0.0,,0.0,0.0,0.0,10.8,-0.6,5.8,0.0,196.0,0.1,-0.01,1.0,99.0,-72.0,14.0,0.0,30.08,97.0,0.0,0.0,317.0,0.0,0.0,0.0,0.0,0.0,0.0,0.0,0.0,0.0,0.0,0.0,0.0,0.0,0.0,0.0,0.0,0.0,0.0,0.0,0.0,0.0,0.0,0.0,0.0,0.0,12.0,0.0,0.0,30.1,0.0,0.0,0.0,0.0,0.0,0.0,36.1,0.0,0.0,-0.3,11.1,9.1,0.0,0.0,0.0,0.0,12.0,12.0,12.0,13.0,12.0,12.0,12.0,13.0,0.0,0.0,-2.0,254.6,0.0,0.0,5.0,0.0,0.0,0.0,0.656,0.841,+0.0,11.8,0.0,0.0,0.0,,0.0,0.0,12.0,-2.0,-2.1999999999999993,0.0,0.0,0.0,2026-04-18 08:46:35-07:00
20.06,1.0,9.0,2026-04-18 15:46:49,37.08162,-121.59959,272.0,0.0,61.1,-12.6,0.0,,0.0,0.0,0.0,10.8,-0.6,5.8,0.0,194.0,0.1,-0.01,1.0,99.0,-75.0,14.0,0.0,30.08,93.0,0.0,0.0,317.0,0.0,0.0,0.0,0.0,0.0,0.0,0.0,0.0,0.0,0.0,0.0,0.0,0.0,0.0,0.0,0.0,0.0,0.0,0.0,0.0,0.0,0.0,0.0,0.0,0.0,12.0,0.0,0.0,30.1,0.0,0.0,0.0,0.0,0.0,0.0,36.1,0.0,0.0,-0.3,11.1,9.1,0.0,0.0,0.0,0.0,12.0,12.0,12.0,13.0,12.0,12.0,12.0,13.0,0.0,0.0,-1.0,254.6,0.0,0.0,5.0,0.0,0.0,0.0,0.654,0.841,+0.0,11.8,0.0,0.0,0.0,,0.0,0.0,12.0,-2.0,-2.1999999999999993,0.0,0.0,0.0,2026-04-18 08:46:35-07:00
21.06,1.0,9.0,2026-04-18 15:46:50,37.08162,-121.59959,272.0,0.0,61.1,-12.6,0.0,,0.0,0.0,0.0,10.8,-0.5,5.8,0.0,193.0,0.1,-0.01,1.0,99.0,-98.0,14.0,0.0,30.08,93.0,0.0,0.0,317.0,0.0,0.0,0.0,0.0,0.0,0.0,0.0,0.0,0.0,0.0,0.0,0.0,0.0,0.0,0.0,0.0,0.0,0.0,0.0,0.0,0.0,0.0,0.0,0.0,0.0,12.0,0.0,0.0,30.1,0.0,0.0,0.0,0.0,0.0,0.0,36.1,0.0,0.0,-0.3,11.1,9.1,0.0,0.0,0.0,0.0,12.0,12.0,12.0,13.0,12.0,12.0,12.0,13.0,0.0,0.0,-1.0,254.6,0.0,0.0,5.0,0.0,0.0,0.0,0.656,0.841,+0.0,11.8,0.0,0.0,0.0,,0.0,0.0,12.0,-2.0,-2.1999999999999993,0.0,0.0,0.0,2026-04-18 08:46:35-07:00
22.06,1.0,9.0,2026-04-18 15:46:51,37.08162,-121.59959,272.0,0.0,61.1,-12.6,0.0,,0.0,0.0,0.0,10.8,-0.5,5.8,0.0,189.0,0.1,-0.01,1.0,99.0,-118.0,14.0,0.0,30.08,93.0,0.0,0.0,317.0,0.0,0.0,0.0,0.0,0.0,0.0,0.0,0.0,0.0,0.0,0.0,0.0,0.0,0.0,0.0,0.0,0.0,0.0,0.0,0.0,0.0,0.0,0.0,0.0,0.0,12.0,0.0,0.0,30.1,0.0,0.0,0.0,0.0,0.0,0.0,36.1,0.0,0.0,-0.3,11.1,9.1,0.0,0.0,0.0,0.0,12.0,12.0,12.0,13.0,12.0,12.0,12.0,13.0,0.0,0.0,-1.0,254.6,0.0,0.0,5.0,0.0,0.0,0.0,0.656,0.841,+0.0,11.8,0.0,0.0,0.0,,0.0,0.0,12.0,-2.0,-2.1999999999999993,0.0,0.0,0.0,2026-04-18 08:46:35-07:00
23.06,1.0,9.0,2026-04-18 15:46:52,37.08162,-121.59959,271.0,0.0,61.1,-12.6,0.0,,0.0,0.0,0.0,10.9,-0.5,5.8,0.0,189.0,0.1,-0.01,1.0,99.0,-88.0,14.0,0.0,30.08,96.0,0.0,0.0,317.0,0.0,0.0,0.0,0.0,0.0,0.0,0.0,0.0,0.0,0.0,0.0,0.0,0.0,0.0,0.0,0.0,0.0,0.0,0.0,0.0,0.0,0.0,0.0,0.0,0.0,12.0,0.0,0.0,30.1,0.0,0.0,0.0,0.0,0.0,0.0,36.1,0.0,0.0,-0.3,11.1,9.1,0.0,0.0,0.0,0.0,12.0,12.0,12.0,13.0,12.0,12.0,12.0,13.0,0.0,0.0,-1.0,254.6,0.0,0.0,5.0,0.0,0.0,0.0,0.654,0.841,+0.0,11.8,0.0,0.0,0.0,,0.0,0.0,12.0,-2.0,-2.1999999999999993,0.0,0.0,0.0,2026-04-18 08:46:35-07:00
24.06,1.0,9.0,2026-04-18 15:46:53,37.08162,-121.59959,271.0,0.0,61.1,-12.6,0.0,,0.0,0.0,0.0,10.9,-0.5,5.8,0.0,188.0,0.1,-0.01,1.0,99.0,-90.0,14.0,0.0,30.08,96.0,0.0,0.0,317.0,0.0,0.0,0.0,0.0,0.0,0.0,0.0,0.0,0.0,0.0,0.0,0.0,0.0,0.0,0.0,0.0,0.0,0.0,0.0,0.0,0.0,0.0,0.0,0.0,0.0,12.0,0.0,0.0,30.1,0.0,0.0,0.0,0.0,0.0,0.0,36.1,0.0,0.0,-0.3,11.1,9.1,0.0,0.0,0.0,0.0,12.0,12.0,12.0,13.0,12.0,12.0,12.0,13.0,0.0,0.0,-1.0,254.6,0.0,0.0,5.0,0.0,0.0,0.0,0.656,0.841,+0.0,11.8,0.0,0.0,0.0,,0.0,0.0,12.0,-2.0,-2.1999999999999993,0.0,0.0,0.0,2026-04-18 08:46:35-07:00
25.06,1.0,9.0,2026-04-18 15:46:54,37.08162,-121.59959,271.0,0.0,61.1,-12.6,0.0,,0.0,0.0,0.0,10.8,-0.6,5.8,0.0,186.0,0.1,-0.01,1.0,99.0,-98.0,14.0,0.0,30.08,96.0,0.0,0.0,317.0,0.0,0.0,0.0,0.0,0.0,0.0,0.0,0.0,0.0,0.0,0.0,0.0,0.0,0.0,0.0,0.0,0.0,0.0,0.0,0.0,0.0,0.0,0.0,0.0,0.0,12.0,0.0,0.0,30.1,0.0,0.0,0.0,0.0,0.0,0.0,36.1,0.0,0.0,-0.3,11.1,9.1,0.0,0.0,0.0,0.0,12.0,12.0,12.0,13.0,12.0,12.0,12.0,13.0,0.0,0.0,-1.0,254.6,0.0,0.0,5.0,0.0,0.0,0.0,0.656,0.841,+0.0,11.8,0.0,0.0,0.0,,0.0,0.0,12.0,-2.0,-2.1999999999999993,0.0,0.0,0.0,2026-04-18 08:46:35-07:00
26.06,1.0,9.0,2026-04-18 15:46:55,37.08162,-121.59959,271.0,0.0,61.1,-12.6,0.0,,0.0,0.0,0.0,10.8,-0.6,5.8,0.0,185.0,0.1,-0.01,1.0,99.0,-98.0,14.0,0.0,30.08,90.0,0.0,0.0,317.0,0.0,0.0,0.0,0.0,0.0,0.0,0.0,0.0,0.0,0.0,0.0,0.0,0.0,0.0,0.0,0.0,0.0,0.0,0.0,0.0,0.0,0.0,0.0,0.0,0.0,12.0,0.0,0.0,30.1,0.0,0.0,0.0,0.0,0.0,0.0,36.1,0.0,0.0,-0.3,11.1,9.1,0.0,0.0,0.0,0.0,12.0,12.0,12.0,13.0,12.0,12.0,12.0,13.0,0.0,0.0,-1.0,254.6,0.0,0.0,5.0,0.0,0.0,0.0,0.654,0.841,+0.0,11.8,0.0,0.0,0.0,,0.0,0.0,12.0,-2.0,-2.1999999999999993,0.0,0.0,0.0,2026-04-18 08:46:35-07:00
27.06,1.0,9.0,2026-04-18 15:46:56,37.08162,-121.59959,271.0,0.0,61.1,-12.6,0.0,,0.0,0.0,0.0,10.8,-0.6,5.8,0.0,183.0,0.1,-0.01,1.0,99.0,-92.0,14.0,0.0,30.08,90.0,0.0,0.0,317.0,0.0,0.0,0.0,0.0,0.0,0.0,0.0,0.0,0.0,0.0,0.0,0.0,0.0,0.0,0.0,0.0,0.0,0.0,0.0,0.0,0.0,0.0,0.0,0.0,0.0,12.0,0.0,0.0,30.1,0.0,0.0,0.0,0.0,0.0,0.0,36.1,0.0,0.0,-0.3,11.1,9.1,0.0,0.0,0.0,0.0,12.0,12.0,12.0,13.0,12.0,12.0,12.0,13.0,0.0,0.0,-1.0,254.6,0.0,0.0,5.0,0.0,0.0,0.0,0.654,0.841,+0.0,11.8,0.0,0.0,0.0,,0.0,0.0,12.0,-2.0,-2.1999999999999993,0.0,0.0,0.0,2026-04-18 08:46:35-07:00
28.06,1.0,9.0,2026-04-18 15:46:57,37.08162,-121.59959,271.0,0.0,61.1,-12.6,0.0,,0.0,0.0,0.0,10.8,-0.6,5.8,0.0,182.0,0.1,-0.01,1.0,99.0,-89.0,14.0,0.0,30.08,90.0,0.0,0.0,317.0,0.0,0.0,0.0,0.0,0.0,0.0,0.0,0.0,0.0,0.0,0.0,0.0,0.0,0.0,0.0,0.0,0.0,0.0,0.0,0.0,0.0,0.0,0.0,0.0,0.0,12.0,0.0,0.0,30.1,0.0,0.0,0.0,0.0,0.0,0.0,36.1,0.0,0.0,-0.3,11.1,9.1,0.0,0.0,0.0,0.0,12.0,12.0,12.0,13.0,12.0,12.0,12.0,13.0,0.0,0.0,-2.0,254.6,0.0,0.0,5.0,0.0,0.0,0.0,0.654,0.841,+0.0,11.8,0.0,0.0,0.0,,0.0,0.0,12.0,-2.0,-2.1999999999999993,0.0,0.0,0.0,2026-04-18 08:46:35-07:00
29.06,1.0,9.0,2026-04-18 15:46:58,37.08162,-121.59958,270.0,0.0,61.1,-12.6,0.0,,0.0,0.0,0.0,10.8,-0.6,5.8,0.0,180.0,0.1,-0.01,1.0,99.0,-75.0,14.0,0.0,30.08,84.0,0.0,0.0,317.0,0.0,0.0,0.0,0.0,0.0,0.0,0.0,0.0,0.0,0.0,0.0,0.0,0.0,0.0,0.0,0.0,0.0,0.0,0.0,0.0,0.0,0.0,0.0,0.0,0.0,12.0,0.0,0.0,30.1,0.0,0.0,0.0,0.0,0.0,0.0,36.1,0.0,0.0,-0.3,11.1,9.1,0.0,0.0,0.0,0.0,12.0,12.0,12.0,13.0,12.0,12.0,12.0,13.0,0.0,0.0,-1.0,254.6,0.0,0.0,5.0,0.0,0.0,0.0,0.656,0.841,+0.0,11.8,0.0,0.0,0.0,,0.0,0.0,12.0,-2.0,-2.1999999999999993,0.0,0.0,0.0,2026-04-18 08:46:35-07:00
30.06,1.0,9.0,2026-04-18 15:46:59,37.08162,-121.59958,270.0,0.0,61.1,-12.6,0.0,,0.0,0.0,0.0,10.8,-0.6,5.8,0.0,180.0,0.1,-0.01,1.0,99.0,-61.0,14.0,0.0,30.08,84.0,0.0,0.0,317.0,0.0,0.0,0.0,0.0,0.0,0.0,0.0,0.0,0.0,0.0,0.0,0.0,0.0,0.0,0.0,0.0,0.0,0.0,0.0,0.0,0.0,0.0,0.0,0.0,0.0,12.0,0.0,0.0,30.1,0.0,0.0,0.0,0.0,0.0,0.0,36.1,0.0,0.0,-0.3,11.1,9.1,0.0,0.0,0.0,0.0,12.0,12.0,12.0,13.0,12.0,12.0,12.0,13.0,0.0,0.0,-1.0,254.6,0.0,0.0,5.0,0.0,0.0,0.0,0.656,0.841,+0.0,11.8,0.0,0.0,0.0,,0.0,0.0,12.0,-2.0,-2.1999999999999993,0.0,0.0,0.0,2026-04-18 08:46:35-07:00
31.06,1.0,9.0,2026-04-18 15:47:00,37.08162,-121.59958,271.0,0.0,61.1,-12.6,0.0,,0.0,0.0,0.0,10.8,-0.6,5.8,0.0,179.0,0.1,-0.01,1.0,99.0,-74.0,14.0,0.0,30.08,84.0,0.0,0.0,317.0,0.0,0.0,0.0,0.0,0.0,0.0,0.0,0.0,0.0,0.0,0.0,0.0,0.0,0.0,0.0,0.0,0.0,0.0,0.0,0.0,0.0,0.0,0.0,0.0,0.0,12.0,0.0,0.0,30.1,0.0,0.0,0.0,0.0,0.0,0.0,36.1,0.0,0.0,-0.3,11.1,9.1,0.0,0.0,0.0,0.0,12.0,12.0,12.0,13.0,12.0,12.0,12.0,13.0,0.0,0.0,-1.0,254.6,0.0,0.0,5.0,0.0,0.0,0.0,0.654,0.841,+0.0,11.8,0.0,0.0,0.0,,0.0,0.0,12.0,-2.0,-2.1999999999999993,0.0,0.0,0.0,2026-04-18 08:46:35-07:00
32.06,1.0,9.0,2026-04-18 15:47:01,37.08162,-121.59958,271.0,0.0,61.1,-12.6,0.0,,0.0,0.0,0.0,10.8,-0.6,5.7,0.0,179.0,0.1,-0.01,1.0,99.0,-25.0,14.0,0.0,30.08,92.0,0.0,0.0,317.0,0.0,0.0,0.0,0.0,0.0,0.0,0.0,0.0,0.0,0.0,0.0,0.0,0.0,0.0,0.0,0.0,0.0,0.0,0.0,0.0,0.0,0.0,0.0,0.0,0.0,12.0,0.0,0.0,30.1,0.0,0.0,0.0,0.0,0.0,0.0,36.1,0.0,0.0,-0.3,11.1,9.1,0.0,0.0,0.0,0.0,12.0,12.0,12.0,13.0,12.0,12.0,12.0,13.0,0.0,0.0,-1.0,254.6,0.0,0.0,5.0,0.0,0.0,0.0,0.654,0.841,+0.0,11.8,0.0,0.0,0.0,,0.0,0.0,12.0,-2.0,-2.1999999999999993,0.0,0.0,0.0,2026-04-18 08:46:35-07:00
33.06,1.0,9.0,2026-04-18 15:47:02,37.08162,-121.59958,271.0,0.0,61.1,-12.6,0.0,,0.0,0.0,0.0,10.8,-0.6,5.7,0.0,179.0,0.1,-0.01,1.0,99.0,-43.0,14.0,0.0,30.08,92.0,0.0,0.0,317.0,0.0,0.0,0.0,0.0,0.0,0.0,0.0,0.0,0.0,0.0,0.0,0.0,0.0,0.0,0.0,0.0,0.0,0.0,0.0,0.0,0.0,0.0,0.0,0.0,0.0,12.0,0.0,0.0,30.1,0.0,0.0,0.0,0.0,0.0,0.0,36.1,0.0,0.0,-0.3,11.1,9.1,0.0,0.0,0.0,0.0,12.0,13.0,12.0,13.0,12.0,13.0,12.0,13.0,0.0,0.0,-1.0,254.6,0.0,0.0,5.0,0.0,0.0,0.0,0.656,0.841,+0.0,11.8,0.0,0.0,0.0,,0.0,0.0,12.0,-2.0,-2.1999999999999993,0.0,0.0,0.0,2026-04-18 08:46:35-07:00
34.06,1.0,9.0,2026-04-18 15:47:03,37.08162,-121.59958,271.0,0.0,61.1,-12.6,0.0,,0.0,0.0,0.0,10.8,-0.6,5.7,0.0,178.0,0.1,-0.01,1.0,99.0,-25.0,14.0,0.0,30.08,91.0,0.0,0.0,317.0,0.0,0.0,0.0,0.0,0.0,0.0,0.0,0.0,0.0,0.0,0.0,0.0,0.0,0.0,0.0,0.0,0.0,0.0,0.0,0.0,0.0,0.0,0.0,0.0,0.0,12.0,0.0,0.0,30.1,0.0,0.0,0.0,0.0,0.0,0.0,36.1,0.0,0.0,-0.3,11.1,9.1,0.0,0.0,0.0,0.0,12.0,13.0,12.0,13.0,12.0,13.0,12.0,13.0,0.0,0.0,-1.0,254.6,0.0,0.0,5.0,0.0,0.0,0.0,0.656,0.841,+0.0,11.8,0.0,0.0,0.0,,0.0,0.0,12.0,-2.0,-2.1999999999999993,0.0,0.0,0.0,2026-04-18 08:46:35-07:00
35.06,1.0,9.0,2026-04-18 15:47:04,37.08162,-121.59958,271.0,0.0,61.1,-12.6,0.0,,0.0,0.0,0.0,10.9,-0.6,5.7,0.0,177.0,0.1,-0.01,1.0,99.0,-54.0,14.0,0.0,30.08,91.0,0.0,0.0,317.0,0.0,0.0,0.0,0.0,0.0,0.0,0.0,0.0,0.0,0.0,0.0,0.0,0.0,0.0,0.0,0.0,0.0,0.0,0.0,0.0,0.0,0.0,0.0,0.0,0.0,12.0,0.0,0.0,30.1,0.0,0.0,0.0,0.0,0.0,0.0,36.1,0.0,0.0,-0.3,11.1,9.1,0.0,0.0,0.0,0.0,12.0,12.0,12.0,13.0,12.0,13.0,12.0,13.0,0.0,0.0,0.0,254.6,0.0,0.0,5.0,0.0,0.0,0.0,0.654,0.841,+0.0,11.8,0.0,0.0,0.0,,0.0,0.0,12.0,-2.0,-2.1999999999999993,0.0,0.0,0.0,2026-04-18 08:46:35-07:00
36.06,1.0,9.0,2026-04-18 15:47:05,37.08162,-121.59958,271.0,0.0,61.1,-12.6,0.0,,0.0,0.0,0.0,10.9,-0.6,5.7,0.0,176.0,0.1,-0.01,1.0,99.0,-53.0,14.0,0.0,30.08,90.0,0.0,0.0,317.0,0.0,0.0,0.0,0.0,0.0,0.0,0.0,0.0,0.0,0.0,0.0,0.0,0.0,0.0,0.0,0.0,0.0,0.0,0.0,0.0,0.0,0.0,0.0,0.0,0.0,12.0,0.0,0.0,30.1,0.0,0.0,0.0,0.0,0.0,0.0,36.1,0.0,0.0,-0.3,11.1,9.1,0.0,0.0,0.0,0.0,12.0,13.0,12.0,13.0,12.0,13.0,12.0,13.0,0.0,0.0,0.0,254.6,0.0,0.0,5.0,0.0,0.0,0.0,0.656,0.841,+0.0,11.8,0.0,0.0,0.0,,0.0,0.0,12.0,-2.0,-2.1999999999999993,0.0,0.0,0.0,2026-04-18 08:46:35-07:00
37.06,1.0,9.0,2026-04-18 15:47:06,37.08162,-121.59958,271.0,0.0,61.1,-12.6,0.0,,0.0,0.0,0.0,10.8,-0.5,5.8,0.0,176.0,0.1,-0.01,1.0,99.0,-41.0,14.0,0.0,30.08,90.0,0.0,0.0,317.0,0.0,0.0,0.0,0.0,0.0,0.0,0.0,0.0,0.0,0.0,0.0,0.0,0.0,0.0,0.0,0.0,0.0,0.0,0.0,0.0,0.0,0.0,0.0,0.0,0.0,12.0,0.0,0.0,30.1,0.0,0.0,0.0,0.0,0.0,0.0,36.1,0.0,0.0,-0.3,11.1,9.1,0.0,0.0,0.0,0.0,12.0,12.0,12.0,13.0,12.0,13.0,12.0,13.0,0.0,0.0,0.0,254.6,0.0,0.0,5.0,0.0,0.0,0.0,0.656,0.841,+0.0,11.8,0.0,0.0,0.0,,0.0,0.0,12.0,-2.0,-2.1999999999999993,0.0,0.0,0.0,2026-04-18 08:46:35-07:00
38.06,1.0,9.0,2026-04-18 15:47:07,37.08162,-121.59958,271.0,0.0,61.1,-12.6,0.0,,0.0,0.0,0.0,10.8,-0.6,5.8,0.0,176.0,0.1,-0.01,1.0,99.0,-46.0,14.0,0.0,30.08,90.0,0.0,0.0,317.0,0.0,0.0,0.0,0.0,0.0,0.0,0.0,0.0,0.0,0.0,0.0,0.0,0.0,0.0,0.0,0.0,0.0,0.0,0.0,0.0,0.0,0.0,0.0,0.0,0.0,12.0,0.0,0.0,30.1,0.0,0.0,0.0,0.0,0.0,0.0,36.1,0.0,0.0,-0.3,11.1,9.1,0.0,0.0,0.0,0.0,12.0,12.0,12.0,13.0,12.0,13.0,12.0,13.0,0.0,0.0,0.0,254.6,0.0,0.0,5.0,0.0,0.0,0.0,0.656,0.84,+0.0,11.8,0.0,0.0,0.0,,0.0,0.0,12.0,-2.0,-2.1999999999999993,0.0,0.0,0.0,2026-04-18 08:46:35-07:00
39.06,1.0,9.0,2026-04-18 15:47:08,37.08162,-121.59958,271.0,0.0,61.1,-12.6,0.0,,0.0,0.0,0.0,10.8,-0.6,5.8,0.0,175.0,0.1,-0.01,1.0,99.0,-47.0,14.0,0.0,30.08,89.0,0.0,0.0,317.0,0.0,0.0,0.0,0.0,0.0,0.0,0.0,0.0,0.0,0.0,0.0,0.0,0.0,0.0,0.0,0.0,0.0,0.0,0.0,0.0,0.0,0.0,0.0,0.0,0.0,12.0,0.0,0.0,30.1,0.0,0.0,0.0,0.0,0.0,0.0,36.1,0.0,0.0,-0.3,11.1,9.1,0.0,0.0,0.0,0.0,12.0,12.0,12.0,13.0,12.0,13.0,12.0,13.0,0.0,0.0,1.0,254.6,0.0,0.0,5.0,0.0,0.0,0.0,0.654,0.841,+0.0,11.8,0.0,0.0,0.0,,0.0,0.0,12.0,-2.0,-2.1999999999999993,0.0,0.0,0.0,2026-04-18 08:46:35-07:00
40.06,1.0,9.0,2026-04-18 15:47:09,37.08162,-121.59958,271.0,0.0,61.1,-12.6,0.0,,0.0,0.0,0.0,10.8,-0.6,5.7,0.0,175.0,0.1,-0.01,1.0,99.0,-15.0,14.0,0.0,30.08,89.0,0.0,0.0,317.0,0.0,0.0,0.0,0.0,0.0,0.0,0.0,0.0,0.0,0.0,0.0,0.0,0.0,0.0,0.0,0.0,0.0,0.0,0.0,0.0,0.0,0.0,0.0,0.0,0.0,12.0,0.0,0.0,30.1,0.0,0.0,0.0,0.0,0.0,0.0,36.1,0.0,0.0,-0.3,11.1,9.1,0.0,0.0,0.0,0.0,12.0,12.0,12.0,13.0,12.0,13.0,12.0,13.0,0.0,0.0,1.0,254.6,0.0,0.0,5.0,0.0,0.0,0.0,0.656,0.841,+0.0,11.8,0.0,0.0,0.0,,0.0,0.0,12.0,-2.0,-2.1999999999999993,0.0,0.0,0.0,2026-04-18 08:46:35-07:00
41.06,1.0,9.0,2026-04-18 15:47:10,37.08162,-121.59958,271.0,0.0,61.1,-12.6,0.0,,0.0,0.0,0.0,10.8,-0.6,5.7,0.0,175.0,0.1,-0.01,1.0,99.0,5.0,14.0,0.0,30.08,90.0,0.0,0.0,317.0,0.0,0.0,0.0,0.0,0.0,0.0,0.0,0.0,0.0,0.0,0.0,0.0,0.0,0.0,0.0,0.0,0.0,0.0,0.0,0.0,0.0,0.0,0.0,0.0,0.0,12.0,0.0,0.0,30.1,0.0,0.0,0.0,0.0,0.0,0.0,36.1,0.0,0.0,-0.3,11.1,9.1,0.0,0.0,0.0,0.0,12.0,12.0,12.0,13.0,12.0,13.0,13.0,13.0,0.0,0.0,1.0,254.6,0.0,0.0,5.0,0.0,0.0,0.0,0.654,0.841,+0.0,11.8,0.0,0.0,0.0,,0.0,0.0,12.25,-1.75,-2.1999999999999993,0.0,0.0,0.0,2026-04-18 08:46:35-07:00
42.06,1.0,9.0,2026-04-18 15:47:11,37.08162,-121.59958,271.0,0.0,61.1,-12.6,0.0,,0.0,0.0,0.0,10.8,-0.6,5.7,0.0,175.0,0.1,-0.01,1.0,99.0,22.0,14.0,0.0,30.08,90.0,0.0,0.0,317.0,0.0,0.0,0.0,0.0,0.0,0.0,0.0,0.0,0.0,0.0,0.0,0.0,0.0,0.0,0.0,0.0,0.0,0.0,0.0,0.0,0.0,0.0,0.0,0.0,0.0,12.0,0.0,0.0,30.1,0.0,0.0,0.0,0.0,0.0,0.0,36.1,0.0,0.0,-0.3,11.1,9.1,0.0,0.0,0.0,0.0,12.0,12.0,12.0,13.0,12.0,13.0,13.0,13.0,0.0,0.0,0.0,248.1,0.0,0.0,5.0,0.0,0.0,0.0,0.654,0.84,+0.0,11.8,0.0,0.0,0.0,,0.0,0.0,12.25,-1.75,-2.1999999999999993,0.0,0.0,0.0,2026-04-18 08:46:35-07:00
43.06,1.0,9.0,2026-04-18 15:47:12,37.08162,-121.59958,271.0,0.0,61.1,-12.6,0.0,,0.0,0.0,0.0,10.9,-0.7,5.6,0.0,175.0,0.1,-0.01,1.0,99.0,5.0,14.0,0.0,30.08,90.0,0.0,0.0,317.0,0.0,0.0,0.0,0.0,0.0,0.0,0.0,0.0,0.0,0.0,0.0,0.0,0.0,0.0,0.0,0.0,0.0,0.0,0.0,0.0,0.0,0.0,0.0,0.0,0.0,12.0,0.0,0.0,30.1,0.0,0.0,0.0,0.0,0.0,0.0,36.1,0.0,0.0,-0.3,11.1,9.1,0.0,0.0,0.0,0.0,12.0,12.0,12.0,13.0,12.0,13.0,12.0,13.0,0.0,0.0,0.0,193.2,0.0,0.0,5.0,0.0,0.0,0.0,0.654,0.84,+0.0,11.8,0.0,0.0,0.0,,0.0,0.0,12.0,-2.0,-2.1999999999999993,0.0,0.0,0.0,2026-04-18 08:46:35-07:00
44.06,1.0,9.0,2026-04-18 15:47:13,37.08162,-121.59958,271.0,0.1,61.1,-12.6,0.0,,0.0,0.0,0.0,10.9,-0.6,5.6,0.0,175.0,0.1,-0.01,1.0,99.0,-12.0,14.0,0.0,30.08,99.0,0.0,0.0,317.0,0.0,0.0,0.0,0.0,0.0,0.0,0.0,0.0,0.0,0.0,0.0,0.0,0.0,0.0,0.0,0.0,0.0,0.0,0.0,0.0,0.0,0.0,0.0,0.0,0.0,12.0,0.0,0.0,30.1,0.0,0.0,0.0,0.0,0.0,0.0,36.1,0.0,0.0,-0.3,11.1,9.1,0.0,0.0,0.0,0.0,12.0,12.0,12.0,13.0,12.0,13.0,13.0,13.0,0.0,0.0,1.0,150.4,0.0,0.0,5.0,0.0,0.0,0.0,0.654,0.841,+0.0,11.8,0.0,0.0,0.0,,0.0,0.0,12.25,-1.75,-2.1999999999999993,0.0,0.08433333333333333,0.0,2026-04-18 08:46:35-07:00
45.06,1.0,9.0,2026-04-18 15:47:14,37.08162,-121.59958,271.0,0.0,61.1,-12.6,0.0,,0.0,0.0,0.0,10.9,-0.6,5.6,0.0,175.0,0.1,-0.01,1.0,99.0,-3.0,14.0,0.0,30.08,99.0,0.0,0.0,317.0,0.0,0.0,0.0,0.0,0.0,0.0,0.0,0.0,0.0,0.0,0.0,0.0,0.0,0.0,0.0,0.0,0.0,0.0,0.0,0.0,0.0,0.0,0.0,0.0,0.0,12.0,0.0,0.0,30.1,0.0,0.0,0.0,0.0,0.0,0.0,36.1,0.0,0.0,-0.3,11.1,9.1,0.0,0.0,0.0,0.0,12.0,12.0,12.0,13.0,12.0,13.0,13.0,13.0,0.0,0.0,1.0,117.1,0.0,0.0,5.0,0.0,0.0,0.0,0.656,0.841,+0.0,11.8,0.0,0.0,0.0,,0.0,0.0,12.25,-1.75,-2.1999999999999993,0.0,0.16866666666666666,0.0,2026-04-18 08:46:35-07:00
46.06,1.0,9.0,2026-04-18 15:47:15,37.08162,-121.59958,271.0,0.0,61.1,-12.6,0.0,,0.0,0.0,0.0,10.9,-0.6,5.6,0.0,175.0,0.1,-0.01,1.0,99.0,-21.0,14.0,0.0,30.08,99.0,0.0,0.0,317.0,0.0,0.0,0.0,0.0,0.0,0.0,0.0,0.0,0.0,0.0,0.0,0.0,0.0,0.0,0.0,0.0,0.0,0.0,0.0,0.0,0.0,0.0,0.0,0.0,0.0,12.0,0.0,0.0,30.1,0.0,0.0,0.0,0.0,0.0,0.0,36.1,0.0,0.0,-0.3,11.1,9.1,0.0,0.0,0.0,0.0,12.0,12.0,12.0,13.0,12.0,13.0,13.0,13.0,0.0,0.0,1.0,91.2,0.0,0.0,5.0,0.0,0.0,0.0,0.654,0.841,+0.0,11.8,0.0,0.0,0.0,,0.0,0.0,12.25,-1.75,-2.1999999999999993,0.0,0.16866666666666666,0.0,2026-04-18 08:46:35-07:00
47.06,1.0,9.0,2026-04-18 15:47:16,37.08162,-121.59958,272.0,0.0,61.1,-12.6,0.0,,0.0,0.0,0.0,10.8,-0.6,5.7,0.0,175.0,0.1,-0.01,1.0,99.0,-10.0,14.0,0.0,30.08,99.0,0.0,0.0,317.0,0.0,0.0,0.0,0.0,0.0,0.0,0.0,0.0,0.0,0.0,0.0,0.0,0.0,0.0,0.0,0.0,0.0,0.0,0.0,0.0,0.0,0.0,0.0,0.0,0.0,12.0,0.0,0.0,30.1,0.0,0.0,0.0,0.0,0.0,0.0,36.1,0.0,0.0,-0.3,11.1,9.1,0.0,0.0,0.0,0.0,12.0,12.0,12.0,13.0,12.0,13.0,13.0,13.0,0.0,0.0,1.0,71.1,0.0,0.0,5.0,0.0,0.0,0.0,0.656,0.841,+0.0,11.8,0.0,0.0,0.0,,0.0,0.0,12.25,-1.75,-2.1999999999999993,0.0,0.16866666666666666,0.0,2026-04-18 08:46:35-07:00
48.06,1.0,9.0,2026-04-18 15:47:17,37.08162,-121.59958,272.0,0.0,61.1,-12.6,0.0,,0.0,0.0,0.0,10.9,-0.6,5.7,0.0,175.0,0.1,-0.01,1.0,99.0,7.0,14.0,0.0,30.08,99.0,0.0,0.0,317.0,0.0,0.0,0.0,0.0,0.0,0.0,0.0,0.0,0.0,0.0,0.0,0.0,0.0,0.0,0.0,0.0,0.0,0.0,0.0,0.0,0.0,0.0,0.0,0.0,0.0,12.0,0.0,0.0,30.1,0.0,0.0,0.0,0.0,0.0,0.0,36.1,0.0,0.0,-0.3,11.1,9.1,0.0,0.0,0.0,0.0,12.0,12.0,12.0,13.0,12.0,13.0,13.0,13.0,0.0,0.0,2.0,55.5,0.0,0.0,5.0,0.0,0.0,0.0,0.654,0.841,+0.0,11.8,0.0,0.0,0.0,,0.0,0.0,12.25,-1.75,-2.1999999999999993,0.0,0.16866666666666666,0.0,2026-04-18 08:46:35-07:00
49.06,1.0,10.0,2026-04-18 15:47:18,37.08165,-121.59956,294.0,0.0,61.1,-12.6,0.0,,0.0,0.0,0.0,10.8,-0.6,5.7,0.0,175.0,0.1,-0.01,1.0,99.0,-8.0,14.0,0.0,30.08,99.0,0.0,0.0,317.0,0.0,0.0,0.0,0.0,0.0,0.0,0.0,0.0,0.0,0.0,0.0,0.0,0.0,0.0,0.0,0.0,0.0,0.0,0.0,0.0,0.0,0.0,0.0,0.0,0.0,12.0,0.0,0.0,30.1,0.0,0.0,0.0,0.0,0.0,0.0,36.1,0.0,0.0,-0.4,11.1,9.1,0.0,0.0,0.0,0.0,12.0,12.0,12.0,13.0,12.0,13.0,13.0,13.0,0.0,0.0,2.0,43.4,0.0,0.0,5.0,0.0,0.0,0.0,0.654,0.84,+0.0,11.8,0.0,0.0,0.0,,0.0,0.0,12.25,-1.75,-2.1999999999999993,0.0,0.16866666666666666,0.0,2026-04-18 08:46:35-07:00
50.06,1.0,10.0,2026-04-18 15:47:19,37.08163,-121.59957,280.0,0.0,61.1,-12.6,0.0,,0.0,0.0,0.0,10.9,-0.6,5.7,0.0,175.0,0.0,-0.01,1.0,99.0,-22.0,14.0,0.0,30.08,99.0,0.0,0.0,317.0,0.0,0.0,0.0,0.0,0.0,0.0,0.0,0.0,0.0,0.0,0.0,0.0,0.0,0.0,0.0,0.0,0.0,0.0,0.0,0.0,0.0,0.0,0.0,0.0,0.0,12.0,0.0,0.0,30.1,0.0,0.0,0.0,0.0,0.0,0.0,36.1,0.0,0.0,-0.4,11.1,9.1,0.0,0.0,0.0,0.0,12.0,12.0,12.0,13.0,12.0,13.0,13.0,13.0,0.0,0.0,1.0,33.9,0.0,0.0,5.0,0.0,0.0,0.0,0.654,0.84,+0.0,11.8,0.0,0.0,0.0,,0.0,0.0,12.25,-1.75,-2.1999999999999993,0.0,0.16866666666666666,0.0,2026-04-18 08:46:35-07:00
51.06,1.0,10.0,2026-04-18 15:47:20,37.08163,-121.59957,281.0,0.0,61.1,-12.6,0.0,,0.0,0.0,0.0,10.8,-0.6,5.7,0.0,175.0,0.1,-0.01,1.0,99.0,-15.0,14.0,0.0,30.08,99.0,0.0,0.0,317.0,0.0,0.0,0.0,0.0,0.0,0.0,0.0,0.0,0.0,0.0,0.0,0.0,0.0,0.0,0.0,0.0,0.0,0.0,0.0,0.0,0.0,0.0,0.0,0.0,0.0,12.0,0.0,0.0,30.1,0.0,0.0,0.0,0.0,0.0,0.0,36.1,0.0,0.0,-0.4,11.1,9.1,0.0,0.0,0.0,0.0,12.0,12.0,12.0,13.0,12.0,13.0,13.0,13.0,0.0,0.0,1.0,26.6,0.0,0.0,5.0,0.0,0.0,0.0,0.656,0.84,+0.0,11.8,0.0,0.0,0.0,,0.0,0.0,12.25,-1.75,-2.1999999999999993,0.0,0.16866666666666666,0.0,2026-04-18 08:46:35-07:00
52.06,1.0,10.0,2026-04-18 15:47:21,37.08163,-121.59957,281.0,0.0,61.1,-12.6,0.0,,0.0,0.0,0.0,10.9,-0.6,5.7,0.0,175.0,0.1,-0.01,1.0,99.0,-15.0,14.0,0.0,30.08,99.0,0.0,0.0,317.0,0.0,0.0,0.0,0.0,0.0,0.0,0.0,0.0,0.0,0.0,0.0,0.0,0.0,0.0,0.0,0.0,0.0,0.0,0.0,0.0,0.0,0.0,0.0,0.0,0.0,12.0,0.0,0.0,30.1,0.0,0.0,0.0,0.0,0.0,0.0,36.1,0.0,0.0,-0.4,11.1,9.1,0.0,0.0,0.0,0.0,12.0,12.0,12.0,13.0,12.0,13.0,13.0,13.0,0.0,0.0,1.0,20.9,0.0,0.0,5.0,0.0,0.0,0.0,0.654,0.841,+0.0,11.8,0.0,0.0,0.0,,0.0,0.0,12.25,-1.75,-2.1999999999999993,0.0,0.16866666666666666,0.0,2026-04-18 08:46:35-07:00
53.06,1.0,10.0,2026-04-18 15:47:22,37.08163,-121.59957,282.0,0.0,61.1,-12.6,0.0,,0.0,0.0,0.0,10.9,-0.6,5.7,0.0,173.0,0.1,-0.01,1.0,99.0,-35.0,14.0,0.0,30.08,98.0,0.0,0.0,317.0,0.0,0.0,0.0,0.0,0.0,0.0,0.0,0.0,0.0,0.0,0.0,0.0,0.0,0.0,0.0,0.0,0.0,0.0,0.0,0.0,0.0,0.0,0.0,0.0,0.0,12.0,0.0,0.0,30.1,0.0,0.0,0.0,0.0,0.0,0.0,36.1,0.0,0.0,-0.4,11.1,9.1,0.0,0.0,0.0,0.0,12.0,12.0,12.0,13.0,12.0,13.0,13.0,13.0,0.0,0.0,0.0,16.4,0.0,0.0,5.0,0.0,0.0,0.0,0.656,0.841,+0.0,11.8,0.0,0.0,0.0,,0.0,0.0,12.25,-1.75,-2.1999999999999993,0.0,0.16866666666666666,0.0,2026-04-18 08:46:35-07:00
54.06,1.0,10.0,2026-04-18 15:47:23,37.08163,-121.59957,283.0,0.0,61.1,-12.6,0.0,,0.0,0.0,0.0,10.9,-0.6,5.7,0.0,173.0,0.1,-0.01,1.0,99.0,-42.0,14.0,0.0,30.08,99.0,0.0,0.0,317.0,0.0,0.0,0.0,0.0,0.0,0.0,0.0,0.0,0.0,0.0,0.0,0.0,0.0,0.0,0.0,0.0,0.0,0.0,0.0,0.0,0.0,0.0,0.0,0.0,0.0,12.0,0.0,0.0,30.1,0.0,0.0,0.0,0.0,0.0,0.0,36.1,0.0,0.0,-0.4,11.1,9.1,0.0,0.0,0.0,0.0,12.0,12.0,12.0,13.0,12.0,13.0,13.0,13.0,0.0,0.0,0.0,13.0,0.0,0.0,5.0,0.0,0.0,0.0,0.654,0.841,+0.0,11.8,0.0,0.0,0.0,,0.0,0.0,12.25,-1.75,-2.1999999999999993,0.0,0.16866666666666666,0.0,2026-04-18 08:46:35-07:00
55.06,1.0,10.0,2026-04-18 15:47:24,37.08163,-121.59957,284.0,0.0,61.1,-12.6,0.0,,0.0,0.0,0.0,10.8,-0.6,5.7,0.0,172.0,0.1,-0.01,1.0,99.0,-47.0,14.0,0.0,30.08,99.0,0.0,0.0,317.0,0.0,0.0,0.0,0.0,0.0,0.0,0.0,0.0,0.0,0.0,0.0,0.0,0.0,0.0,0.0,0.0,0.0,0.0,0.0,0.0,0.0,0.0,0.0,0.0,0.0,12.0,0.0,0.0,30.1,0.0,0.0,0.0,0.0,0.0,0.0,36.1,0.0,0.0,-0.4,11.1,9.1,0.0,0.0,0.0,0.0,12.0,12.0,12.0,13.0,12.0,13.0,13.0,13.0,0.0,0.0,0.0,10.3,0.0,0.0,5.0,0.0,0.0,0.0,0.654,0.84,+0.0,11.8,0.0,0.0,0.0,,0.0,0.0,12.25,-1.75,-2.1999999999999993,0.0,0.16866666666666666,0.0,2026-04-18 08:46:35-07:00
56.06,1.0,10.0,2026-04-18 15:47:25,37.08163,-121.59957,284.0,0.0,61.1,-12.6,0.0,,0.0,0.0,0.0,10.9,-0.6,5.7,0.0,172.0,0.1,-0.01,1.0,99.0,-42.0,14.0,0.0,30.08,99.0,0.0,0.0,317.0,0.0,0.0,0.0,0.0,0.0,0.0,0.0,0.0,0.0,0.0,0.0,0.0,0.0,0.0,0.0,0.0,0.0,0.0,0.0,0.0,0.0,0.0,0.0,0.0,0.0,12.0,0.0,0.0,30.1,0.0,0.0,0.0,0.0,0.0,0.0,36.1,0.0,0.0,-0.4,11.1,9.1,0.0,0.0,0.0,0.0,12.0,12.0,12.0,13.0,12.0,13.0,13.0,13.0,0.0,0.0,0.0,8.2,0.0,0.0,5.0,0.0,0.0,0.0,0.654,0.841,+0.0,11.8,0.0,0.0,0.0,,0.0,0.0,12.25,-1.75,-2.1999999999999993,0.0,0.16866666666666666,0.0,2026-04-18 08:46:35-07:00
57.06,1.0,10.0,2026-04-18 15:47:26,37.08163,-121.59957,285.0,0.0,61.1,-12.6,0.0,,0.0,0.0,0.0,10.8,-0.7,5.6,0.0,171.0,0.1,-0.01,1.0,99.0,-40.0,14.0,0.0,30.08,106.0,0.0,0.0,317.0,0.0,0.0,0.0,0.0,0.0,0.0,0.0,0.0,0.0,0.0,0.0,0.0,0.0,0.0,0.0,0.0,0.0,0.0,0.0,0.0,0.0,0.0,0.0,0.0,0.0,12.0,0.0,0.0,30.1,0.0,0.0,0.0,0.0,0.0,0.0,36.1,0.0,0.0,-0.4,11.1,9.1,0.0,0.0,0.0,0.0,12.0,12.0,12.0,13.0,12.0,13.0,13.0,13.0,0.0,0.0,0.0,6.6,0.0,0.0,5.0,0.0,0.0,0.0,0.654,0.841,+0.0,11.8,0.0,0.0,0.0,,0.0,0.0,12.25,-1.75,-2.1999999999999993,0.0,0.16866666666666666,0.0,2026-04-18 08:46:35-07:00
58.06,1.0,10.0,2026-04-18 15:47:27,37.08163,-121.59957,285.0,0.0,61.1,-12.6,0.0,,0.0,0.0,0.0,10.9,-0.7,5.6,0.0,171.0,0.1,-0.01,1.0,99.0,-20.0,14.0,0.0,30.08,106.0,0.0,0.0,317.0,0.0,0.0,0.0,0.0,0.0,0.0,0.0,0.0,0.0,0.0,0.0,0.0,0.0,0.0,0.0,0.0,0.0,0.0,0.0,0.0,0.0,0.0,0.0,0.0,0.0,12.0,0.0,0.0,30.1,0.0,0.0,0.0,0.0,0.0,0.0,36.1,0.0,0.0,-0.4,11.1,9.1,0.0,0.0,0.0,0.0,12.0,12.0,12.0,13.0,12.0,13.0,13.0,13.0,0.0,0.0,0.0,5.3,0.0,0.0,5.0,0.0,0.0,0.0,0.656,0.84,+0.0,11.8,0.0,0.0,0.0,,0.0,0.0,12.25,-1.75,-2.1999999999999993,0.0,0.16866666666666666,0.0,2026-04-18 08:46:35-07:00
59.06,1.0,10.0,2026-04-18 15:47:28,37.08163,-121.59957,286.0,0.0,61.1,-12.6,0.0,,0.0,0.0,0.0,10.9,-0.7,5.6,0.0,171.0,0.1,-0.01,1.0,99.0,-51.0,14.0,0.0,30.08,106.0,0.0,0.0,317.0,0.0,0.0,0.0,0.0,0.0,0.0,0.0,0.0,0.0,0.0,0.0,0.0,0.0,0.0,0.0,0.0,0.0,0.0,0.0,0.0,0.0,0.0,0.0,0.0,0.0,12.0,0.0,0.0,30.1,0.0,0.0,0.0,0.0,0.0,0.0,36.1,0.0,0.0,-0.4,11.1,9.1,0.0,0.0,0.0,0.0,12.0,12.0,12.0,13.0,12.0,13.0,13.0,13.0,0.0,0.0,1.0,4.4,0.0,0.0,5.0,0.0,0.0,0.0,0.654,0.841,+0.0,11.8,0.0,0.0,0.0,,0.0,0.0,12.25,-1.75,-2.1999999999999993,0.0,0.16866666666666666,0.0,2026-04-18 08:46:35-07:00
60.06,1.0,10.0,2026-04-18 15:47:29,37.08163,-121.59957,287.0,0.0,61.1,-12.6,0.0,,0.0,0.0,0.0,10.8,-0.7,5.6,0.0,169.0,0.1,-0.01,1.0,99.0,-61.0,14.0,0.0,30.08,104.0,0.0,0.0,317.0,0.0,0.0,0.0,0.0,0.0,0.0,0.0,0.0,0.0,0.0,0.0,0.0,0.0,0.0,0.0,0.0,0.0,0.0,0.0,0.0,0.0,0.0,0.0,0.0,0.0,12.0,0.0,0.0,30.1,0.0,0.0,0.0,0.0,0.0,0.0,36.1,0.0,0.0,-0.4,11.1,9.1,0.0,0.0,0.0,0.0,12.0,13.0,13.0,13.0,13.0,13.0,13.0,13.0,0.0,0.0,1.0,3.6,0.0,0.0,5.0,0.0,0.0,0.0,0.654,0.841,+0.0,11.8,0.0,0.0,0.0,,0.0,0.0,12.75,-1.25,-2.1999999999999993,0.0,0.16866666666666666,0.0,2026-04-18 08:46:35-07:00
61.06,1.0,10.0,2026-04-18 15:47:30,37.08163,-121.59957,288.0,0.0,61.1,-12.6,0.0,,0.0,0.0,0.0,10.9,-0.7,5.5,0.0,169.0,0.1,-0.01,1.0,99.0,-30.0,14.0,0.0,30.08,104.0,0.0,0.0,317.0,0.0,0.0,0.0,0.0,0.0,0.0,0.0,0.0,0.0,0.0,0.0,0.0,0.0,0.0,0.0,0.0,0.0,0.0,0.0,0.0,0.0,0.0,0.0,0.0,0.0,12.0,0.0,0.0,30.1,0.0,0.0,0.0,0.0,0.0,0.0,36.1,0.0,0.0,-0.4,11.1,9.1,0.0,0.0,0.0,0.0,12.0,13.0,13.0,13.0,13.0,13.0,13.0,13.0,0.0,0.0,1.0,3.1,0.0,0.0,5.0,0.0,0.0,0.0,0.656,0.841,+0.0,11.8,0.0,0.0,0.0,,0.0,0.0,12.75,-1.25,-2.1999999999999993,0.0,0.16866666666666666,0.0,2026-04-18 08:46:35-07:00
62.06,1.0,10.0,2026-04-18 15:47:31,37.08163,-121.59957,289.0,0.0,61.1,-12.6,0.0,,0.0,0.0,0.0,10.9,-0.7,5.5,0.0,169.0,0.1,-0.01,1.0,99.0,-48.0,14.0,0.0,30.08,104.0,0.0,0.0,317.0,0.0,0.0,0.0,0.0,0.0,0.0,0.0,0.0,0.0,0.0,0.0,0.0,0.0,0.0,0.0,0.0,0.0,0.0,0.0,0.0,0.0,0.0,0.0,0.0,0.0,12.0,0.0,0.0,30.1,0.0,0.0,0.0,0.0,0.0,0.0,36.1,0.0,0.0,-0.4,11.1,9.1,0.0,0.0,0.0,0.0,12.0,13.0,13.0,13.0,13.0,13.0,13.0,13.0,0.0,0.0,0.0,2.6,0.0,0.0,5.0,0.0,0.0,0.0,0.656,0.841,+0.0,11.8,0.0,0.0,0.0,,0.0,0.0,12.75,-1.25,-2.1999999999999993,0.0,0.16866666666666666,0.0,2026-04-18 08:46:35-07:00
63.06,1.0,10.0,2026-04-18 15:47:32,37.08163,-121.59957,290.0,0.0,61.1,-12.6,0.0,,0.0,0.0,0.0,10.9,-0.7,5.5,0.0,168.0,0.1,-0.01,1.0,99.0,-45.0,14.0,0.0,30.08,102.0,0.0,0.0,317.0,0.0,0.0,0.0,0.0,0.0,0.0,0.0,0.0,0.0,0.0,0.0,0.0,0.0,0.0,0.0,0.0,0.0,0.0,0.0,0.0,0.0,0.0,0.0,0.0,0.0,12.0,0.0,0.0,30.1,0.0,0.0,0.0,0.0,0.0,0.0,36.1,0.0,0.0,-0.4,11.1,9.1,0.0,0.0,0.0,0.0,12.0,13.0,13.0,13.0,13.0,13.0,13.0,13.0,0.0,0.0,0.0,2.2,0.0,0.0,5.0,0.0,0.0,0.0,0.654,0.841,+0.0,11.8,0.0,0.0,0.0,,0.0,0.0,12.75,-1.25,-2.1999999999999993,0.0,0.16866666666666666,0.0,2026-04-18 08:46:35-07:00
64.06,1.0,10.0,2026-04-18 15:47:33,37.08163,-121.59957,291.0,0.0,61.1,-12.6,0.0,,0.0,0.0,0.0,10.9,-0.7,5.5,0.0,167.0,0.1,-0.01,1.0,99.0,-46.0,14.0,0.0,30.08,102.0,0.0,0.0,317.0,0.0,0.0,0.0,0.0,0.0,0.0,0.0,0.0,0.0,0.0,0.0,0.0,0.0,0.0,0.0,0.0,0.0,0.0,0.0,0.0,0.0,0.0,0.0,0.0,0.0,12.0,0.0,0.0,30.1,0.0,0.0,0.0,0.0,0.0,0.0,36.1,0.0,0.0,-0.4,11.1,9.1,0.0,0.0,0.0,0.0,12.0,13.0,13.0,13.0,13.0,13.0,13.0,13.0,0.0,0.0,1.0,2.0,0.0,0.0,5.0,0.0,0.0,0.0,0.654,0.841,+0.0,11.8,0.0,0.0,0.0,,0.0,0.0,12.75,-1.25,-2.1999999999999993,0.0,0.16866666666666666,0.0,2026-04-18 08:46:35-07:00
65.06,1.0,10.0,2026-04-18 15:47:34,37.08163,-121.59957,292.0,0.0,61.1,-12.6,0.0,,0.0,0.0,0.0,10.9,-0.7,5.5,0.0,167.0,0.1,-0.01,1.0,99.0,-24.0,14.0,0.0,30.08,102.0,0.0,0.0,317.0,0.0,0.0,0.0,0.0,0.0,0.0,0.0,0.0,0.0,0.0,0.0,0.0,0.0,0.0,0.0,0.0,0.0,0.0,0.0,0.0,0.0,0.0,0.0,0.0,0.0,12.0,0.0,0.0,30.1,0.0,0.0,0.0,0.0,0.0,0.0,36.1,0.0,0.0,-0.4,11.1,9.1,0.0,0.0,0.0,0.0,12.0,13.0,13.0,13.0,13.0,13.0,13.0,13.0,0.0,0.0,1.0,1.7,0.0,0.0,5.0,0.0,0.0,0.0,0.656,0.84,+0.0,11.8,0.0,0.0,0.0,,0.0,0.0,12.75,-1.25,-2.1999999999999993,0.0,0.16866666666666666,0.0,2026-04-18 08:46:35-07:00
66.06,1.0,10.0,2026-04-18 15:47:35,37.08162,-121.59957,299.0,0.0,61.1,-12.6,0.0,,0.0,0.0,0.0,10.9,-0.7,5.5,0.0,167.0,0.1,-0.01,1.0,99.0,11.0,14.0,0.0,30.08,102.0,0.0,0.0,317.0,0.0,0.0,0.0,0.0,0.0,0.0,0.0,0.0,0.0,0.0,0.0,0.0,0.0,0.0,0.0,0.0,0.0,0.0,0.0,0.0,0.0,0.0,0.0,0.0,0.0,12.0,0.0,0.0,30.1,0.0,0.0,0.0,0.0,0.0,0.0,36.1,0.0,0.0,-0.4,11.1,9.1,0.0,0.0,0.0,0.0,12.0,13.0,13.0,13.0,12.0,13.0,13.0,13.0,0.0,0.0,0.0,1.6,0.0,0.0,5.0,0.0,0.0,0.0,0.656,0.84,+0.0,11.8,0.0,0.0,0.0,,0.0,0.0,12.5,-1.5,-2.1999999999999993,0.0,0.16866666666666666,0.0,2026-04-18 08:46:35-07:00
67.06,1.0,10.0,2026-04-18 15:47:36,37.08162,-121.59957,302.0,0.0,61.1,-12.6,0.0,,0.0,0.0,0.0,10.9,-0.7,5.5,0.0,167.0,0.1,-0.01,1.0,99.0,25.0,14.0,0.0,30.08,102.0,0.0,0.0,317.0,0.0,0.0,0.0,0.0,0.0,0.0,0.0,0.0,0.0,0.0,0.0,0.0,0.0,0.0,0.0,0.0,0.0,0.0,0.0,0.0,0.0,0.0,0.0,0.0,0.0,12.0,0.0,0.0,30.1,0.0,0.0,0.0,0.0,0.0,0.0,36.1,0.0,0.0,-0.4,11.1,9.1,0.0,0.0,0.0,0.0,12.0,13.0,13.0,13.0,12.0,13.0,13.0,13.0,0.0,0.0,1.0,1.4,0.0,0.0,5.0,0.0,0.0,0.0,0.656,0.84,+0.0,11.8,0.0,0.0,0.0,,0.0,0.0,12.5,-1.5,-2.1999999999999993,0.0,0.16866666666666666,0.0,2026-04-18 08:46:35-07:00
68.06,1.0,10.0,2026-04-18 15:47:37,37.08162,-121.59957,304.0,0.0,61.1,-12.6,0.0,,0.0,0.0,0.0,10.9,-0.6,5.6,0.0,167.0,0.1,-0.01,1.0,99.0,54.0,14.0,0.0,30.08,102.0,0.0,0.0,317.0,0.0,0.0,0.0,0.0,0.0,0.0,0.0,0.0,0.0,0.0,0.0,0.0,0.0,0.0,0.0,0.0,0.0,0.0,0.0,0.0,0.0,0.0,0.0,0.0,0.0,12.0,0.0,0.0,30.1,0.0,0.0,0.0,0.0,0.0,0.0,36.1,0.0,0.0,-0.4,11.1,9.1,0.0,0.0,0.0,0.0,12.0,13.0,13.0,13.0,12.0,13.0,13.0,13.0,0.0,0.0,1.0,1.3,0.0,0.0,5.0,0.0,0.0,0.0,0.654,0.84,+0.0,11.8,0.0,0.0,0.0,,0.0,0.0,12.5,-1.5,-2.1999999999999993,0.0,0.16866666666666666,0.0,2026-04-18 08:46:35-07:00
69.06,1.0,10.0,2026-04-18 15:47:38,37.08161,-121.59957,305.0,0.0,61.1,-12.6,0.0,,0.0,0.0,0.0,10.9,-0.6,5.6,0.0,167.0,0.1,-0.01,1.0,99.0,0.0,14.0,0.0,30.08,111.0,0.0,0.0,317.0,0.0,0.0,0.0,0.0,0.0,0.0,0.0,0.0,0.0,0.0,0.0,0.0,0.0,0.0,0.0,0.0,0.0,0.0,0.0,0.0,0.0,0.0,0.0,0.0,0.0,12.0,0.0,0.0,30.1,0.0,0.0,0.0,0.0,0.0,0.0,36.1,0.0,0.0,-0.4,11.1,9.1,0.0,0.0,0.0,0.0,12.0,13.0,13.0,13.0,12.0,13.0,13.0,13.0,0.0,0.0,1.0,1.2,0.0,0.0,5.0,0.0,0.0,0.0,0.654,0.841,+0.0,11.8,0.0,0.0,0.0,,0.0,0.0,12.5,-1.5,-2.1999999999999993,0.0,0.16866666666666666,0.0,2026-04-18 08:46:35-07:00
70.06,1.0,10.0,2026-04-18 15:47:39,37.08161,-121.59958,306.0,0.0,61.1,-12.6,0.0,,0.0,0.0,0.0,10.9,-0.6,5.6,0.0,167.0,0.1,-0.01,1.0,99.0,-30.0,14.0,0.0,30.08,110.0,0.0,0.0,317.0,0.0,0.0,0.0,0.0,0.0,0.0,0.0,0.0,0.0,0.0,0.0,0.0,0.0,0.0,0.0,0.0,0.0,0.0,0.0,0.0,0.0,0.0,0.0,0.0,0.0,12.0,0.0,0.0,30.1,0.0,0.0,0.0,0.0,0.0,0.0,36.1,0.0,0.0,-0.4,11.1,9.1,0.0,0.0,0.0,0.0,12.0,13.0,13.0,13.0,12.0,13.0,13.0,13.0,0.0,0.0,1.0,1.2,0.0,0.0,5.0,0.0,0.0,0.0,0.654,0.841,+0.0,11.8,0.0,0.0,0.0,,0.0,0.0,12.5,-1.5,-2.1999999999999993,0.0,0.16866666666666666,0.0,2026-04-18 08:46:35-07:00
71.06,1.0,10.0,2026-04-18 15:47:40,37.08161,-121.59958,307.0,0.0,61.1,-12.6,0.0,,0.0,0.0,0.0,10.9,-0.6,5.7,0.0,167.0,0.1,-0.01,1.0,99.0,-18.0,14.0,0.0,30.08,110.0,0.0,0.0,317.0,0.0,0.0,0.0,0.0,0.0,0.0,0.0,0.0,0.0,0.0,0.0,0.0,0.0,0.0,0.0,0.0,0.0,0.0,0.0,0.0,0.0,0.0,0.0,0.0,0.0,12.0,0.0,0.0,30.1,0.5,0.0,0.5,23.4,0.0,0.0,36.1,0.0,0.0,-0.3,11.1,9.1,0.0,0.0,0.0,0.0,12.0,13.0,13.0,13.0,12.0,13.0,13.0,13.0,0.0,0.0,2.0,1.2,0.0,23.4,5.0,0.0,0.0,0.0,0.654,0.841,+0.0,11.8,0.0,0.0,0.0,,0.0,0.0,12.5,-1.5,-2.1999999999999993,6.944444444444444e-05,0.16866666666666666,0.0,2026-04-18 08:46:35-07:00
72.06,1.0,10.0,2026-04-18 15:47:41,37.08161,-121.59958,309.0,0.0,61.1,-12.6,0.0,,0.0,0.0,0.0,10.9,-0.6,5.7,0.0,167.0,0.1,-0.01,1.0,99.0,5.0,14.0,0.0,30.08,110.0,0.0,0.0,317.0,0.0,0.0,0.0,0.0,0.0,0.0,0.0,0.0,0.0,0.0,0.0,0.0,0.0,0.0,0.0,0.0,0.0,0.0,0.0,0.0,0.0,0.0,0.0,0.0,0.0,12.0,0.0,0.0,30.1,1.4,0.0,1.4,31.1,0.0,0.0,36.1,0.0,0.0,-0.3,11.1,9.1,0.0,0.0,0.0,0.0,12.0,13.0,13.0,13.0,12.0,13.0,13.0,13.0,0.0,0.0,1.0,1.1,0.0,31.1,5.0,0.0,0.0,0.0,0.654,0.841,+0.0,11.8,0.0,0.0,0.0,,0.0,0.0,12.5,-1.5,-2.1999999999999993,0.0003333333333333333,0.16866666666666666,0.0,2026-04-18 08:46:35-07:00
73.06,1.0,10.0,2026-04-18 15:47:42,37.08161,-121.59958,310.0,0.0,61.1,-12.6,0.0,,0.0,0.0,0.0,10.9,-0.6,5.7,0.0,167.0,0.1,-0.01,1.0,99.0,38.0,14.0,0.0,30.08,113.0,0.0,0.0,317.0,0.0,0.0,0.0,0.0,0.0,0.0,0.0,0.0,0.0,0.0,0.0,0.0,0.0,0.0,0.0,0.0,0.0,0.0,0.0,0.0,0.0,0.0,0.0,0.0,0.0,12.0,0.0,0.0,30.1,2.1,0.0,2.1,32.0,0.0,0.0,36.1,0.0,0.0,-0.3,11.1,9.1,0.0,0.0,0.0,0.0,12.0,13.0,13.0,13.0,12.0,13.0,13.0,13.0,0.0,0.0,1.0,1.1,0.0,32.0,5.0,0.0,0.0,0.0,0.654,0.841,+0.0,11.8,0.0,0.0,0.0,,0.0,0.0,12.5,-1.5,-2.1999999999999993,0.0008194444444444445,0.16866666666666666,0.0,2026-04-18 08:46:35-07:00
74.06,1.0,10.0,2026-04-18 15:47:43,37.08161,-121.59958,311.0,0.0,61.1,-12.6,0.0,,0.0,0.0,0.0,10.9,-0.6,5.7,0.0,167.0,0.1,-0.01,1.0,99.0,18.0,14.0,0.0,30.08,113.0,0.0,0.0,317.0,0.0,0.0,0.0,0.0,0.0,0.0,0.0,0.0,0.0,0.0,0.0,0.0,0.0,0.0,0.0,0.0,0.0,0.0,0.0,0.0,0.0,0.0,0.0,0.0,0.0,12.0,0.0,0.0,30.1,2.6,0.0,2.6,32.2,0.0,0.0,36.1,0.0,0.0,-0.3,11.1,9.1,0.0,0.0,0.0,0.0,12.0,13.0,13.0,13.0,12.0,13.0,13.0,13.0,0.0,0.0,2.0,1.0,0.0,32.2,5.0,0.0,0.0,0.0,0.654,0.841,+0.0,11.8,0.0,0.0,0.0,,0.0,0.0,12.5,-1.5,-2.1999999999999993,0.0014722222222222222,0.16866666666666666,0.0,2026-04-18 08:46:35-07:00
75.06,1.0,10.0,2026-04-18 15:47:44,37.08161,-121.59958,312.0,0.0,61.1,-12.6,0.0,,0.0,0.0,0.0,10.9,-0.6,5.6,0.0,167.0,0.1,-0.01,1.0,99.0,20.0,14.0,0.0,30.08,113.0,0.0,0.0,317.0,0.0,0.0,0.0,0.0,0.0,0.0,0.0,0.0,0.0,0.0,0.0,0.0,0.0,0.0,0.0,0.0,0.0,0.0,0.0,0.0,0.0,0.0,0.0,0.0,0.0,12.0,0.0,0.0,30.1,2.8,0.0,2.8,33.4,0.0,0.0,36.1,0.0,0.0,-0.3,11.1,9.1,0.0,0.0,0.0,0.0,12.0,13.0,13.0,13.0,12.0,13.0,13.0,13.0,0.0,0.0,2.0,1.0,0.0,33.4,5.0,0.0,0.0,0.0,0.656,0.841,+0.0,11.8,0.0,0.0,0.0,,0.0,0.0,12.5,-1.5,-2.1999999999999993,0.0022222222222222222,0.16866666666666666,0.0,2026-04-18 08:46:35-07:00
76.06,1.0,10.0,2026-04-18 15:47:45,37.08161,-121.59958,313.0,0.0,61.1,-12.6,0.0,,0.0,0.0,0.0,10.9,-0.6,5.6,0.0,167.0,0.1,-0.01,1.0,99.0,-1.0,14.0,0.0,30.08,122.0,0.0,0.0,317.0,0.0,0.0,0.0,0.0,0.0,0.0,0.0,0.0,0.0,0.0,0.0,0.0,0.0,0.0,0.0,0.0,0.0,0.0,0.0,0.0,0.0,0.0,0.0,0.0,0.0,12.0,0.0,0.0,30.1,2.5,0.0,2.5,34.1,0.0,0.0,36.1,0.0,0.0,-0.3,11.1,9.1,0.0,0.0,0.0,0.0,12.0,13.0,13.0,13.0,12.0,13.0,13.0,13.0,0.0,0.0,2.0,1.0,0.0,34.1,5.0,0.0,0.0,0.0,0.656,0.841,+0.0,11.8,0.0,0.0,0.0,,0.0,0.0,12.5,-1.5,-2.1999999999999993,0.002958333333333333,0.16866666666666666,0.0,2026-04-18 08:46:35-07:00
77.06,1.0,10.0,2026-04-18 15:47:46,37.08162,-121.59958,314.0,0.0,61.1,-12.6,0.0,,0.0,0.0,0.0,10.9,-0.6,5.6,0.0,167.0,0.0,-0.01,1.0,99.0,0.0,14.0,0.0,30.08,121.0,0.0,0.0,317.0,0.0,0.0,0.0,0.0,0.0,0.0,0.0,0.0,0.0,0.0,0.0,0.0,0.0,0.0,0.0,0.0,0.0,0.0,0.0,0.0,0.0,0.0,0.0,0.0,0.0,12.0,0.0,0.0,30.1,2.5,0.0,2.5,32.5,0.0,0.0,36.1,0.0,0.0,-0.3,11.1,9.1,0.0,0.0,0.0,0.0,12.0,13.0,13.0,13.0,12.0,13.0,13.0,13.0,0.0,0.0,2.0,1.0,0.0,32.5,5.0,0.0,0.0,0.0,0.654,0.841,+0.0,11.8,0.0,0.0,0.0,,0.0,0.0,12.5,-1.5,-2.1999999999999993,0.003652777777777778,0.16866666666666666,0.0,2026-04-18 08:46:35-07:00
78.06,1.0,10.0,2026-04-18 15:47:47,37.0816,-121.59957,327.0,0.0,61.1,-12.6,0.0,,0.0,0.0,0.0,10.9,-0.6,5.6,0.0,167.0,0.1,-0.01,1.0,99.0,25.0,14.0,0.0,30.08,121.0,0.0,0.0,317.0,0.0,0.0,0.0,0.0,0.0,0.0,0.0,0.0,0.0,0.0,0.0,0.0,0.0,0.0,0.0,0.0,0.0,0.0,0.0,0.0,0.0,0.0,0.0,0.0,0.0,12.0,0.0,0.0,30.1,0.0,0.0,0.0,32.2,0.0,0.0,36.1,0.0,0.0,-0.3,11.1,9.1,0.0,0.0,0.0,0.0,12.0,13.0,12.0,13.0,12.0,13.0,13.0,13.0,0.0,0.0,2.0,1.0,0.0,32.2,5.0,0.0,0.0,0.0,0.654,0.841,+0.0,11.8,0.0,0.0,0.0,,0.0,0.0,12.25,-1.75,-2.1999999999999993,0.004,0.16866666666666666,0.0,2026-04-18 08:46:35-07:00
79.06,1.0,10.0,2026-04-18 15:47:48,37.0816,-121.59957,328.0,0.0,61.1,-12.6,0.0,,0.0,0.0,0.0,10.9,-0.6,5.6,0.0,167.0,0.1,-0.01,1.0,99.0,-5.0,14.0,0.0,30.08,121.0,0.0,0.0,317.0,0.0,0.0,0.0,0.0,0.0,0.0,0.0,0.0,0.0,0.0,0.0,0.0,0.0,0.0,0.0,0.0,0.0,0.0,0.0,0.0,0.0,0.0,0.0,0.0,0.0,12.0,0.0,0.0,30.1,0.0,0.0,0.0,32.0,0.0,0.0,36.1,0.0,0.0,-0.4,11.1,9.1,0.0,0.0,0.0,0.0,12.0,13.0,12.0,13.0,12.0,13.0,13.0,13.0,0.0,0.0,2.0,1.0,0.0,32.0,5.0,0.0,0.0,0.0,0.654,0.841,+0.0,11.8,0.0,0.0,0.0,,0.0,0.0,12.25,-1.75,-2.1999999999999993,0.004,0.16866666666666666,0.0,2026-04-18 08:46:35-07:00
80.06,1.0,10.0,2026-04-18 15:47:49,37.0816,-121.59957,330.0,0.0,61.1,-12.6,0.0,,0.0,0.0,0.0,10.9,-0.6,5.6,0.0,167.0,0.1,-0.01,1.0,99.0,17.0,14.0,0.0,30.08,122.0,0.0,0.0,317.0,0.0,0.0,0.0,0.0,0.0,0.0,0.0,0.0,0.0,0.0,0.0,0.0,0.0,0.0,0.0,0.0,0.0,0.0,0.0,0.0,0.0,0.0,0.0,0.0,0.0,12.0,0.0,0.0,30.1,0.0,0.0,0.0,31.8,0.0,0.0,36.1,0.0,0.0,-0.4,11.1,9.1,0.0,0.0,0.0,0.0,12.0,13.0,12.0,13.0,12.0,13.0,13.0,13.0,0.0,0.0,2.0,1.0,0.0,31.8,5.0,0.0,0.0,0.0,0.656,0.841,+0.0,11.8,0.0,0.0,0.0,,0.0,0.0,12.25,-1.75,-2.1999999999999993,0.004,0.16866666666666666,0.0,2026-04-18 08:46:35-07:00
81.06,1.0,10.0,2026-04-18 15:47:50,37.0816,-121.59957,332.0,0.0,61.1,-12.6,0.0,,0.0,0.0,0.0,10.9,-0.6,5.6,0.0,167.0,0.1,-0.01,1.0,99.0,42.0,14.0,0.0,30.08,122.0,0.0,0.0,317.0,0.0,0.0,0.0,0.0,0.0,0.0,0.0,0.0,0.0,0.0,0.0,0.0,0.0,0.0,0.0,0.0,0.0,0.0,0.0,0.0,0.0,0.0,0.0,0.0,0.0,12.0,0.0,0.0,30.1,0.0,0.0,0.0,31.6,0.0,0.0,36.1,0.0,0.0,-0.4,11.1,9.1,0.0,0.0,0.0,0.0,12.0,13.0,12.0,13.0,12.0,13.0,13.0,13.0,0.0,0.0,1.0,1.0,0.0,31.6,5.0,0.0,0.0,0.0,0.654,0.841,+0.0,11.8,0.0,0.0,0.0,,0.0,0.0,12.25,-1.75,-2.1999999999999993,0.004,0.16866666666666666,0.0,2026-04-18 08:46:35-07:00
82.06,1.0,10.0,2026-04-18 15:47:51,37.0816,-121.59957,334.0,0.1,61.1,-12.6,0.0,,0.0,0.0,0.0,11.0,-0.6,5.6,0.0,167.0,0.1,-0.01,1.0,99.0,32.0,14.0,0.0,30.08,122.0,0.0,0.0,317.0,0.0,0.0,0.0,0.0,0.0,0.0,0.0,0.0,0.0,0.0,0.0,0.0,0.0,0.0,0.0,0.0,0.0,0.0,0.0,0.0,0.0,0.0,0.0,0.0,0.0,12.0,0.0,0.0,30.1,0.0,0.0,0.0,31.4,0.0,0.0,36.1,0.0,0.0,-0.4,11.1,9.1,0.0,0.0,0.0,0.0,12.0,13.0,12.0,13.0,12.0,13.0,13.0,13.0,0.0,0.0,2.0,1.0,0.0,31.4,5.0,0.0,0.0,0.0,0.656,0.841,+0.0,11.8,0.0,0.0,0.0,,0.0,0.0,12.25,-1.75,-2.1999999999999993,0.004,0.253,0.0,2026-04-18 08:46:35-07:00
83.06,1.0,10.0,2026-04-18 15:47:52,37.0816,-121.59957,335.0,0.1,61.1,-12.6,0.0,,0.0,0.0,0.0,10.9,-0.6,5.6,0.0,167.0,0.1,-0.01,1.0,99.0,17.0,14.0,0.0,30.08,122.0,0.0,0.0,317.0,0.0,0.0,0.0,0.0,0.0,0.0,0.0,0.0,0.0,0.0,0.0,0.0,0.0,0.0,0.0,0.0,0.0,0.0,0.0,0.0,0.0,0.0,0.0,0.0,0.0,12.0,0.0,0.0,30.1,0.0,0.0,0.0,31.2,0.0,0.0,36.1,0.0,0.0,-0.4,11.1,9.1,0.0,0.0,0.0,0.0,12.0,13.0,12.0,13.0,12.0,13.0,13.0,13.0,0.0,0.0,2.0,1.0,0.0,31.2,5.0,0.0,0.0,0.0,0.656,0.841,+0.0,11.8,0.0,0.0,0.0,,0.0,0.0,12.25,-1.75,-2.1999999999999993,0.004,0.42166666666666663,0.0,2026-04-18 08:46:35-07:00
84.06,1.0,10.0,2026-04-18 15:47:53,37.0816,-121.59957,336.0,0.0,61.1,-12.6,0.0,,0.0,0.0,0.0,10.9,-0.6,5.7,0.0,167.0,0.1,-0.01,1.0,99.0,29.0,14.0,0.0,30.08,122.0,0.0,0.0,317.0,0.0,0.0,0.0,0.0,0.0,0.0,0.0,0.0,0.0,0.0,0.0,0.0,0.0,0.0,0.0,0.0,0.0,0.0,0.0,0.0,0.0,0.0,0.0,0.0,0.0,12.0,0.0,0.0,30.1,0.0,0.0,0.0,31.1,0.0,0.0,36.1,0.0,0.0,-0.4,11.1,9.1,0.0,0.0,0.0,0.0,12.0,13.0,12.0,13.0,12.0,13.0,13.0,13.0,0.0,0.0,2.0,1.0,0.0,31.1,5.0,0.0,0.0,0.0,0.654,0.841,+0.0,11.8,0.0,0.0,0.0,,0.0,0.0,12.25,-1.75,-2.1999999999999993,0.004,0.506,0.0,2026-04-18 08:46:35-07:00
85.06,1.0,10.0,2026-04-18 15:47:54,37.08162,-121.59956,355.0,0.1,61.1,-12.6,0.0,,0.0,0.0,0.0,10.9,-0.6,5.7,0.0,167.0,0.1,-0.01,1.0,99.0,49.0,14.0,0.0,30.08,122.0,0.0,0.0,317.0,0.0,0.0,0.0,0.0,0.0,0.0,0.0,0.0,0.0,0.0,0.0,0.0,0.0,0.0,0.0,0.0,0.0,0.0,0.0,0.0,0.0,0.0,0.0,0.0,0.0,12.0,0.0,0.0,30.1,0.0,0.0,0.0,30.9,0.0,0.0,36.1,0.0,0.0,-0.4,11.1,9.1,0.0,0.0,0.0,0.0,12.0,13.0,12.0,13.0,12.0,13.0,13.0,13.0,0.0,0.0,2.0,1.0,0.0,30.9,5.0,0.0,0.0,0.0,0.654,0.84,+0.0,11.8,0.0,0.0,0.0,,0.0,0.0,12.25,-1.75,-2.1999999999999993,0.004,0.5903333333333333,0.0,2026-04-18 08:46:35-07:00
86.06,1.0,10.0,2026-04-18 15:47:55,37.08162,-121.59956,356.0,0.0,61.1,-12.6,0.0,,0.0,0.0,0.0,10.9,-0.6,5.7,0.0,167.0,0.1,-0.01,1.0,99.0,19.0,14.0,0.0,30.08,123.0,0.0,0.0,317.0,0.0,0.0,0.0,0.0,0.0,0.0,0.0,0.0,0.0,0.0,0.0,0.0,0.0,0.0,0.0,0.0,0.0,0.0,0.0,0.0,0.0,0.0,0.0,0.0,0.0,12.0,0.0,0.0,30.1,0.0,0.0,0.0,30.8,0.0,0.0,36.1,0.0,0.0,-0.4,11.1,9.1,0.0,0.0,0.0,0.0,12.0,13.0,13.0,14.0,13.0,13.0,13.0,14.0,0.0,0.0,3.0,1.0,0.0,30.8,5.0,0.0,0.0,0.0,0.656,0.841,+0.0,11.8,0.0,0.0,0.0,,0.0,0.0,12.75,-1.25,-2.1999999999999993,0.004,0.6746666666666666,0.0,2026-04-18 08:46:35-07:00
87.06,1.0,10.0,2026-04-18 15:47:56,37.08163,-121.59956,356.0,0.1,61.1,-12.6,0.0,,0.0,0.0,0.0,10.9,-0.6,5.6,0.0,167.0,0.1,-0.01,1.0,99.0,9.0,14.0,0.0,30.08,125.0,0.0,0.0,317.0,0.0,0.0,0.0,0.0,0.0,0.0,0.0,0.0,0.0,0.0,0.0,0.0,0.0,0.0,0.0,0.0,0.0,0.0,0.0,0.0,0.0,0.0,0.0,0.0,0.0,12.0,0.0,0.0,30.1,0.0,0.0,0.0,30.7,0.0,0.0,36.1,0.0,0.0,-0.4,11.1,9.1,0.0,0.0,0.0,0.0,12.0,13.0,13.0,14.0,13.0,13.0,13.0,14.0,0.0,0.0,2.0,0.0,0.0,30.7,5.0,0.0,0.0,0.0,0.654,0.841,+0.0,11.8,0.0,0.0,0.0,,0.0,0.0,12.75,-1.25,-2.1999999999999993,0.004,0.7589999999999999,0.0,2026-04-18 08:46:35-07:00
88.06,1.0,10.0,2026-04-18 15:47:57,37.08163,-121.59956,358.0,0.0,61.1,-12.6,0.0,,0.0,0.0,0.0,10.9,-0.6,5.6,0.0,167.0,0.1,-0.01,1.0,99.0,-15.0,14.0,0.0,30.08,125.0,0.0,0.0,317.0,0.0,0.0,0.0,0.0,0.0,0.0,0.0,0.0,0.0,0.0,0.0,0.0,0.0,0.0,0.0,0.0,0.0,0.0,0.0,0.0,0.0,0.0,0.0,0.0,0.0,12.0,0.0,0.0,30.1,0.0,0.0,0.0,30.6,0.0,0.0,36.1,0.0,0.0,-0.4,11.1,9.1,0.0,0.0,0.0,0.0,12.0,13.0,13.0,14.0,13.0,13.0,13.0,14.0,0.0,0.0,3.0,0.0,0.0,30.6,5.0,0.0,0.0,0.0,0.654,0.841,+0.0,11.8,0.0,0.0,0.0,,0.0,0.0,12.75,-1.25,-2.1999999999999993,0.004,0.8433333333333333,0.0,2026-04-18 08:46:35-07:00
89.06,1.0,10.0,2026-04-18 15:47:58,37.08165,-121.59956,353.0,0.0,61.1,-12.6,0.0,,0.0,0.0,0.0,10.9,-0.6,5.6,0.0,167.0,0.1,-0.01,1.0,99.0,-27.0,14.0,0.0,30.08,125.0,0.0,0.0,317.0,0.0,0.0,0.0,0.0,0.0,0.0,0.0,0.0,0.0,0.0,0.0,0.0,0.0,0.0,0.0,0.0,0.0,0.0,0.0,0.0,0.0,0.0,0.0,0.0,0.0,12.0,0.0,0.0,30.1,0.0,0.0,0.0,30.4,0.0,0.0,36.1,0.0,0.0,-0.4,11.1,9.1,0.0,0.0,0.0,0.0,12.0,13.0,13.0,14.0,13.0,13.0,13.0,14.0,0.0,0.0,2.0,0.0,0.0,30.4,5.0,0.0,0.0,0.0,0.654,0.84,+0.0,11.8,0.0,0.0,0.0,,0.0,0.0,12.75,-1.25,-2.1999999999999993,0.004,0.8433333333333333,0.0,2026-04-18 08:46:35-07:00
90.06,1.0,10.0,2026-04-18 15:47:59,37.08166,-121.59956,353.0,0.0,61.1,-12.6,0.0,,0.0,0.0,0.0,10.9,-0.6,5.6,0.0,167.0,0.1,-0.01,1.0,99.0,2.0,14.0,0.0,30.08,134.0,0.0,0.0,317.0,0.0,0.0,0.0,0.0,0.0,0.0,0.0,0.0,0.0,0.0,0.0,0.0,0.0,0.0,0.0,0.0,0.0,0.0,0.0,0.0,0.0,0.0,0.0,0.0,0.0,12.0,0.0,0.0,30.1,0.0,0.0,0.0,30.3,0.0,0.0,36.1,0.0,0.0,-0.4,11.1,9.1,0.0,0.0,0.0,0.0,12.0,13.0,13.0,14.0,13.0,13.0,13.0,14.0,0.0,0.0,2.0,0.0,0.0,30.3,5.0,0.0,0.0,0.0,0.654,0.841,+0.0,11.8,0.0,0.0,0.0,,0.0,0.0,12.75,-1.25,-2.1999999999999993,0.004,0.8433333333333333,0.0,2026-04-18 08:46:35-07:00
91.06,1.0,10.0,2026-04-18 15:48:00,37.08166,-121.59956,354.0,0.0,61.1,-12.6,0.0,,0.0,0.0,0.0,10.9,-0.6,5.7,0.0,167.0,0.1,-0.01,1.0,99.0,-12.0,14.0,0.0,30.08,134.0,0.0,0.0,317.0,0.0,0.0,0.0,0.0,0.0,0.0,0.0,0.0,0.0,0.0,0.0,0.0,0.0,0.0,0.0,0.0,0.0,0.0,0.0,0.0,0.0,0.0,0.0,0.0,0.0,9.0,0.0,0.0,30.1,0.0,0.0,0.0,30.2,0.0,0.0,36.1,0.0,0.0,-0.4,11.1,9.1,0.0,0.0,0.0,0.0,10.0,10.0,10.0,10.0,10.0,10.0,10.0,10.0,0.0,0.0,2.0,0.0,0.0,30.2,5.0,0.0,0.0,0.0,0.654,0.842,+0.0,8.5,0.0,0.0,0.0,,0.0,0.0,10.0,-4.0,-5.5,0.004,0.8433333333333333,0.0,2026-04-18 08:46:35-07:00
92.06,1.0,10.0,2026-04-18 15:48:01,37.08166,-121.59956,354.0,0.1,61.1,-12.6,0.0,,0.0,0.0,0.0,10.9,-0.7,5.7,0.0,167.0,0.1,-0.02,1.0,99.0,-17.0,14.0,0.0,30.08,134.0,0.0,0.0,317.0,0.0,0.0,0.0,0.0,0.0,0.0,0.0,0.0,0.0,0.0,0.0,0.0,0.0,0.0,0.0,0.0,0.0,0.0,0.0,0.0,0.0,0.0,0.0,0.0,0.0,10.0,207.0,207.0,29.6,0.0,0.0,0.0,24.5,0.0,0.0,36.1,0.0,0.0,-0.4,11.1,9.1,0.0,0.0,0.0,0.0,11.0,12.0,11.0,25.0,11.0,30.0,11.0,12.0,0.0,0.0,15.0,0.0,0.0,24.5,5.0,0.0,0.0,0.0,0.656,0.846,+0.0,10.4,0.0,0.0,0.0,,0.0,207.0,11.0,-3.0,-3.5999999999999996,0.004,0.9276666666666666,0.0,2026-04-18 08:46:35-07:00
93.06,1.0,10.0,2026-04-18 15:48:02,37.08166,-121.59956,355.0,0.1,61.1,-12.6,0.0,,0.0,0.0,0.0,10.9,-0.7,5.8,0.0,167.0,0.1,-0.01,1.0,99.0,-54.0,14.0,0.0,30.08,134.0,0.0,0.0,317.0,0.0,0.0,0.0,0.0,0.0,0.0,0.0,0.0,0.0,0.0,0.0,0.0,0.0,0.0,0.0,0.0,0.0,0.0,0.0,0.0,0.0,0.0,0.0,0.0,1.0,12.0,975.0,975.0,26.3,1.1,0.0,1.1,24.4,0.0,0.0,36.1,0.0,0.0,-0.4,11.1,9.1,0.0,0.0,0.0,0.0,12.0,31.0,13.0,42.0,13.0,56.0,13.0,31.0,0.0,0.0,15.0,0.0,0.0,24.4,5.0,0.001,0.0,0.0,0.665,0.844,+1.3,11.8,0.0,0.0,0.0,,0.0,975.0,12.75,-1.25,-2.1999999999999993,0.004152777777777778,1.0963333333333334,0.09090909090909091,2026-04-18 08:46:35-07:00
94.06,1.0,10.0,2026-04-18 15:48:03,37.08166,-121.59956,355.0,0.0,61.1,-12.6,0.0,,0.0,0.0,0.0,10.9,-0.5,5.8,0.0,167.0,0.1,-0.01,1.0,99.0,-24.0,14.0,0.0,30.08,134.0,0.0,0.0,317.0,0.0,0.0,0.0,0.0,0.0,0.0,0.0,0.0,0.0,0.0,0.0,0.0,0.0,0.0,0.0,0.0,0.0,0.0,0.0,0.0,0.0,0.0,0.0,0.0,3.0,12.0,1075.0,1075.0,18.0,1.9,0.0,1.9,25.1,0.0,0.0,36.1,0.0,0.0,-0.4,11.1,9.1,0.0,0.0,0.0,0.0,13.0,93.0,13.0,100.0,13.0,117.0,13.0,93.0,0.0,0.0,15.0,0.0,0.0,25.1,5.0,0.001,0.0,0.0,0.656,0.842,+2.7,11.9,0.0,0.0,0.0,,0.0,1075.0,13.0,-1.0,-2.0999999999999996,0.0045694444444444446,1.1806666666666665,0.0,2026-04-18 08:46:35-07:00
95.06,1.0,10.0,2026-04-18 15:48:04,37.08166,-121.59956,354.0,0.1,61.1,-12.6,0.0,,0.0,0.0,0.0,10.9,-0.6,5.7,0.0,167.0,0.0,-0.01,1.0,99.0,-34.0,14.0,0.0,30.08,134.0,0.0,0.0,317.0,0.0,0.0,0.0,0.0,0.0,0.0,0.0,0.0,0.0,0.0,0.0,0.0,0.0,0.0,0.0,0.0,0.0,0.0,0.0,0.0,0.0,0.0,0.0,0.0,5.0,12.0,1100.0,1100.0,16.7,2.4,0.0,2.4,25.3,0.0,0.0,36.1,0.0,0.0,-0.4,11.1,9.1,0.0,0.0,0.0,0.0,13.0,146.0,13.0,155.0,13.0,168.0,13.0,147.0,0.0,0.0,15.0,0.0,0.0,25.3,5.0,0.001,0.0,0.0,0.654,0.841,+4.6,11.9,0.0,0.0,0.0,,0.0,1100.0,13.0,-1.0,-2.0999999999999996,0.005166666666666667,1.265,0.04166666666666667,2026-04-18 08:46:35-07:00
96.06,1.0,10.0,2026-04-18 15:48:05,37.08165,-121.59958,369.0,0.0,61.1,-12.6,0.0,,0.0,0.0,0.0,10.9,-0.5,5.7,0.0,167.0,0.0,-0.01,1.0,99.0,-10.0,14.0,0.0,30.08,134.0,0.0,0.0,317.0,0.0,0.0,0.0,0.0,0.0,0.0,0.0,0.0,0.0,0.0,0.0,0.0,0.0,0.0,0.0,0.0,0.0,0.0,0.0,0.0,0.0,0.0,0.0,0.0,7.0,12.0,1199.0,1199.0,16.0,2.6,0.0,2.6,26.0,0.0,0.0,36.1,0.0,0.0,-0.4,11.1,9.1,0.0,0.0,0.0,0.0,13.0,192.0,14.0,199.0,13.0,212.0,14.0,192.0,0.0,0.0,15.0,0.0,0.0,26.0,5.0,0.001,0.0,0.0,0.656,0.841,+6.8,11.9,0.0,0.0,0.0,,0.0,1199.0,13.5,-0.5,-2.0999999999999996,0.005861111111111111,1.3493333333333333,0.0,2026-04-18 08:46:35-07:00
97.06,1.0,10.0,2026-04-18 15:48:06,37.08165,-121.59958,370.0,0.0,61.1,-12.6,0.0,,0.0,0.0,0.0,10.9,-0.5,5.8,0.0,167.0,0.1,-0.01,1.0,99.0,-25.0,14.0,0.0,30.08,136.0,0.0,0.0,317.0,0.0,0.0,0.0,0.0,0.0,0.0,0.0,0.0,0.0,0.0,0.0,0.0,0.0,0.0,0.0,0.0,0.0,0.0,0.0,0.0,0.0,0.0,0.0,0.0,9.0,12.0,1227.0,1227.0,15.5,2.8,0.0,2.8,25.9,0.0,0.0,36.1,0.0,0.0,-0.4,11.1,9.1,0.0,0.0,0.0,0.0,14.0,236.0,14.0,238.0,14.0,251.0,14.0,232.0,0.0,0.0,15.0,0.0,0.0,25.9,5.0,0.001,0.0,0.0,0.656,0.841,+9.5,11.9,0.0,0.0,0.0,,0.0,1227.0,14.0,0.0,-2.0999999999999996,0.006611111111111111,1.3493333333333333,0.0,2026-04-18 08:46:35-07:00
98.06,1.0,10.0,2026-04-18 15:48:07,37.08165,-121.59958,369.0,0.0,61.1,-12.6,0.0,,0.0,0.0,0.0,10.9,-0.6,5.7,0.0,167.0,0.1,-0.01,1.0,99.0,-48.0,14.0,0.0,30.08,136.0,0.0,0.0,317.0,0.0,0.0,0.0,0.0,0.0,0.0,0.0,0.0,0.0,0.0,0.0,0.0,0.0,0.0,0.0,0.0,0.0,0.0,0.0,0.0,0.0,0.0,0.0,0.0,13.0,12.0,1247.0,1247.0,15.3,3.0,0.0,3.0,25.9,0.0,0.0,36.1,0.0,0.0,-0.4,11.1,9.1,0.0,0.0,0.0,0.0,14.0,274.0,15.0,273.0,14.0,289.0,15.0,269.0,0.0,0.0,15.0,0.0,0.0,25.9,5.0,0.001,0.0,0.0,0.654,0.841,+12.7,12.0,0.0,0.0,0.0,,0.0,1247.0,14.5,0.5,-2.0,0.007416666666666667,1.3493333333333333,0.0,2026-04-18 08:46:35-07:00
99.06,1.0,10.0,2026-04-18 15:48:08,37.08165,-121.59958,367.0,0.0,61.1,-12.6,0.0,,0.0,0.0,0.0,10.9,-0.6,5.7,0.0,167.0,0.0,-0.01,1.0,99.0,-8.0,14.0,0.0,30.08,136.0,0.0,0.0,317.0,0.0,0.0,0.0,0.0,0.0,0.0,0.0,0.0,0.0,0.0,0.0,0.0,0.0,0.0,0.0,0.0,0.0,0.0,0.0,0.0,0.0,0.0,0.0,0.0,16.0,12.0,1227.0,1227.0,14.9,3.1,0.0,3.1,26.0,0.0,0.0,36.1,0.0,0.0,-0.4,11.1,9.1,0.0,0.0,0.0,0.0,15.0,305.0,15.0,303.0,15.0,321.0,16.0,301.0,0.0,0.0,15.0,0.0,0.0,26.0,5.0,0.001,0.0,0.0,0.654,0.841,+16.4,12.0,0.0,0.0,0.0,,0.0,1227.0,15.25,1.25,-2.0,0.008263888888888888,1.3493333333333333,0.0,2026-04-18 08:46:35-07:00
100.06,1.0,10.0,2026-04-18 15:48:09,37.08165,-121.59959,366.0,0.1,61.1,-12.6,0.0,,0.0,0.0,0.0,10.9,-0.5,5.8,0.0,167.0,0.1,-0.01,1.0,99.0,-12.0,14.0,0.0,30.08,145.0,0.0,0.0,317.0,0.0,0.0,0.0,0.0,0.0,0.0,0.0,0.0,0.0,0.0,0.0,0.0,0.0,0.0,0.0,0.0,0.0,0.0,0.0,0.0,0.0,0.0,0.0,0.0,21.0,12.0,1180.0,1180.0,14.4,3.1,0.0,3.1,26.0,0.0,0.0,36.1,0.0,0.0,-0.4,11.1,9.1,0.0,0.0,0.0,0.0,15.0,337.0,16.0,333.0,15.0,353.0,16.0,333.0,0.0,0.0,15.0,0.0,0.0,26.0,5.0,0.001,0.0,0.0,0.654,0.841,+21.4,12.0,0.0,0.0,0.0,,0.0,1180.0,15.5,1.5,-2.0,0.009125,1.4336666666666666,0.03225806451612903,2026-04-18 08:46:35-07:00
101.06,1.0,10.0,2026-04-18 15:48:10,37.08165,-121.59959,365.0,0.0,61.1,-12.6,0.0,,0.0,0.0,0.0,10.9,-0.5,5.8,0.0,167.0,0.1,-0.01,1.0,99.0,-4.0,14.0,0.0,30.08,145.0,0.0,0.0,317.0,0.0,0.0,0.0,0.0,0.0,0.0,0.0,0.0,0.0,0.0,0.0,0.0,0.0,0.0,0.0,0.0,0.0,0.0,0.0,0.0,0.0,0.0,0.0,0.0,27.0,12.0,1062.0,1062.0,13.6,3.1,0.0,3.1,26.1,0.0,0.0,36.1,0.0,0.0,-0.4,11.1,9.1,0.0,0.0,0.0,0.0,16.0,358.0,16.0,354.0,16.0,376.0,17.0,356.0,0.0,0.0,15.0,0.0,0.0,26.1,5.0,0.001,0.0,0.0,0.654,0.84,+27.1,12.1,0.0,0.0,0.0,,0.0,1062.0,16.25,2.25,-1.9000000000000004,0.00998611111111111,1.518,0.0,2026-04-18 08:46:35-07:00
102.06,1.0,10.0,2026-04-18 15:48:11,37.08165,-121.59958,363.0,0.1,61.1,-12.6,0.0,,0.0,0.0,0.0,10.9,-0.5,5.8,0.0,167.0,0.1,-0.01,1.0,99.0,-13.0,15.0,0.0,30.08,147.0,0.0,0.0,317.0,0.0,0.0,0.0,0.0,0.0,0.0,0.0,0.0,0.0,0.0,0.0,0.0,0.0,0.0,0.0,0.0,0.0,0.0,0.0,0.0,0.0,0.0,0.0,0.0,34.0,12.0,1056.0,1056.0,13.5,3.0,0.0,3.0,26.1,0.0,0.0,36.1,0.0,0.0,-0.4,11.1,9.1,0.0,0.0,0.0,0.0,16.0,375.0,17.0,372.0,16.0,395.0,17.0,376.0,0.0,0.0,15.0,0.0,0.0,26.1,5.0,0.0,0.0,0.0,0.654,0.84,+33.7,12.1,0.0,0.0,0.0,,0.0,1056.0,16.5,1.5,-2.9000000000000004,0.010833333333333334,1.6023333333333332,0.03333333333333333,2026-04-18 08:46:35-07:00
103.06,1.0,10.0,2026-04-18 15:48:12,37.08165,-121.59958,364.0,0.1,61.1,-12.6,0.0,,0.0,0.0,0.0,10.9,-0.6,5.7,0.0,167.0,0.0,-0.01,1.0,99.0,21.0,15.0,0.0,30.08,147.0,0.0,0.0,317.0,0.0,0.0,0.0,0.0,0.0,0.0,0.0,0.0,0.0,0.0,0.0,0.0,0.0,0.0,0.0,0.0,0.0,0.0,0.0,0.0,0.0,0.0,0.0,0.0,41.0,12.0,1043.0,1043.0,13.4,3.0,0.0,3.0,26.1,0.0,0.0,36.1,0.0,0.0,-0.4,11.1,9.1,0.0,0.0,0.0,0.0,17.0,389.0,17.0,387.0,16.0,412.0,18.0,395.0,0.0,0.0,15.0,0.0,0.0,26.1,5.0,0.0,0.0,0.0,0.654,0.84,+41.1,12.1,0.0,0.0,0.0,,0.0,1043.0,17.0,2.0,-2.9000000000000004,0.011666666666666667,1.771,0.03333333333333333,2026-04-18 08:46:35-07:00
104.06,1.0,10.0,2026-04-18 15:48:13,37.08165,-121.59958,363.0,0.0,61.1,-12.6,0.0,,0.0,0.0,0.0,10.9,-0.6,5.7,0.0,167.0,0.1,-0.01,1.0,99.0,12.0,15.0,0.0,30.08,147.0,0.0,0.0,317.0,0.0,0.0,0.0,0.0,0.0,0.0,0.0,0.0,0.0,0.0,0.0,0.0,0.0,0.0,0.0,0.0,0.0,0.0,0.0,0.0,3.0,0.0,0.0,1200.0,49.0,12.0,1039.0,1039.0,13.5,3.0,0.0,3.0,26.1,0.0,0.0,36.1,0.0,0.0,-0.4,11.1,9.1,0.0,0.0,0.0,0.0,17.0,402.0,18.0,401.0,17.0,426.0,18.0,411.0,0.0,0.0,15.0,0.0,0.0,26.1,5.0,0.0,0.0,0.0,0.654,0.844,+48.7,12.2,0.0,0.0,0.0,,0.0,1039.0,17.5,2.5,-2.8000000000000007,0.0125,1.8553333333333333,0.0,2026-04-18 08:46:35-07:00
105.06,1.0,10.0,2026-04-18 15:48:14,37.08165,-121.59958,362.0,0.0,61.1,-12.6,0.0,,0.0,0.0,0.0,10.9,-0.5,5.8,0.0,167.0,0.1,-0.01,1.0,99.0,21.0,15.0,0.0,30.08,156.0,0.0,0.0,317.0,0.0,0.0,0.0,0.0,0.0,0.0,0.0,0.0,0.0,0.0,0.0,0.0,0.0,0.0,0.0,0.0,0.0,0.0,0.0,0.0,1.0,0.0,0.0,1200.0,56.0,12.0,1041.0,1041.0,13.6,2.9,0.0,2.9,26.1,0.0,0.0,36.1,0.0,0.0,-0.4,11.1,9.1,0.0,0.0,0.0,0.0,17.0,413.0,18.0,412.0,17.0,439.0,19.0,426.0,0.0,0.0,15.0,0.0,0.0,26.1,5.0,0.0,0.0,0.0,0.654,0.842,+56.0,12.2,0.0,0.0,0.0,,0.0,1041.0,17.75,2.75,-2.8000000000000007,0.013319444444444445,1.8553333333333333,0.0,2026-04-18 08:46:35-07:00
106.06,1.0,10.0,2026-04-18 15:48:15,37.08165,-121.59958,360.0,0.0,61.1,-12.6,0.0,,0.0,0.0,0.0,10.9,-0.5,5.7,0.0,167.0,0.1,-0.01,1.0,99.0,43.0,15.0,0.0,30.08,156.0,0.0,0.0,317.0,0.0,0.0,0.0,0.0,0.0,0.0,0.0,0.0,0.0,0.0,0.0,0.0,0.0,0.0,0.0,0.0,0.0,0.0,0.0,0.0,1.0,0.0,0.0,1200.0,62.0,12.0,1027.0,1027.0,13.6,2.9,0.0,2.9,26.1,0.0,0.0,36.1,0.0,0.0,-0.4,11.1,9.1,0.0,0.0,0.0,0.0,18.0,423.0,19.0,424.0,18.0,449.0,19.0,438.0,0.0,0.0,15.0,0.0,0.0,26.1,5.0,0.0,0.0,0.0,0.654,0.845,+62.0,12.2,0.0,0.0,0.0,,0.0,1027.0,18.5,3.5,-2.8000000000000007,0.014125,1.8553333333333333,0.0,2026-04-18 08:46:35-07:00
