Session Time,GPS Fix Quality,Number of Satellites,GPS Date & Time,Latitude (deg),Longitude (deg),GPS Altitude (feet),Ground Speed (knots),Ground Track (deg),Mag Var (deg),Cross Track Error (NM),Destination Waypoint ID,Range to Destination (NM),Bearing to Destination (deg),System Time,Pitch (deg),Roll (deg),Magnetic Heading (deg),Indicated Airspeed (knots),Pressure Altitude (ft),Turn Rate (deg/s),Lateral Accel (g),Vertical Accel(g),Angle of Attack (%),Vertical Speed (ft/min),OAT (deg C),True Airspeed (knots),Barometer Setting (inHg),Density Altitude (ft),Wind Direction (deg),Wind Speed (knots),Heading Bug (deg),Altitude Bug (ft),Airspeed Bug (knots),Vertical Speed Bug (ft/min),Course (deg),CDI Source Type,CDI Source Port,CDI Scale (NM),CDI Deflection (%),Glideslope (%),AP Engaged,AP Roll Mode,AP Roll Force,AP Roll Position (steps),AP Roll Slip (bool),AP Pitch Force,AP Pitch Position (steps),AP Pitch Slip (bool),AP Yaw Force,AP Yaw Position,AP Yaw Slip (bool),Transponder Status,Transponder Reply (bool),Transponder Identing (bool),Transponder Code (octal),Oil Pressure (PSI),Oil Temp (deg C),RPM L,RPM R,Manifold Pressure (inHg),Fuel Flow 1 (gal/hr),Fuel Flow 2 (gal/hr),Total Fuel Flow (gal/hr),Fuel Pressure (PSI),Fuel Level L (gal),Fuel Level R (gal),Fuel Remaining (gal),Volts 1,Volts 2,Amps,Hobbs Time,Tach Time,Thermocouple 1 (deg C),Thermocouple 2 (deg C),Thermocouple 3 (deg C),Thermocouple 4 (deg C),CHT 4 (deg C),EGT 4 (deg C),CHT 3 (deg C),EGT 3 (deg C),CHT 2 (deg C),EGT 2 (deg C),CHT 1 (deg C),EGT 1 (deg C),Thermocouple 13 (deg C),Thermocouple 14 (deg C),ELEV POSITION (%),CO PPM PRESSURE (PSI),GP Input 3,FUEL PRESSURE (PSI),AILERN POSITION (%),CANOPY CONTACT (V),GP Input 7,GP Input 8,LEFT LEVEL (Sensor V),RIGHT LEVEL (Sensor V),OIL PRESSURE (PSI),OIL TEMPERATURE (deg C),GP Input 13,Contacts,Percent Power,EGT Leaning State,Unnamed: 103,RPM,Flight ID
4.06,1.0,10.0,2026-05-09 19:02:19,37.08171,-121.59966,421.0,0.0,234.1,-12.6,,,,,19:02:19,10.6,-0.5,358.3,0.0,251.0,0.0,-0.01,1.0,,-151.0,24.0,0.0,29.89,1393.0,,,147.0,,100.0,-1000.0,,0.0,0.0,,,,,,,,,,,,,,,,,,,,,0.0,0.0,,0.0,,0.0,,,,38.5,0.0,0.0,-0.7,14.7,12.1,,,,,19.0,20.0,19.0,20.0,19.0,20.0,19.0,20.0,,,-27.0,254.5,,0.0,3.0,4.998,,,0.653,0.858,0.0,17.6,,,,,,0.0,2026-05-09 12:02:19-07:00
5.06,1.0,9.0,2026-05-09 19:02:20,37.08172,-121.59965,428.0,0.2,234.1,-12.6,,,,,19:02:19,10.6,-0.5,358.3,0.0,250.0,0.0,-0.01,1.0,99.0,-126.0,24.0,0.0,29.89,1393.0,,,147.0,,,,,0.0,0.0,,,,,,,,,,,,,,,,,,,0.0,18.0,0.0,0.0,30.0,0.0,,0.0,0.0,,,38.5,0.0,0.0,-0.7,14.7,12.1,,,,,19.0,20.0,19.0,20.0,19.0,20.0,19.0,20.0,,,-27.0,254.5,,0.0,3.0,4.998,,,0.653,0.858,0.0,17.5,,,,,,0.0,2026-05-09 12:02:19-07:00
6.06,1.0,9.0,2026-05-09 19:02:21,37.08172,-121.59965,428.0,0.0,234.1,-12.6,,,,,19:02:20,10.6,-0.5,358.3,0.0,248.0,0.0,-0.01,1.0,99.0,-141.0,24.0,0.0,29.89,1393.0,,,147.0,,,,,0.0,0.0,,,,,,,,,,,,,,,,,,,0.0,18.0,0.0,0.0,30.0,0.0,,0.0,0.0,,,38.5,0.0,0.0,-0.7,14.7,12.1,,,,,19.0,20.0,19.0,20.0,19.0,20.0,19.0,20.0,,,-27.0,254.5,,0.0,3.0,4.998,,,0.653,0.858,0.0,17.5,,,,,,0.0,2026-05-09 12:02:19-07:00
7.06,1.0,9.0,2026-05-09 19:02:22,37.08172,-121.59965,428.0,0.0,234.1,-12.6,,,,,19:02:21,10.6,-0.6,358.2,0.0,244.0,0.0,-0.01,1.0,99.0,-138.0,24.0,0.0,29.89,1391.0,,,147.0,,,,,0.0,0.0,,,,,,,,,,,,,,,,,,,0.0,18.0,0.0,0.0,30.0,0.0,,0.0,0.0,,,38.5,0.0,0.0,-0.7,14.7,12.1,,,,,19.0,20.0,19.0,20.0,19.0,20.0,19.0,20.0,,,-27.0,254.5,,0.0,3.0,4.998,,,0.653,0.858,0.0,17.5,,,,,,0.0,2026-05-09 12:02:19-07:00
8.06,1.0,9.0,2026-05-09 19:02:23,37.08172,-121.59965,428.0,0.0,234.1,-12.6,,,,,19:02:22,10.6,-0.5,358.2,0.0,243.0,0.0,-0.01,1.0,99.0,-121.0,24.0,0.0,29.89,1389.0,,,147.0,,,,,0.0,0.0,,,,,,,,,,,,,,,,,,,0.0,18.0,0.0,0.0,30.0,0.0,,0.0,0.0,,,38.5,0.0,0.0,-0.7,14.7,12.1,,,,,19.0,20.0,19.0,20.0,19.0,20.0,19.0,21.0,,,-27.0,254.5,,0.0,3.0,4.998,,,0.653,0.858,0.0,17.5,,,,,,0.0,2026-05-09 12:02:19-07:00
9.06,1.0,9.0,2026-05-09 19:02:24,37.08172,-121.59965,429.0,0.0,234.1,-12.6,,,,,19:02:23,10.6,-0.5,358.2,0.0,240.0,0.0,-0.01,1.0,99.0,-141.0,24.0,0.0,29.89,1386.0,,,147.0,,,,,0.0,0.0,,,,,,,,,,,,,,,,,,,0.0,18.0,0.0,0.0,30.0,0.0,,0.0,0.0,,,38.5,0.0,0.0,-0.7,14.7,12.1,,,,,19.0,20.0,19.0,20.0,19.0,20.0,19.0,21.0,,,-27.0,254.5,,0.0,3.0,4.998,,,0.654,0.858,0.0,17.5,,,,,,0.0,2026-05-09 12:02:19-07:00
10.06,1.0,9.0,2026-05-09 19:02:25,37.08172,-121.59965,428.0,0.0,234.1,-12.6,,,,,19:02:24,10.5,-0.6,358.2,0.0,238.0,0.0,-0.01,1.0,99.0,-116.0,24.0,0.0,29.89,1383.0,,,147.0,,,,,0.0,0.0,,,,,,,,,,,,,,,,,,,0.0,18.0,0.0,0.0,30.0,0.0,,0.0,0.0,,,38.5,0.0,0.0,-0.7,14.7,12.1,,,,,19.0,20.0,19.0,20.0,19.0,20.0,19.0,21.0,,,-27.0,254.5,,0.0,3.0,4.998,,,0.653,0.857,0.0,17.5,,,,,,0.0,2026-05-09 12:02:19-07:00
11.06,1.0,9.0,2026-05-09 19:02:26,37.08171,-121.59964,428.0,0.1,234.1,-12.6,,,,,19:02:25,10.6,-0.6,358.2,0.0,237.0,0.0,-0.01,1.0,99.0,-96.0,24.0,0.0,29.89,1383.0,,,147.0,,,,,0.0,0.0,,,,,,,,,,,,,,,,,,,0.0,18.0,0.0,0.0,30.0,0.0,,0.0,0.0,,,38.5,0.0,0.0,-0.7,14.7,12.1,,,,,19.0,20.0,19.0,20.0,19.0,20.0,19.0,21.0,,,-28.0,254.4,,0.0,3.0,4.998,,,0.653,0.858,0.0,17.5,,,,,,0.0,2026-05-09 12:02:19-07:00
12.06,1.0,9.0,2026-05-09 19:02:27,37.08171,-121.59964,428.0,0.0,234.1,-12.6,,,,,19:02:26,10.5,-0.6,358.1,0.0,237.0,0.0,-0.01,1.0,99.0,-57.0,24.0,0.0,29.89,1383.0,,,147.0,,,,,0.0,0.0,,,,,,,,,,,,,,,,,,,0.0,18.0,0.0,0.0,30.0,0.0,,0.0,0.0,,,38.5,0.0,0.0,-0.7,14.7,12.1,,,,,19.0,20.0,19.0,20.0,19.0,20.0,19.0,21.0,,,-27.0,254.4,,0.0,3.0,4.998,,,0.654,0.858,0.0,17.5,,,,,,0.0,2026-05-09 12:02:19-07:00
13.06,1.0,9.0,2026-05-09 19:02:28,37.08171,-121.59964,427.0,0.0,234.1,-12.6,,,,,19:02:27,10.5,-0.5,358.2,0.0,237.0,0.0,-0.01,1.0,99.0,-35.0,24.0,0.0,29.89,1382.0,,,147.0,,,,,0.0,0.0,,,,,,,,,,,,,,,,,,,0.0,18.0,0.0,0.0,30.0,0.0,,0.0,0.0,,,38.5,0.0,0.0,-0.7,14.7,12.1,,,,,19.0,20.0,19.0,20.0,19.0,20.0,19.0,20.0,,,-28.0,254.4,,0.0,3.0,4.998,,,0.653,0.857,0.0,17.5,,,,,,0.0,2026-05-09 12:02:19-07:00
14.06,1.0,10.0,2026-05-09 19:02:29,37.0817,-121.59965,422.0,0.0,234.1,-12.6,,,,,19:02:28,10.6,-0.5,358.2,0.0,236.0,0.0,-0.01,1.0,99.0,-45.0,24.0,0.0,29.89,1382.0,,,147.0,,,,,0.0,0.0,,,,,,,,,,,,,,,,,,,0.0,18.0,0.0,0.0,30.0,0.0,,0.0,0.0,,,38.5,0.0,0.0,-0.7,14.7,12.1,,,,,19.0,20.0,19.0,20.0,19.0,20.0,19.0,21.0,,,-27.0,254.4,,0.0,3.0,4.998,,,0.653,0.857,0.0,17.5,,,,,,0.0,2026-05-09 12:02:19-07:00
15.06,1.0,9.0,2026-05-09 19:02:30,37.08171,-121.59964,427.0,0.0,234.1,-12.6,,,,,19:02:29,10.6,-0.5,358.2,0.0,235.0,0.1,-0.01,1.0,99.0,-48.0,24.0,0.0,29.89,1382.0,,,147.0,,,,,0.0,0.0,,,,,,,,,,,,,,,,,,,0.0,18.0,0.0,0.0,30.0,0.0,,0.0,0.0,,,38.5,0.0,0.0,-0.7,14.7,12.1,,,,,19.0,20.0,19.0,20.0,19.0,20.0,19.0,20.0,,,-28.0,254.4,,0.0,3.0,4.998,,,0.653,0.857,0.0,17.5,,,,,,0.0,2026-05-09 12:02:19-07:00
16.06,1.0,9.0,2026-05-09 19:02:31,37.08171,-121.59964,427.0,0.0,234.1,-12.6,,,,,19:02:30,10.6,-0.5,358.2,0.0,232.0,0.0,-0.01,1.0,99.0,-94.0,24.0,0.0,29.89,1377.0,,,147.0,,,,,0.0,0.0,,,,,,,,,,,,,,,,,,,0.0,18.0,0.0,0.0,30.0,0.0,,0.0,0.0,,,38.5,0.0,0.0,-0.7,14.7,12.1,,,,,19.0,20.0,19.0,20.0,19.0,20.0,19.0,21.0,,,-27.0,254.4,,0.0,3.0,4.998,,,0.653,0.857,0.0,17.5,,,,,,0.0,2026-05-09 12:02:19-07:00
17.06,1.0,9.0,2026-05-09 19:02:32,37.08171,-121.59963,427.0,0.0,234.1,-12.6,,,,,19:02:31,10.6,-0.6,358.2,0.0,230.0,0.0,-0.01,1.0,99.0,-106.0,24.0,0.0,29.89,1377.0,,,147.0,,,,,0.0,0.0,,,,,,,,,,,,,,,,,,,0.0,18.0,0.0,0.0,30.0,0.0,,0.0,0.0,,,38.5,0.0,0.0,-0.7,14.7,12.1,,,,,19.0,20.0,19.0,20.0,19.0,20.0,19.0,20.0,,,-27.0,254.4,,0.0,3.0,4.998,,,0.653,0.857,0.0,17.5,,,,,,0.0,2026-05-09 12:02:19-07:00
18.06,1.0,9.0,2026-05-09 19:02:33,37.0817,-121.59963,427.0,0.0,234.1,-12.6,,,,,19:02:32,10.6,-0.6,358.2,0.0,229.0,0.0,-0.01,1.0,99.0,-86.0,24.0,0.0,29.89,1377.0,,,147.0,,,,,0.0,0.0,,,,,,,,,,,,,,,,,,,0.0,18.0,0.0,0.0,30.0,0.0,,0.0,0.0,,,38.5,0.0,0.0,-0.7,14.7,12.1,,,,,19.0,20.0,19.0,20.0,19.0,20.0,19.0,20.0,,,-28.0,254.4,,0.0,3.0,4.998,,,0.653,0.857,0.0,17.5,,,,,,0.0,2026-05-09 12:02:19-07:00
19.06,1.0,9.0,2026-05-09 19:02:34,37.0817,-121.59963,426.0,0.0,234.1,-12.6,,,,,19:02:33,10.6,-0.5,358.2,0.0,229.0,0.0,-0.01,1.0,99.0,-48.0,24.0,0.0,29.89,1383.0,,,147.0,,,,,0.0,0.0,,,,,,,,,,,,,,,,,,,0.0,18.0,0.0,0.0,30.0,0.0,,0.0,0.0,,,38.5,0.0,0.0,-0.7,14.7,12.1,,,,,19.0,20.0,19.0,20.0,19.0,20.0,19.0,20.0,,,-28.0,254.4,,0.0,3.0,4.998,,,0.653,0.857,0.0,17.5,,,,,,0.0,2026-05-09 12:02:19-07:00
20.06,1.0,9.0,2026-05-09 19:02:35,37.0817,-121.59963,426.0,0.0,234.1,-12.6,,,,,19:02:34,10.6,-0.6,358.2,0.0,229.0,0.0,-0.01,1.0,99.0,-21.0,24.0,0.0,29.89,1383.0,,,147.0,,,,,0.0,0.0,,,,,,,,,,,,,,,,,,,0.0,18.0,0.0,0.0,30.0,0.0,,0.0,0.0,,,38.5,0.0,0.0,-0.7,14.7,12.1,,,,,19.0,20.0,19.0,20.0,19.0,20.0,19.0,20.0,,,-28.0,254.4,,0.0,3.0,4.998,,,0.653,0.857,0.0,17.5,,,,,,0.0,2026-05-09 12:02:19-07:00
21.06,1.0,9.0,2026-05-09 19:02:36,37.0817,-121.59963,425.0,0.0,234.1,-12.6,,,,,19:02:35,10.6,-0.6,358.2,0.0,229.0,0.0,-0.01,1.0,99.0,3.0,24.0,0.0,29.89,1383.0,,,147.0,,,,,0.0,0.0,,,,,,,,,,,,,,,,,,,0.0,18.0,0.0,0.0,30.0,0.0,,0.0,0.0,,,38.5,0.0,0.0,-0.7,14.7,12.1,,,,,19.0,20.0,19.0,20.0,19.0,20.0,19.0,20.0,,,-28.0,254.4,,0.0,3.0,4.998,,,0.653,0.857,0.0,17.5,,,,,,0.0,2026-05-09 12:02:19-07:00
22.06,1.0,9.0,2026-05-09 19:02:37,37.0817,-121.59963,424.0,0.0,234.1,-12.6,,,,,19:02:36,10.6,-0.6,358.2,0.0,229.0,0.0,-0.01,1.0,99.0,-5.0,24.0,0.0,29.89,1383.0,,,147.0,,,,,0.0,0.0,,,,,,,,,,,,,,,,,,,0.0,18.0,0.0,0.0,30.0,0.0,,0.0,0.0,,,38.5,0.0,0.0,-0.7,14.7,12.1,,,,,19.0,20.0,19.0,20.0,19.0,20.0,19.0,20.0,,,-28.0,254.4,,0.0,3.0,4.998,,,0.653,0.857,0.0,17.5,,,,,,0.0,2026-05-09 12:02:19-07:00
23.06,1.0,9.0,2026-05-09 19:02:38,37.0817,-121.59963,423.0,0.1,234.1,-12.6,,,,,19:02:37,10.6,-0.6,358.2,0.0,229.0,0.0,-0.01,1.0,99.0,-1.0,24.0,0.0,29.89,1383.0,,,147.0,,,,,0.0,0.0,,,,,,,,,,,,,,,,,,,0.0,18.0,0.0,0.0,30.0,0.0,,0.0,0.0,,,38.5,0.0,0.0,-0.7,14.7,12.1,,,,,19.0,20.0,19.0,20.0,19.0,20.0,19.0,20.0,,,-28.0,254.4,,0.0,3.0,4.998,,,0.653,0.857,0.0,17.5,,,,,,0.0,2026-05-09 12:02:19-07:00
24.06,1.0,9.0,2026-05-09 19:02:39,37.0817,-121.59963,421.0,0.0,234.1,-12.6,,,,,19:02:38,10.6,-0.6,358.2,0.0,229.0,0.1,-0.01,1.0,99.0,-21.0,24.0,0.0,29.89,1383.0,,,147.0,,,,,0.0,0.0,,,,,,,,,,,,,,,,,,,0.0,18.0,0.0,0.0,30.0,0.0,,0.0,0.0,,,38.5,0.0,0.0,-0.7,14.7,12.1,,,,,19.0,20.0,19.0,20.0,19.0,20.0,19.0,20.0,,,-28.0,254.4,,0.0,3.0,4.998,,,0.653,0.857,0.0,17.5,,,,,,0.0,2026-05-09 12:02:19-07:00
25.06,1.0,9.0,2026-05-09 19:02:40,37.08169,-121.59963,420.0,0.1,234.1,-12.6,,,,,19:02:39,10.6,-0.5,358.2,0.0,229.0,0.1,-0.01,1.0,99.0,33.0,24.0,0.0,29.89,1393.0,,,147.0,,,,,0.0,0.0,,,,,,,,,,,,,,,,,,,0.0,18.0,0.0,0.0,30.0,0.0,,0.0,0.0,,,38.5,0.0,0.0,-0.7,14.7,12.1,,,,,19.0,20.0,19.0,21.0,19.0,20.0,19.0,21.0,,,-28.0,254.4,,0.0,3.0,4.998,,,0.653,0.857,0.0,17.5,,,,,,0.0,2026-05-09 12:02:19-07:00
26.06,1.0,9.0,2026-05-09 19:02:41,37.08169,-121.59963,419.0,0.1,234.1,-12.6,,,,,19:02:40,10.6,-0.5,358.2,0.0,229.0,0.0,-0.01,1.0,99.0,4.0,24.0,0.0,29.89,1393.0,,,147.0,,,,,0.0,0.0,,,,,,,,,,,,,,,,,,,0.0,18.0,0.0,0.0,30.0,0.0,,0.0,0.0,,,38.5,0.0,0.0,-0.7,14.7,12.1,,,,,19.0,20.0,19.0,21.0,19.0,20.0,19.0,21.0,,,-28.0,254.4,,0.0,3.0,4.998,,,0.653,0.857,0.0,17.5,,,,,,0.0,2026-05-09 12:02:19-07:00
27.06,1.0,9.0,2026-05-09 19:02:42,37.08169,-121.59963,418.0,0.0,234.1,-12.6,,,,,19:02:41,10.6,-0.5,358.2,0.0,229.0,0.0,-0.01,1.0,99.0,13.0,24.0,0.0,29.89,1393.0,,,147.0,,,,,0.0,0.0,,,,,,,,,,,,,,,,,,,0.0,18.0,0.0,0.0,30.0,0.0,,0.0,0.0,,,38.5,0.0,0.0,-0.7,14.7,12.1,,,,,19.0,20.0,19.0,21.0,19.0,20.0,20.0,21.0,,,-28.0,254.4,,0.0,3.0,4.998,,,0.653,0.857,0.0,17.5,,,,,,0.0,2026-05-09 12:02:19-07:00
28.06,1.0,9.0,2026-05-09 19:02:43,37.08169,-121.59963,417.0,0.0,234.1,-12.6,,,,,19:02:42,10.6,-0.5,358.1,0.0,229.0,0.0,-0.01,1.0,99.0,-26.0,24.0,0.0,29.89,1394.0,,,147.0,,,,,0.0,0.0,,,,,,,,,,,,,,,,,,,0.0,18.0,0.0,0.0,30.0,0.0,,0.0,0.0,,,38.5,0.0,0.0,-0.7,14.7,12.1,,,,,19.0,20.0,19.0,21.0,19.0,20.0,19.0,21.0,,,-28.0,254.4,,0.0,3.0,4.998,,,0.653,0.857,0.0,17.5,,,,,,0.0,2026-05-09 12:02:19-07:00
29.06,1.0,9.0,2026-05-09 19:02:44,37.08168,-121.59963,417.0,0.0,234.1,-12.6,,,,,19:02:43,10.6,-0.6,358.1,0.0,229.0,0.0,-0.01,1.0,99.0,-30.0,24.0,0.0,29.89,1394.0,,,147.0,,,,,0.0,0.0,,,,,,,,,,,,,,,,,,,0.0,18.0,0.0,0.0,30.0,0.0,,0.0,0.0,,,38.5,0.0,0.0,-0.7,14.7,12.1,,,,,19.0,20.0,19.0,21.0,19.0,20.0,19.0,21.0,,,-28.0,254.4,,0.0,3.0,4.998,,,0.653,0.857,0.0,17.5,,,,,,0.0,2026-05-09 12:02:19-07:00
30.06,1.0,10.0,2026-05-09 19:02:45,37.08177,-121.5995,484.0,0.0,234.1,-12.6,,,,,19:02:44,10.6,-0.5,358.1,0.0,226.0,0.0,-0.01,1.0,99.0,-72.0,24.0,0.0,29.89,1394.0,,,147.0,,,,,0.0,0.0,,,,,,,,,,,,,,,,,,,0.0,18.0,0.0,0.0,30.0,0.0,,0.0,0.0,,,38.5,0.0,0.0,-0.7,14.7,12.1,,,,,19.0,20.0,19.0,21.0,19.0,20.0,20.0,21.0,,,-27.0,254.4,,0.0,3.0,4.998,,,0.653,0.857,0.0,17.5,,,,,,0.0,2026-05-09 12:02:19-07:00
31.06,1.0,10.0,2026-05-09 19:02:46,37.08177,-121.59951,482.0,0.1,234.1,-12.6,,,,,19:02:45,10.6,-0.5,358.1,0.0,225.0,0.0,-0.01,1.0,99.0,-78.0,24.0,0.0,29.89,1398.0,,,147.0,,,,,0.0,0.0,,,,,,,,,,,,,,,,,,,0.0,18.0,0.0,0.0,30.0,0.0,,0.0,0.0,,,38.5,0.0,0.0,-0.7,14.7,12.1,,,,,19.0,20.0,19.0,21.0,19.0,20.0,20.0,21.0,,,-27.0,254.4,,0.0,3.0,4.998,,,0.653,0.857,0.0,17.5,,,,,,0.0,2026-05-09 12:02:19-07:00
32.06,1.0,10.0,2026-05-09 19:02:47,37.08176,-121.59951,479.0,0.1,234.1,-12.6,,,,,19:02:46,10.6,-0.6,358.1,0.0,222.0,0.0,-0.01,1.0,99.0,-104.0,24.0,0.0,29.89,1398.0,,,147.0,,,,,0.0,0.0,,,,,,,,,,,,,,,,,,,0.0,18.0,0.0,0.0,30.0,0.0,,0.0,0.0,,,38.5,0.0,0.0,-0.7,14.7,12.1,,,,,19.0,20.0,19.0,21.0,19.0,20.0,20.0,21.0,,,-28.0,254.4,,0.0,3.0,4.998,,,0.653,0.857,0.0,17.5,,,,,,0.0,2026-05-09 12:02:19-07:00
33.06,1.0,10.0,2026-05-09 19:02:48,37.08176,-121.59951,478.0,0.0,234.1,-12.6,,,,,19:02:47,10.6,-0.6,358.1,0.0,221.0,0.0,-0.01,1.0,99.0,-60.0,24.0,0.0,29.89,1398.0,,,147.0,,,,,0.0,0.0,,,,,,,,,,,,,,,,,,,0.0,18.0,0.0,0.0,30.0,0.0,,0.0,0.0,,,38.5,0.0,0.0,-0.7,14.7,12.1,,,,,19.0,20.0,19.0,21.0,19.0,20.0,20.0,21.0,,,-28.0,254.4,,0.0,3.0,4.998,,,0.653,0.857,0.0,17.5,,,,,,0.0,2026-05-09 12:02:19-07:00
34.06,1.0,10.0,2026-05-09 19:02:49,37.08176,-121.59952,475.0,0.0,234.1,-12.6,,,,,19:02:48,10.6,-0.6,358.1,0.0,219.0,0.0,-0.01,1.0,99.0,-108.0,24.0,0.0,29.89,1391.0,,,147.0,,,,,0.0,0.0,,,,,,,,,,,,,,,,,,,0.0,18.0,0.0,0.0,30.0,0.0,,0.0,0.0,,,38.5,0.0,0.0,-0.7,14.7,12.1,,,,,19.0,20.0,19.0,20.0,19.0,20.0,20.0,21.0,,,-28.0,254.4,,0.0,3.0,4.998,,,0.653,0.857,0.0,17.5,,,,,,0.0,2026-05-09 12:02:19-07:00
35.06,1.0,10.0,2026-05-09 19:02:50,37.08176,-121.59952,473.0,0.0,234.1,-12.6,,,,,19:02:49,10.6,-0.6,358.1,0.0,217.0,0.0,-0.01,1.0,99.0,-115.0,25.0,0.0,29.89,1391.0,,,147.0,,,,,0.0,0.0,,,,,,,,,,,,,,,,,,,0.0,18.0,0.0,0.0,30.0,0.0,,0.0,0.0,,,38.5,0.0,0.0,-0.7,14.7,12.1,,,,,19.0,20.0,19.0,21.0,19.0,20.0,20.0,21.0,,,-28.0,254.4,,0.0,3.0,4.998,,,0.654,0.857,0.0,17.5,,,,,,0.0,2026-05-09 12:02:19-07:00
36.06,1.0,10.0,2026-05-09 19:02:51,37.08175,-121.59953,471.0,0.0,234.1,-12.6,,,,,19:02:50,10.6,-0.6,358.1,0.0,215.0,0.1,-0.01,1.0,99.0,-109.0,25.0,0.0,29.89,1391.0,,,147.0,,,,,0.0,0.0,,,,,,,,,,,,,,,,,,,0.0,18.0,0.0,0.0,30.0,0.0,,0.0,0.0,,,38.5,0.0,0.0,-0.7,14.7,12.1,,,,,19.0,20.0,19.0,21.0,19.0,20.0,20.0,21.0,,,-28.0,254.4,,0.0,3.0,4.998,,,0.653,0.857,0.0,17.5,,,,,,0.0,2026-05-09 12:02:19-07:00
37.06,1.0,10.0,2026-05-09 19:02:52,37.08175,-121.59953,467.0,0.0,234.1,-12.6,,,,,19:02:51,10.6,-0.6,358.1,0.0,213.0,0.0,-0.01,1.0,99.0,-111.0,25.0,0.0,29.89,1394.0,,,147.0,,,,,0.0,0.0,,,,,,,,,,,,,,,,,,,0.0,18.0,0.0,0.0,30.0,0.0,,0.0,0.0,,,38.5,0.0,0.0,-0.7,14.7,12.1,,,,,19.0,20.0,19.0,20.0,19.0,20.0,20.0,21.0,,,-28.0,254.4,,0.0,3.0,4.998,,,0.653,0.857,0.0,17.5,,,,,,0.0,2026-05-09 12:02:19-07:00
38.06,1.0,10.0,2026-05-09 19:02:53,37.08175,-121.59953,464.0,0.0,234.1,-12.6,,,,,19:02:52,10.7,-0.6,358.1,0.0,211.0,0.0,-0.01,1.0,99.0,-127.0,25.0,0.0,29.89,1394.0,,,147.0,,,,,0.0,0.0,,,,,,,,,,,,,,,,,,,0.0,18.0,0.0,0.0,30.0,0.0,,0.0,0.0,,,38.5,0.0,0.0,-0.7,14.7,12.1,,,,,19.0,20.0,19.0,20.0,19.0,20.0,20.0,21.0,,,-28.0,254.4,,0.0,3.0,4.998,,,0.653,0.857,0.0,17.5,,,,,,0.0,2026-05-09 12:02:19-07:00
39.06,1.0,10.0,2026-05-09 19:02:54,37.08174,-121.59954,461.0,0.0,234.1,-12.6,,,,,19:02:53,10.6,-0.6,358.1,0.0,209.0,0.0,-0.01,1.0,99.0,-115.0,25.0,0.0,29.89,1394.0,,,147.0,,,,,0.0,0.0,,,,,,,,,,,,,,,,,,,0.0,18.0,0.0,0.0,30.0,0.0,,0.0,0.0,,,38.5,0.0,0.0,-0.7,14.7,12.1,,,,,19.0,20.0,19.0,20.0,19.0,20.0,20.0,21.0,,,-28.0,254.4,,0.0,3.0,4.998,,,0.653,0.856,0.0,17.5,,,,,,0.0,2026-05-09 12:02:19-07:00
40.06,1.0,10.0,2026-05-09 19:02:55,37.08174,-121.59955,458.0,0.0,234.1,-12.6,,,,,19:02:54,10.7,-0.6,358.0,0.0,208.0,0.0,-0.01,1.0,99.0,-99.0,25.0,0.0,29.89,1387.0,,,147.0,,,,,0.0,0.0,,,,,,,,,,,,,,,,,,,0.0,18.0,0.0,0.0,30.0,0.0,,0.0,0.0,,,38.5,0.0,0.0,-0.7,14.7,12.1,,,,,19.0,21.0,19.0,21.0,19.0,21.0,20.0,21.0,,,-28.0,254.4,,0.0,3.0,4.998,,,0.653,0.856,0.0,17.5,,,,,,0.0,2026-05-09 12:02:19-07:00
41.06,1.0,10.0,2026-05-09 19:02:56,37.08174,-121.59955,456.0,0.0,234.1,-12.6,,,,,19:02:55,10.7,-0.7,358.0,0.0,207.0,0.0,-0.01,1.0,99.0,-88.0,25.0,0.0,29.89,1387.0,,,147.0,,,,,0.0,0.0,,,,,,,,,,,,,,,,,,,0.0,18.0,0.0,0.0,30.0,0.0,,0.0,0.0,,,38.5,0.0,0.0,-0.7,14.7,12.1,,,,,19.0,21.0,19.0,21.0,19.0,21.0,20.0,21.0,,,-29.0,254.4,,0.0,3.0,4.998,,,0.653,0.856,0.0,17.5,,,,,,0.0,2026-05-09 12:02:19-07:00
42.06,1.0,10.0,2026-05-09 19:02:57,37.08173,-121.59956,453.0,0.0,234.1,-12.6,,,,,19:02:56,10.6,-0.6,358.0,0.0,206.0,0.1,-0.01,1.0,99.0,-52.0,25.0,0.0,29.89,1387.0,,,147.0,,,,,0.0,0.0,,,,,,,,,,,,,,,,,,,0.0,18.0,0.0,0.0,30.0,0.0,,0.0,0.0,,,38.5,0.0,0.0,-0.7,14.7,12.1,,,,,19.0,20.0,19.0,21.0,19.0,21.0,20.0,21.0,,,-29.0,233.3,,0.0,3.0,4.998,,,0.653,0.856,0.0,17.5,,,,,,0.0,2026-05-09 12:02:19-07:00
43.06,1.0,10.0,2026-05-09 19:02:58,37.08173,-121.59956,451.0,0.0,234.1,-12.6,,,,,19:02:57,10.7,-0.7,358.0,0.0,206.0,0.0,-0.01,1.0,99.0,-26.0,25.0,0.0,29.89,1395.0,,,147.0,,,,,0.0,0.0,,,,,,,,,,,,,,,,,,,0.0,18.0,0.0,0.0,30.0,0.0,,0.0,0.0,,,38.5,0.0,0.0,-0.7,14.7,12.1,,,,,19.0,20.0,19.0,21.0,19.0,21.0,20.0,21.0,,,-29.0,181.6,,0.0,3.0,4.998,,,0.654,0.856,0.0,17.5,,,,,,0.0,2026-05-09 12:02:19-07:00
44.06,1.0,10.0,2026-05-09 19:02:59,37.08173,-121.59956,449.0,0.0,234.1,-12.6,,,,,19:02:58,10.7,-0.7,358.0,0.0,206.0,0.0,-0.01,1.0,99.0,-9.0,25.0,0.0,29.89,1395.0,,,147.0,,,,,0.0,0.0,,,,,,,,,,,,,,,,,,,0.0,18.0,0.0,0.0,30.0,0.0,,0.0,0.0,,,38.5,0.0,0.0,-0.7,14.7,12.1,,,,,19.0,20.0,19.0,21.0,19.0,21.0,20.0,21.0,,,-29.0,141.4,,0.0,3.0,4.998,,,0.654,0.856,0.0,17.5,,,,,,0.0,2026-05-09 12:02:19-07:00
45.06,1.0,10.0,2026-05-09 19:03:00,37.08173,-121.59956,447.0,0.0,234.1,-12.6,,,,,19:02:59,10.6,-0.7,358.0,0.0,206.0,0.0,-0.01,1.0,99.0,4.0,25.0,0.0,29.89,1395.0,,,147.0,,,,,0.0,0.0,,,,,,,,,,,,,,,,,,,0.0,18.0,0.0,0.0,30.0,0.0,,0.0,0.0,,,38.5,0.0,0.0,-0.7,14.7,12.1,,,,,19.0,20.0,19.0,21.0,19.0,21.0,20.0,21.0,,,-29.0,110.1,,0.0,3.0,4.998,,,0.653,0.856,0.0,17.5,,,,,,0.0,2026-05-09 12:02:19-07:00
46.06,1.0,10.0,2026-05-09 19:03:01,37.08173,-121.59957,445.0,0.0,234.1,-12.6,,,,,19:03:00,10.7,-0.7,358.0,0.0,206.0,0.0,-0.01,1.0,99.0,-5.0,25.0,0.0,29.89,1396.0,,,147.0,,,,,0.0,0.0,,,,,,,,,,,,,,,,,,,0.0,18.0,0.0,0.0,30.0,0.0,,0.0,0.0,,,38.5,0.0,0.0,-0.7,14.7,12.1,,,,,19.0,20.0,19.0,21.0,19.0,21.0,20.0,21.0,,,-29.0,85.8,,0.0,3.0,4.998,,,0.653,0.857,0.0,17.5,,,,,,0.0,2026-05-09 12:02:19-07:00
47.06,1.0,10.0,2026-05-09 19:03:02,37.08172,-121.59957,443.0,0.0,234.1,-12.6,,,,,19:03:01,10.7,-0.6,358.0,0.0,206.0,0.0,-0.01,1.0,99.0,-18.0,25.0,0.0,29.89,1396.0,,,147.0,,,,,0.0,0.0,,,,,,,,,,,,,,,,,,,0.0,18.0,0.0,0.0,30.0,0.0,,0.0,0.0,,,38.5,0.0,0.0,-0.7,14.7,12.1,,,,,19.0,20.0,19.0,21.0,19.0,21.0,20.0,21.0,,,-29.0,66.9,,0.0,3.0,4.998,,,0.653,0.856,0.0,17.5,,,,,,0.0,2026-05-09 12:02:19-07:00
48.06,1.0,10.0,2026-05-09 19:03:03,37.08168,-121.59963,410.0,0.0,234.1,-12.6,,,,,19:03:02,10.6,-0.6,358.1,0.0,205.0,0.0,-0.01,1.0,99.0,-42.0,25.0,0.0,29.89,1396.0,,,147.0,,,,,0.0,0.0,,,,,,,,,,,,,,,,,,,0.0,18.0,0.0,0.0,30.0,0.0,,0.0,0.0,,,38.5,0.0,0.0,-0.7,14.7,12.1,,,,,19.0,20.0,19.0,21.0,19.0,21.0,20.0,21.0,,,-29.0,52.2,,0.0,3.0,4.998,,,0.653,0.856,0.0,17.5,,,,,,0.0,2026-05-09 12:02:19-07:00
49.06,1.0,10.0,2026-05-09 19:03:04,37.08168,-121.59964,408.0,0.0,234.1,-12.6,,,,,19:03:03,10.6,-0.5,358.1,0.0,204.0,0.0,-0.01,1.0,99.0,-21.0,25.0,0.0,29.89,1403.0,,,147.0,,,,,0.0,0.0,,,,,,,,,,,,,,,,,,,0.0,18.0,0.0,0.0,30.0,0.0,,0.0,0.0,,,38.5,0.0,0.0,-0.7,14.7,12.1,,,,,19.0,20.0,19.0,21.0,19.0,21.0,20.0,21.0,,,-29.0,40.8,,0.0,3.0,4.998,,,0.653,0.856,0.0,17.5,,,,,,0.0,2026-05-09 12:02:19-07:00
50.06,1.0,10.0,2026-05-09 19:03:05,37.08168,-121.59964,407.0,0.0,234.1,-12.6,,,,,19:03:04,10.7,-0.6,358.1,0.0,204.0,0.0,-0.01,1.0,99.0,-12.0,25.0,0.0,29.89,1403.0,,,147.0,,,,,0.0,0.0,,,,,,,,,,,,,,,,,,,0.0,18.0,0.0,0.0,30.0,0.0,,0.0,0.0,,,38.5,0.0,0.0,-0.7,14.7,12.1,,,,,19.0,20.0,19.0,21.0,19.0,21.0,20.0,21.0,,,-29.0,31.9,,0.0,3.0,4.998,,,0.653,0.856,0.0,17.5,,,,,,0.0,2026-05-09 12:02:19-07:00
51.06,1.0,10.0,2026-05-09 19:03:06,37.08168,-121.59964,406.0,0.0,234.1,-12.6,,,,,19:03:05,10.7,-0.6,358.1,0.0,204.0,0.0,-0.01,1.0,99.0,12.0,25.0,0.0,29.89,1403.0,,,147.0,,,,,0.0,0.0,,,,,,,,,,,,,,,,,,,0.0,18.0,0.0,0.0,30.0,0.0,,0.0,0.0,,,38.5,0.0,0.0,-0.7,14.7,12.1,,,,,19.0,20.0,19.0,21.0,19.0,21.0,20.0,21.0,,,-29.0,25.0,,0.0,3.0,4.998,,,0.653,0.856,0.0,17.5,,,,,,0.0,2026-05-09 12:02:19-07:00
52.06,1.0,10.0,2026-05-09 19:03:07,37.08168,-121.59964,406.0,0.0,234.1,-12.6,,,,,19:03:06,10.7,-0.6,358.1,0.0,204.0,0.0,-0.01,1.0,99.0,22.0,25.0,0.0,29.89,1404.0,,,147.0,,,,,0.0,0.0,,,,,,,,,,,,,,,,,,,0.0,18.0,0.0,0.0,30.0,0.0,,0.0,0.0,,,38.5,0.0,0.0,-0.7,14.7,12.1,,,,,19.0,20.0,19.0,21.0,19.0,21.0,20.0,21.0,,,-28.0,19.7,,0.0,3.0,4.998,,,0.653,0.856,0.0,17.5,,,,,,0.0,2026-05-09 12:02:19-07:00
53.06,1.0,10.0,2026-05-09 19:03:08,37.08168,-121.59965,405.0,0.0,234.1,-12.6,,,,,19:03:07,10.7,-0.7,358.1,0.0,204.0,0.0,-0.01,1.0,99.0,35.0,25.0,0.0,29.89,1404.0,,,147.0,,,,,0.0,0.0,,,,,,,,,,,,,,,,,,,0.0,18.0,0.0,0.0,30.0,0.0,,0.0,0.0,,,38.5,0.0,0.0,-0.7,14.7,12.1,,,,,19.0,20.0,19.0,21.0,19.0,21.0,20.0,21.0,,,-28.0,15.5,,0.0,3.0,4.998,,,0.653,0.856,0.0,17.5,,,,,,0.0,2026-05-09 12:02:19-07:00
54.06,1.0,10.0,2026-05-09 19:03:09,37.08168,-121.59965,404.0,0.0,234.1,-12.6,,,,,19:03:08,10.7,-0.6,358.1,0.0,204.0,0.0,-0.01,1.0,99.0,41.0,25.0,0.0,29.89,1405.0,,,147.0,,,,,0.0,0.0,,,,,,,,,,,,,,,,,,,0.0,18.0,0.0,0.0,30.0,0.0,,0.0,0.0,,,38.5,0.0,0.0,-0.7,14.7,12.1,,,,,19.0,20.0,19.0,21.0,19.0,21.0,20.0,21.0,,,-28.0,12.3,,0.0,3.0,4.998,,,0.653,0.856,0.0,17.5,,,,,,0.0,2026-05-09 12:02:19-07:00
55.06,1.0,10.0,2026-05-09 19:03:10,37.08168,-121.59965,403.0,0.0,234.1,-12.6,,,,,19:03:09,10.6,-0.6,358.1,0.0,204.0,0.0,-0.01,1.0,99.0,28.0,25.0,0.0,29.89,1405.0,,,147.0,,,,,0.0,0.0,,,,,,,,,,,,,,,,,,,0.0,18.0,0.0,0.0,30.0,0.0,,0.0,0.0,,,38.5,0.0,0.0,-0.7,14.7,12.1,,,,,19.0,21.0,19.0,21.0,20.0,21.0,20.0,21.0,,,-28.0,9.7,,0.0,3.0,4.998,,,0.653,0.856,0.0,17.5,,,,,,0.0,2026-05-09 12:02:19-07:00
56.06,1.0,10.0,2026-05-09 19:03:11,37.08168,-121.59965,403.0,0.0,234.1,-12.6,,,,,19:03:10,10.6,-0.6,358.1,0.0,204.0,0.0,-0.01,1.0,99.0,15.0,25.0,0.0,29.89,1405.0,,,147.0,,,,,0.0,0.0,,,,,,,,,,,,,,,,,,,0.0,18.0,0.0,0.0,30.0,0.0,,0.0,0.0,,,38.5,0.0,0.0,-0.7,14.7,12.1,,,,,19.0,21.0,19.0,21.0,20.0,21.0,20.0,21.0,,,-28.0,7.8,,0.0,3.0,4.998,,,0.653,0.856,0.0,17.6,,,,,,0.0,2026-05-09 12:02:19-07:00
57.06,1.0,10.0,2026-05-09 19:03:12,37.08168,-121.59965,402.0,0.0,234.1,-12.6,,,,,19:03:11,10.6,-0.6,358.1,0.0,204.0,0.0,-0.01,1.0,99.0,38.0,25.0,0.0,29.89,1414.0,,,147.0,,,,,0.0,0.0,,,,,,,,,,,,,,,,,,,0.0,18.0,0.0,0.0,30.0,0.0,,0.0,0.0,,,38.5,0.0,0.0,-0.7,14.7,12.1,,,,,19.0,21.0,19.0,21.0,20.0,21.0,20.0,21.0,,,-28.0,6.3,,0.0,3.0,4.998,,,0.653,0.856,0.0,17.6,,,,,,0.0,2026-05-09 12:02:19-07:00
58.06,1.0,10.0,2026-05-09 19:03:13,37.08168,-121.59966,401.0,0.0,234.1,-12.6,,,,,19:03:12,10.6,-0.6,358.1,0.0,204.0,0.0,-0.01,1.0,99.0,18.0,25.0,0.0,29.89,1415.0,,,147.0,,,,,0.0,0.0,,,,,,,,,,,,,,,,,,,0.0,18.0,0.0,0.0,30.0,0.0,,0.0,0.0,,,38.5,0.0,0.0,-0.7,14.7,12.1,,,,,19.0,21.0,19.0,21.0,20.0,21.0,20.0,21.0,,,-27.0,5.1,,0.0,3.0,4.998,,,0.653,0.856,0.0,17.5,,,,,,0.0,2026-05-09 12:02:19-07:00
59.06,1.0,10.0,2026-05-09 19:03:14,37.08168,-121.59966,401.0,0.0,234.1,-12.6,,,,,19:03:13,10.6,-0.6,358.1,0.0,204.0,0.0,-0.01,1.0,99.0,-15.0,25.0,0.0,29.89,1415.0,,,147.0,,,,,0.0,0.0,,,,,,,,,,,,,,,,,,,0.0,18.0,0.0,0.0,30.0,0.0,,0.0,0.0,,,38.5,0.0,0.0,-0.7,14.7,12.1,,,,,19.0,21.0,19.0,21.0,19.0,21.0,20.0,21.0,,,-27.0,4.2,,0.0,3.0,4.998,,,0.653,0.856,0.0,17.6,,,,,,0.0,2026-05-09 12:02:19-07:00
60.06,1.0,10.0,2026-05-09 19:03:15,37.08168,-121.59966,400.0,0.0,234.1,-12.6,,,,,19:03:14,10.7,-0.6,358.1,0.0,204.0,0.0,-0.01,1.0,99.0,-20.0,25.0,0.0,29.89,1415.0,,,147.0,,,,,0.0,0.0,,,,,,,,,,,,,,,,,,,0.0,18.0,0.0,0.0,30.0,0.0,,0.0,0.0,,,38.5,0.0,0.0,-0.7,14.7,12.1,,,,,19.0,21.0,19.0,21.0,19.0,21.0,20.0,21.0,,,-27.0,3.5,,0.0,3.0,4.998,,,0.653,0.856,0.0,17.6,,,,,,0.0,2026-05-09 12:02:19-07:00
61.06,1.0,10.0,2026-05-09 19:03:16,37.08168,-121.59966,400.0,0.0,234.1,-12.6,,,,,19:03:15,10.7,-0.6,358.1,0.0,204.0,0.0,-0.01,1.0,99.0,-12.0,25.0,0.0,29.89,1425.0,,,147.0,,,,,0.0,0.0,,,,,,,,,,,,,,,,,,,0.0,18.0,0.0,0.0,30.0,0.0,,0.0,0.0,,,38.5,0.0,0.0,-0.7,14.7,12.1,,,,,19.0,21.0,19.0,21.0,19.0,21.0,20.0,21.0,,,-26.0,2.9,,0.0,3.0,4.998,,,0.653,0.856,0.0,17.6,,,,,,0.0,2026-05-09 12:02:19-07:00
62.06,1.0,10.0,2026-05-09 19:03:17,37.08168,-121.59966,400.0,0.0,234.1,-12.6,,,,,19:03:16,10.7,-0.6,358.1,0.0,204.0,0.0,-0.01,1.0,99.0,-22.0,25.0,0.0,29.89,1425.0,,,147.0,,,,,0.0,0.0,,,,,,,,,,,,,,,,,,,0.0,18.0,0.0,0.0,30.0,0.0,,0.0,0.0,,,38.5,0.0,0.0,-0.7,14.7,12.1,,,,,19.0,21.0,19.0,21.0,19.0,21.0,20.0,21.0,,,-26.0,2.5,,0.0,3.0,4.998,,,0.653,0.856,0.0,17.6,,,,,,0.0,2026-05-09 12:02:19-07:00
63.06,1.0,10.0,2026-05-09 19:03:18,37.08168,-121.59966,399.0,0.0,234.1,-12.6,,,,,19:03:17,10.7,-0.6,358.1,0.0,202.0,0.0,-0.01,1.0,99.0,-84.0,25.0,0.0,29.89,1425.0,,,147.0,,,,,0.0,0.0,,,,,,,,,,,,,,,,,,,0.0,18.0,0.0,0.0,30.0,0.0,,0.0,0.0,,,38.5,0.0,0.0,-0.7,14.7,12.1,,,,,19.0,21.0,19.0,21.0,19.0,21.0,20.0,21.0,,,-25.0,2.2,,0.0,3.0,4.998,,,0.653,0.856,0.0,17.6,,,,,,0.0,2026-05-09 12:02:19-07:00
64.06,1.0,10.0,2026-05-09 19:03:19,37.08168,-121.59967,393.0,0.0,234.1,-12.6,,,,,19:03:18,10.7,-0.6,358.2,0.0,201.0,0.0,-0.01,1.0,99.0,-48.0,25.0,0.0,29.89,1422.0,,,147.0,,,,,0.0,0.0,,,,,,,,,,,,,,,,,,,0.0,18.0,0.0,0.0,30.0,0.0,,0.0,0.0,,,38.5,0.0,0.0,-0.7,14.7,12.1,,,,,19.0,21.0,19.0,21.0,19.0,21.0,20.0,21.0,,,-26.0,1.9,,0.0,3.0,4.998,,,0.653,0.854,0.0,17.6,,,,,,0.0,2026-05-09 12:02:19-07:00
65.06,1.0,10.0,2026-05-09 19:03:20,37.08169,-121.59967,393.0,0.0,234.1,-12.6,,,,,19:03:19,10.7,-0.6,358.1,0.0,199.0,0.0,-0.01,1.0,99.0,-85.0,25.0,0.0,29.89,1422.0,,,147.0,,,,,0.0,0.0,,,,,,,,,,,,,,,,,,,0.0,18.0,0.0,0.0,30.0,0.0,,0.0,0.0,,,38.5,0.0,0.0,-0.7,14.7,12.1,,,,,19.0,21.0,19.0,21.0,19.0,21.0,20.0,21.0,,,-26.0,1.7,,0.0,3.0,4.998,,,0.653,0.856,0.0,17.6,,,,,,0.0,2026-05-09 12:02:19-07:00
66.06,1.0,10.0,2026-05-09 19:03:21,37.08169,-121.59968,393.0,0.0,234.1,-12.6,,,,,19:03:20,10.7,-0.6,358.1,0.0,196.0,0.0,-0.01,1.0,99.0,-129.0,25.0,0.0,29.89,1422.0,,,147.0,,,,,0.0,0.0,,,,,,,,,,,,,,,,,,,0.0,18.0,0.0,0.0,30.0,0.0,,0.0,0.0,,,38.5,0.0,0.0,-0.7,14.7,12.1,,,,,19.0,21.0,19.0,21.0,19.0,21.0,20.0,21.0,,,-26.0,1.5,,0.0,3.0,4.998,,,0.653,0.856,0.0,17.6,,,,,,0.0,2026-05-09 12:02:19-07:00
67.06,1.0,10.0,2026-05-09 19:03:22,37.08169,-121.59968,393.0,0.0,234.1,-12.6,,,,,19:03:21,10.7,-0.5,358.2,0.0,194.0,0.0,-0.01,1.0,99.0,-92.0,25.0,0.0,29.89,1422.0,,,147.0,,,,,0.0,0.0,,,,,,,,,,,,,,,,,,,0.0,18.0,0.0,0.0,30.0,0.0,,0.0,0.0,,,38.5,0.0,0.0,-0.7,14.7,12.1,,,,,19.0,21.0,19.0,21.0,20.0,21.0,20.0,21.0,,,-27.0,1.4,,0.0,3.0,4.998,,,0.653,0.854,0.0,17.6,,,,,,0.0,2026-05-09 12:02:19-07:00
68.06,1.0,10.0,2026-05-09 19:03:23,37.08169,-121.59968,393.0,0.0,234.1,-12.6,,,,,19:03:22,10.7,-0.5,358.2,0.0,194.0,0.0,-0.01,1.0,99.0,-82.0,25.0,0.0,29.89,1422.0,,,147.0,,,,,0.0,0.0,,,,,,,,,,,,,,,,,,,0.0,18.0,0.0,0.0,30.0,0.0,,0.0,0.0,,,38.5,0.0,0.0,-0.7,14.7,12.1,,,,,19.0,21.0,19.0,21.0,20.0,21.0,20.0,21.0,,,-28.0,1.3,,0.0,3.0,4.998,,,0.653,0.854,0.0,17.6,,,,,,0.0,2026-05-09 12:02:19-07:00
69.06,1.0,10.0,2026-05-09 19:03:24,37.08169,-121.59968,393.0,0.0,234.1,-12.6,,,,,19:03:23,10.7,-0.5,358.3,0.0,193.0,0.1,-0.01,1.0,99.0,-58.0,25.0,0.0,29.89,1422.0,,,147.0,,,,,0.0,0.0,,,,,,,,,,,,,,,,,,,0.0,18.0,0.0,0.0,30.0,0.0,,0.0,0.0,,,38.5,0.0,0.0,-0.7,14.7,12.1,,,,,19.0,21.0,19.0,21.0,20.0,21.0,20.0,21.0,,,-28.0,1.2,,0.0,3.0,4.998,,,0.653,0.854,0.0,17.6,,,,,,0.0,2026-05-09 12:02:19-07:00
70.06,1.0,10.0,2026-05-09 19:03:25,37.08169,-121.59968,393.0,0.0,234.1,-12.6,,,,,19:03:24,10.7,-0.5,358.3,0.0,193.0,0.0,-0.01,1.0,99.0,-15.0,25.0,0.0,29.89,1421.0,,,147.0,,,,,0.0,0.0,,,,,,,,,,,,,,,,,,,0.0,18.0,0.0,0.0,30.0,0.0,,0.0,0.0,,,38.5,0.0,0.0,-0.7,14.7,12.1,,,,,19.0,21.0,19.0,21.0,20.0,21.0,20.0,21.0,,,-28.0,1.2,,0.0,3.0,4.998,,,0.653,0.854,0.0,17.6,,,,,,0.0,2026-05-09 12:02:19-07:00
71.06,1.0,10.0,2026-05-09 19:03:26,37.08169,-121.59968,393.0,0.0,234.1,-12.6,,,,,19:03:25,10.7,-0.6,358.2,0.0,193.0,0.0,-0.01,1.0,99.0,17.0,25.0,0.0,29.89,1422.0,,,147.0,,,,,0.0,0.0,,,,,,,,,,,,,,,,,,,0.0,18.0,0.0,0.0,30.0,0.0,,0.0,0.0,,,38.5,0.0,0.0,-0.7,14.7,12.1,,,,,19.0,21.0,19.0,21.0,20.0,21.0,20.0,21.0,,,-28.0,1.1,,0.0,3.0,4.998,,,0.653,0.854,0.0,17.6,,,,,,0.0,2026-05-09 12:02:19-07:00
72.06,1.0,10.0,2026-05-09 19:03:27,37.08169,-121.59968,394.0,0.0,234.1,-12.6,,,,,19:03:26,10.7,-0.6,358.2,0.0,193.0,0.0,-0.01,1.0,99.0,17.0,25.0,0.0,29.89,1422.0,,,147.0,,,,,0.0,0.0,,,,,,,,,,,,,,,,,,,0.0,18.0,0.0,0.0,30.0,0.0,,0.0,0.0,,,38.5,0.0,0.0,-0.7,14.7,12.1,,,,,19.0,21.0,19.0,21.0,20.0,21.0,20.0,21.0,,,-28.0,1.1,,0.0,3.0,4.998,,,0.653,0.854,0.0,17.6,,,,,,0.0,2026-05-09 12:02:19-07:00
73.06,1.0,10.0,2026-05-09 19:03:28,37.08169,-121.59968,394.0,0.0,234.1,-12.6,,,,,19:03:27,10.7,-0.6,358.2,0.0,193.0,0.0,-0.01,1.0,99.0,33.0,25.0,0.0,29.89,1422.0,,,147.0,,,,,0.0,0.0,,,,,,,,,,,,,,,,,,,0.0,18.0,0.0,0.0,30.0,0.0,,0.0,0.0,,,38.5,0.0,0.0,-0.7,14.7,12.1,,,,,19.0,21.0,19.0,21.0,20.0,21.0,20.0,21.0,,,-28.0,1.1,,0.0,3.0,4.998,,,0.653,0.854,0.0,17.6,,,,,,0.0,2026-05-09 12:02:19-07:00
74.06,1.0,10.0,2026-05-09 19:03:29,37.08169,-121.59968,394.0,0.0,234.1,-12.6,,,,,19:03:28,10.7,-0.6,358.2,0.0,193.0,0.0,-0.01,1.0,99.0,38.0,25.0,0.0,29.89,1431.0,,,147.0,,,,,0.0,0.0,,,,,,,,,,,,,,,,,,,0.0,18.0,0.0,0.0,30.0,0.0,,0.0,0.0,,,38.5,0.0,0.0,-0.7,14.7,12.1,,,,,19.0,21.0,19.0,21.0,20.0,21.0,20.0,21.0,,,-28.0,1.0,,0.0,3.0,4.998,,,0.653,0.854,0.0,17.6,,,,,,0.0,2026-05-09 12:02:19-07:00
75.06,1.0,10.0,2026-05-09 19:03:30,37.08169,-121.59968,394.0,0.0,234.1,-12.6,,,,,19:03:29,10.6,-0.6,358.2,0.0,193.0,0.0,-0.01,1.0,99.0,1.0,25.0,0.0,29.89,1431.0,,,147.0,,,,,0.0,0.0,,,,,,,,,,,,,,,,,,,0.0,18.0,0.0,0.0,30.0,0.0,,0.0,0.0,,,38.5,0.0,0.0,-0.7,14.7,12.1,,,,,19.0,21.0,19.0,21.0,20.0,21.0,20.0,21.0,,,-29.0,1.0,,0.0,3.0,4.998,,,0.653,0.854,0.0,17.6,,,,,,0.0,2026-05-09 12:02:19-07:00
76.06,1.0,10.0,2026-05-09 19:03:31,37.08169,-121.59968,394.0,0.0,234.1,-12.6,,,,,19:03:30,10.6,-0.6,358.2,0.0,193.0,0.0,-0.01,1.0,99.0,-24.0,25.0,0.0,29.89,1431.0,,,147.0,,,,,0.0,0.0,,,,,,,,,,,,,,,,,,,0.0,18.0,0.0,0.0,30.0,0.0,,0.0,0.0,,,38.5,0.0,0.0,-0.7,14.7,12.1,,,,,19.0,21.0,19.0,21.0,20.0,21.0,20.0,21.0,,,-29.0,1.0,,0.0,3.0,4.998,,,0.653,0.854,0.0,17.6,,,,,,0.0,2026-05-09 12:02:19-07:00
77.06,1.0,10.0,2026-05-09 19:03:32,37.08169,-121.59968,394.0,0.0,234.1,-12.6,,,,,19:03:31,10.6,-0.6,358.2,0.0,193.0,0.0,-0.01,1.0,99.0,-10.0,25.0,0.0,29.89,1431.0,,,147.0,,,,,0.0,0.0,,,,,,,,,,,,,,,,,,,0.0,18.0,0.0,0.0,30.0,0.0,,0.0,0.0,,,38.5,0.0,0.0,-0.7,14.7,12.1,,,,,19.0,21.0,19.0,21.0,20.0,21.0,20.0,21.0,,,-29.0,1.0,,0.0,3.0,4.998,,,0.653,0.854,0.0,17.6,,,,,,0.0,2026-05-09 12:02:19-07:00
78.06,1.0,10.0,2026-05-09 19:03:33,37.08169,-121.59968,394.0,0.0,234.1,-12.6,,,,,19:03:32,10.6,-0.6,358.2,0.0,193.0,0.0,-0.01,1.0,99.0,11.0,25.0,0.0,29.89,1432.0,,,147.0,,,,,0.0,0.0,,,,,,,,,,,,,,,,,,,0.0,18.0,0.0,0.0,30.0,0.0,,0.0,0.0,,,38.5,0.0,0.0,-0.7,14.7,12.1,,,,,20.0,21.0,20.0,21.0,20.0,21.0,20.0,21.0,,,-30.0,1.0,,0.0,3.0,4.998,,,0.653,0.854,0.0,17.6,,,,,,0.0,2026-05-09 12:02:19-07:00
79.06,1.0,10.0,2026-05-09 19:03:34,37.08168,-121.59968,395.0,0.0,234.1,-12.6,,,,,19:03:33,10.6,-0.5,358.2,0.0,193.0,0.0,-0.01,1.0,99.0,25.0,25.0,0.0,29.89,1432.0,,,147.0,,,,,0.0,0.0,,,,,,,,,,,,,,,,,,,0.0,18.0,0.0,0.0,30.0,0.0,,0.0,0.0,,,38.5,0.0,0.0,-0.7,14.7,12.1,,,,,20.0,21.0,20.0,21.0,20.0,21.0,20.0,21.0,,,-30.0,1.0,,0.0,3.0,4.998,,,0.653,0.854,0.0,17.6,,,,,,0.0,2026-05-09 12:02:19-07:00
80.06,1.0,10.0,2026-05-09 19:03:35,37.08168,-121.59968,395.0,0.0,234.1,-12.6,,,,,19:03:34,10.6,-0.5,358.2,0.0,193.0,0.0,-0.01,1.0,99.0,61.0,25.0,0.0,29.89,1432.0,,,147.0,,,,,0.0,0.0,,,,,,,,,,,,,,,,,,,0.0,18.0,0.0,0.0,30.0,0.0,,0.0,0.0,,,38.5,0.0,0.0,-0.7,14.7,12.1,,,,,20.0,21.0,20.0,21.0,20.0,21.0,20.0,21.0,,,-31.0,1.0,,0.0,3.0,4.998,,,0.653,0.854,0.0,17.6,,,,,,0.0,2026-05-09 12:02:19-07:00
81.06,1.0,10.0,2026-05-09 19:03:36,37.08168,-121.59968,395.0,0.0,234.1,-12.6,,,,,19:03:35,10.6,-0.5,358.2,0.0,193.0,0.0,-0.01,1.0,99.0,68.0,25.0,0.0,29.89,1441.0,,,147.0,,,,,0.0,0.0,,,,,,,,,,,,,,,,,,,0.0,18.0,0.0,0.0,30.0,0.0,,0.0,0.0,,,38.5,0.0,0.0,-0.7,14.7,12.1,,,,,20.0,21.0,20.0,21.0,20.0,21.0,20.0,21.0,,,-33.0,1.0,,0.0,3.0,4.998,,,0.653,0.854,0.0,17.6,,,,,,0.0,2026-05-09 12:02:19-07:00
82.06,1.0,10.0,2026-05-09 19:03:37,37.08168,-121.59968,395.0,0.0,234.1,-12.6,,,,,19:03:36,10.6,-0.5,358.2,0.0,193.0,0.0,-0.01,1.0,99.0,68.0,25.0,0.0,29.89,1441.0,,,147.0,,,,,0.0,0.0,,,,,,,,,,,,,,,,,,,0.0,18.0,0.0,0.0,30.0,0.0,,0.0,0.0,,,38.5,0.0,0.0,-0.7,14.7,12.1,,,,,19.0,21.0,20.0,21.0,20.0,21.0,20.0,21.0,,,-33.0,1.0,,0.0,3.0,4.998,,,0.653,0.854,0.0,17.6,,,,,,0.0,2026-05-09 12:02:19-07:00
83.06,1.0,10.0,2026-05-09 19:03:38,37.08168,-121.59968,395.0,0.0,234.1,-12.6,,,,,19:03:37,10.6,-0.5,358.3,0.0,193.0,0.0,-0.01,1.0,99.0,85.0,25.0,0.0,29.89,1441.0,,,147.0,,,,,0.0,0.0,,,,,,,,,,,,,,,,,,,0.0,18.0,0.0,0.0,30.0,0.0,,0.0,0.0,,,38.5,0.0,0.0,-0.7,14.7,12.1,,,,,20.0,21.0,20.0,21.0,20.0,21.0,20.0,21.0,,,-33.0,1.0,,0.0,3.0,4.998,,,0.653,0.854,0.0,17.6,,,,,,0.0,2026-05-09 12:02:19-07:00
84.06,1.0,10.0,2026-05-09 19:03:39,37.08168,-121.59968,395.0,0.0,234.1,-12.6,,,,,19:03:38,10.6,-0.5,358.3,0.0,194.0,0.1,-0.01,1.0,99.0,72.0,25.0,0.0,29.89,1441.0,,,147.0,,,,,0.0,0.0,,,,,,,,,,,,,,,,,,,0.0,18.0,0.0,0.0,30.0,0.0,,0.0,0.0,,,38.5,0.0,0.0,-0.7,14.7,12.1,,,,,19.0,21.0,20.0,21.0,20.0,21.0,20.0,21.0,,,-33.0,1.0,,0.0,3.0,4.998,,,0.653,0.854,0.0,17.6,,,,,,0.0,2026-05-09 12:02:19-07:00
85.06,1.0,10.0,2026-05-09 19:03:40,37.08168,-121.59968,395.0,0.0,234.1,-12.6,,,,,19:03:39,10.7,-0.5,358.3,0.0,194.0,0.1,-0.01,1.0,99.0,60.0,25.0,0.0,29.89,1444.0,,,147.0,,,,,0.0,0.0,,,,,,,,,,,,,,,,,,,0.0,18.0,0.0,0.0,30.0,0.0,,0.0,0.0,,,38.5,0.0,0.0,-0.7,14.7,12.1,,,,,19.0,21.0,20.0,21.0,20.0,21.0,20.0,21.0,,,-34.0,1.0,,0.0,3.0,4.998,,,0.653,0.854,0.0,17.6,,,,,,0.0,2026-05-09 12:02:19-07:00
86.06,1.0,10.0,2026-05-09 19:03:41,37.08168,-121.59968,395.0,0.0,234.1,-12.6,,,,,19:03:40,10.6,-0.5,358.3,0.0,194.0,0.0,-0.01,1.0,99.0,28.0,25.0,0.0,29.89,1444.0,,,147.0,,,,,0.0,0.0,,,,,,,,,,,,,,,,,,,0.0,18.0,0.0,0.0,30.0,0.0,,0.0,9.7,,,38.5,0.0,0.0,-0.7,14.7,12.1,,,,,19.0,21.0,20.0,21.0,20.0,21.0,20.0,21.0,,,-34.0,1.0,,9.7,3.0,4.998,,,0.653,0.854,0.0,17.6,,,,,,0.0,2026-05-09 12:02:19-07:00
87.06,1.0,10.0,2026-05-09 19:03:42,37.08168,-121.59968,395.0,0.0,234.1,-12.6,,,,,19:03:41,10.6,-0.5,358.3,0.0,194.0,0.0,-0.01,1.0,99.0,36.0,25.0,0.0,29.89,1444.0,,,147.0,,,,,0.0,0.0,,,,,,,,,,,,,,,,,,,0.0,18.0,0.0,0.0,30.0,0.0,,0.0,28.8,,,38.5,0.0,0.0,-0.6,14.7,12.1,,,,,19.0,21.0,20.0,21.0,20.0,21.0,20.0,21.0,,,-33.0,0.0,,28.8,3.0,4.998,,,0.653,0.854,0.0,17.6,,,,,,0.0,2026-05-09 12:02:19-07:00
88.06,1.0,10.0,2026-05-09 19:03:43,37.08168,-121.59968,395.0,0.0,234.1,-12.6,,,,,19:03:42,10.7,-0.5,358.3,0.0,196.0,0.0,-0.01,1.0,99.0,48.0,25.0,0.0,29.89,1446.0,,,147.0,,,,,0.0,0.0,,,,,,,,,,,,,,,,,,,0.0,18.0,0.0,0.0,30.0,0.9,,0.9,30.5,,,38.5,0.0,0.0,-0.6,14.7,12.1,,,,,19.0,21.0,20.0,21.0,20.0,21.0,20.0,22.0,,,-33.0,0.0,,30.5,3.0,4.998,,,0.653,0.854,0.0,17.6,,,,,,0.0,2026-05-09 12:02:19-07:00
89.06,1.0,10.0,2026-05-09 19:03:44,37.08168,-121.59968,395.0,0.0,234.1,-12.6,,,,,19:03:43,10.7,-0.5,358.3,0.0,196.0,0.0,-0.01,1.0,99.0,51.0,25.0,0.0,29.89,1446.0,,,147.0,,,,,0.0,0.0,,,,,,,,,,,,,,,,,,,0.0,18.0,0.0,0.0,30.0,1.7,,1.7,31.6,,,38.5,0.0,0.0,-0.6,14.7,12.1,,,,,20.0,21.0,20.0,21.0,20.0,21.0,20.0,22.0,,,-33.0,0.0,,31.6,3.0,4.998,,,0.653,0.856,0.0,17.6,,,,,,0.0,2026-05-09 12:02:19-07:00
90.06,1.0,10.0,2026-05-09 19:03:45,37.08168,-121.59968,394.0,0.0,234.1,-12.6,,,,,19:03:44,10.6,-0.5,358.3,0.0,197.0,0.0,-0.01,1.0,99.0,16.0,25.0,0.0,29.89,1447.0,,,147.0,,,,,0.0,0.0,,,,,,,,,,,,,,,,,,,0.0,18.0,0.0,0.0,30.0,2.3,,2.3,32.1,,,38.5,0.0,0.0,-0.6,14.7,12.1,,,,,20.0,21.0,20.0,21.0,20.0,21.0,20.0,22.0,,,-33.0,0.0,,32.1,3.0,4.998,,,0.653,0.854,0.0,17.6,,,,,,0.0,2026-05-09 12:02:19-07:00
91.06,1.0,10.0,2026-05-09 19:03:46,37.08168,-121.59968,394.0,0.0,234.1,-12.6,,,,,19:03:45,10.7,-0.5,358.3,0.0,197.0,0.1,-0.01,1.0,99.0,-3.0,25.0,0.0,29.89,1458.0,,,147.0,,,,,0.0,0.0,,,,,,,,,,,,,,,,,,,0.0,18.0,0.0,0.0,30.0,2.7,,2.7,32.4,,,38.5,0.0,0.0,-0.6,14.7,12.1,,,,,19.0,21.0,20.0,21.0,20.0,21.0,20.0,22.0,,,-33.0,0.0,,32.4,3.0,4.998,,,0.653,0.856,0.0,17.6,,,,,,0.0,2026-05-09 12:02:19-07:00
92.06,1.0,10.0,2026-05-09 19:03:47,37.08168,-121.59968,394.0,0.0,234.1,-12.6,,,,,19:03:46,10.6,-0.6,358.3,0.0,197.0,0.0,-0.01,1.0,99.0,-6.0,25.0,0.0,29.89,1458.0,,,147.0,,,,,0.0,0.0,,,,,,,,,,,,,,,,,,,0.0,18.0,0.0,0.0,30.0,3.1,,3.1,32.4,,,38.5,0.0,0.0,-0.6,14.7,12.1,,,,,20.0,21.0,20.0,21.0,20.0,21.0,20.0,22.0,,,-33.0,0.0,,32.4,3.0,4.998,,,0.653,0.854,0.0,17.6,,,,,,0.0,2026-05-09 12:02:19-07:00
93.06,1.0,10.0,2026-05-09 19:03:48,37.08168,-121.59968,394.0,0.0,234.1,-12.6,,,,,19:03:47,10.7,-0.5,358.3,0.0,197.0,0.1,-0.01,1.0,99.0,-35.0,25.0,0.0,29.89,1458.0,,,147.0,,,,,0.0,0.0,,,,,,,,,,,,,,,,,,,0.0,18.0,0.0,0.0,30.0,3.3,,3.3,33.7,,,38.5,0.0,0.0,-0.6,14.7,12.1,,,,,19.0,21.0,20.0,21.0,20.0,21.0,20.0,22.0,,,-33.0,0.0,,33.7,3.0,4.998,,,0.653,0.854,0.0,17.6,,,,,,0.0,2026-05-09 12:02:19-07:00
94.06,1.0,10.0,2026-05-09 19:03:49,37.08167,-121.59968,398.0,0.0,234.1,-12.6,,,,,19:03:48,10.7,-0.5,358.3,0.0,197.0,0.1,-0.01,1.0,99.0,-38.0,25.0,0.0,29.89,1467.0,,,147.0,,,,,0.0,0.0,,,,,,,,,,,,,,,,,,,0.0,18.0,0.0,0.0,30.0,2.9,,2.9,33.0,,,38.5,0.0,0.0,-0.6,14.7,12.1,,,,,20.0,21.0,20.0,21.0,20.0,21.0,20.0,22.0,,,-33.0,0.0,,33.0,3.0,4.998,,,0.653,0.854,0.0,17.6,,,,,,0.0,2026-05-09 12:02:19-07:00
95.06,1.0,10.0,2026-05-09 19:03:50,37.08167,-121.59968,397.0,0.0,234.1,-12.6,,,,,19:03:49,10.7,-0.5,358.3,0.0,197.0,0.1,-0.01,1.0,99.0,-64.0,25.0,0.0,29.89,1467.0,,,147.0,,,,,0.0,0.0,,,,,,,,,,,,,,,,,,,0.0,18.0,0.0,0.0,30.0,2.9,,2.9,32.7,,,38.5,0.0,0.0,-0.6,14.7,12.1,,,,,20.0,21.0,20.0,21.0,20.0,21.0,20.0,22.0,,,-32.0,0.0,,32.7,3.0,4.998,,,0.653,0.854,0.0,17.6,,,,,,0.0,2026-05-09 12:02:19-07:00
96.06,1.0,10.0,2026-05-09 19:03:51,37.08167,-121.59968,397.0,0.0,234.1,-12.6,,,,,19:03:50,10.7,-0.6,358.3,0.0,197.0,0.1,-0.01,1.0,99.0,-75.0,25.0,0.0,29.89,1467.0,,,147.0,,,,,0.0,0.0,,,,,,,,,,,,,,,,,,,0.0,18.0,0.0,0.0,30.0,2.9,,2.9,32.4,,,38.5,0.0,0.0,-0.7,14.7,12.1,,,,,20.0,21.0,20.0,21.0,20.0,21.0,20.0,22.0,,,-32.0,0.0,,32.4,3.0,4.998,,,0.653,0.854,0.0,17.6,,,,,,0.0,2026-05-09 12:02:19-07:00
97.06,1.0,10.0,2026-05-09 19:03:52,37.08167,-121.59968,397.0,0.0,234.1,-12.6,,,,,19:03:51,10.7,-0.6,358.3,0.0,197.0,0.1,-0.01,1.0,99.0,-48.0,25.0,0.0,29.89,1468.0,,,147.0,,,,,0.0,0.0,,,,,,,,,,,,,,,,,,,0.0,18.0,0.0,0.0,30.0,0.0,,0.0,32.2,,,38.5,0.0,0.0,-0.7,14.7,12.1,,,,,20.0,21.0,20.0,21.0,20.0,21.0,20.0,21.0,,,-31.0,0.0,,32.2,3.0,4.998,,,0.653,0.854,0.0,17.6,,,,,,0.0,2026-05-09 12:02:19-07:00
98.06,1.0,10.0,2026-05-09 19:03:53,37.08167,-121.59968,397.0,0.0,234.1,-12.6,,,,,19:03:52,10.7,-0.6,358.3,0.0,197.0,0.1,-0.01,1.0,99.0,-39.0,25.0,0.0,29.89,1468.0,,,147.0,,,,,0.0,0.0,,,,,,,,,,,,,,,,,,,0.0,18.0,0.0,0.0,30.0,0.0,,0.0,32.0,,,38.5,0.0,0.0,-0.7,14.7,12.1,,,,,20.0,21.0,20.0,21.0,20.0,21.0,20.0,21.0,,,-28.0,0.0,,32.0,3.0,4.998,,,0.653,0.854,0.0,17.6,,,,,,0.0,2026-05-09 12:02:19-07:00
99.06,1.0,10.0,2026-05-09 19:03:54,37.08167,-121.59968,397.0,0.0,234.1,-12.6,,,,,19:03:53,10.7,-0.5,358.2,0.0,197.0,0.0,-0.01,1.0,99.0,-27.0,25.0,0.0,29.89,1468.0,,,147.0,,,,,0.0,0.0,,,,,,,,,,,,,,,,,,,0.0,18.0,0.0,0.0,30.0,0.0,,0.0,31.9,,,38.5,0.0,0.0,-0.7,14.7,12.1,,,,,20.0,21.0,20.0,21.0,20.0,21.0,20.0,22.0,,,-28.0,0.0,,31.9,3.0,4.998,,,0.653,0.854,0.0,17.6,,,,,,0.0,2026-05-09 12:02:19-07:00
100.06,1.0,10.0,2026-05-09 19:03:55,37.08167,-121.59968,397.0,0.0,234.1,-12.6,,,,,19:03:54,10.7,-0.6,358.2,0.0,195.0,0.1,-0.01,1.0,99.0,-45.0,25.0,0.0,29.89,1476.0,,,147.0,,,,,0.0,0.0,,,,,,,,,,,,,,,,,,,0.0,18.0,0.0,0.0,30.0,0.0,,0.0,31.7,,,38.5,0.0,0.0,-0.7,14.7,12.1,,,,,20.0,21.0,20.0,22.0,20.0,21.0,20.0,22.0,,,-28.0,0.0,,31.7,3.0,4.998,,,0.653,0.854,0.0,17.6,,,,,,0.0,2026-05-09 12:02:19-07:00
101.06,1.0,10.0,2026-05-09 19:03:56,37.08167,-121.59968,397.0,0.0,234.1,-12.6,,,,,19:03:55,10.7,-0.6,358.2,0.0,195.0,0.0,-0.01,1.0,99.0,-33.0,25.0,0.0,29.89,1476.0,,,147.0,,,,,0.0,0.0,,,,,,,,,,,,,,,,,,,0.0,18.0,0.0,0.0,30.0,0.0,,0.0,31.6,,,38.5,0.0,0.0,-0.7,14.7,12.1,,,,,20.0,21.0,20.0,21.0,20.0,21.0,20.0,21.0,,,-28.0,0.0,,31.6,3.0,4.998,,,0.653,0.854,0.0,17.6,,,,,,0.0,2026-05-09 12:02:19-07:00
102.06,1.0,10.0,2026-05-09 19:03:57,37.08168,-121.59968,398.0,0.0,234.1,-12.6,,,,,19:03:56,10.7,-0.6,358.2,0.0,195.0,0.0,-0.01,1.0,99.0,-11.0,25.0,0.0,29.89,1476.0,,,147.0,,,,,0.0,0.0,,,,,,,,,,,,,,,,,,,0.0,18.0,0.0,0.0,30.0,0.0,,0.0,31.4,,,38.5,0.0,0.0,-0.7,14.7,12.1,,,,,20.0,21.0,20.0,21.0,20.0,21.0,20.0,21.0,,,-28.0,0.0,,31.4,3.0,4.998,,,0.653,0.854,0.0,17.6,,,,,,0.0,2026-05-09 12:02:19-07:00
103.06,1.0,10.0,2026-05-09 19:03:58,37.08168,-121.59969,398.0,0.0,234.1,-12.6,,,,,19:03:57,10.7,-0.5,358.2,0.0,195.0,0.0,-0.01,1.0,99.0,8.0,25.0,0.0,29.89,1476.0,,,147.0,,,,,0.0,0.0,,,,,,,,,,,,,,,,,,,0.0,18.0,0.0,0.0,30.0,0.0,,0.0,31.3,,,38.5,0.0,0.0,-0.7,14.7,12.1,,,,,20.0,21.0,20.0,21.0,20.0,21.0,20.0,21.0,,,-28.0,0.0,,31.3,3.0,4.998,,,0.653,0.854,0.0,17.6,,,,,,0.0,2026-05-09 12:02:19-07:00
104.06,1.0,10.0,2026-05-09 19:03:59,37.08168,-121.59969,398.0,0.0,234.1,-12.6,,,,,19:03:58,10.7,-0.6,358.2,0.0,195.0,0.0,-0.01,1.0,99.0,19.0,25.0,0.0,29.89,1476.0,,,147.0,,,,,0.0,0.0,,,,,,,,,,,,,,,,,,,0.0,18.0,0.0,0.0,30.0,0.0,,0.0,31.2,,,38.5,0.0,0.0,-0.7,14.7,12.1,,,,,20.0,21.0,20.0,22.0,20.0,21.0,20.0,22.0,,,-28.0,0.0,,31.2,3.0,4.998,,,0.653,0.854,0.0,17.6,,,,,,0.0,2026-05-09 12:02:19-07:00
105.06,1.0,10.0,2026-05-09 19:04:00,37.08168,-121.59969,399.0,0.0,234.1,-12.6,,,,,19:03:59,10.7,-0.6,358.2,0.0,195.0,0.0,-0.01,1.0,99.0,33.0,25.0,0.0,29.89,1486.0,,,147.0,,,,,0.0,0.0,,,,,,,,,,,,,,,,,,,0.0,18.0,0.0,0.0,30.0,0.0,,0.0,31.1,,,38.5,0.0,0.0,-0.7,14.7,12.1,,,,,20.0,21.0,20.0,22.0,20.0,21.0,20.0,22.0,,,-28.0,0.0,,31.1,3.0,4.998,,,0.653,0.854,0.0,17.6,,,,,,0.0,2026-05-09 12:02:19-07:00
106.06,1.0,10.0,2026-05-09 19:04:01,37.08168,-121.59969,399.0,0.0,234.1,-12.6,,,,,19:04:00,10.7,-0.5,358.2,0.0,195.0,0.0,-0.01,1.0,99.0,38.0,25.0,0.0,29.89,1486.0,,,147.0,,,,,0.0,0.0,,,,,,,,,,,,,,,,,,,0.0,18.0,0.0,0.0,30.0,0.0,,0.0,31.0,,,38.5,0.0,0.0,-0.7,14.7,12.1,,,,,20.0,21.0,20.0,22.0,20.0,21.0,20.0,22.0,,,-28.0,0.0,,31.0,3.0,4.998,,,0.653,0.854,0.0,17.6,,,,,,0.0,2026-05-09 12:02:19-07:00
107.06,1.0,10.0,2026-05-09 19:04:02,37.08168,-121.59969,399.0,0.0,234.1,-12.6,,,,,19:04:01,10.7,-0.5,358.2,0.0,195.0,0.1,-0.01,1.0,99.0,27.0,26.0,0.0,29.89,1487.0,,,147.0,,,,,0.0,0.0,,,,,,,,,,,,,,,,,,,0.0,18.0,0.0,0.0,30.0,0.0,,0.0,30.8,,,38.5,0.0,0.0,-0.7,14.7,12.1,,,,,20.0,21.0,20.0,22.0,20.0,21.0,20.0,22.0,,,-27.0,0.0,,30.8,3.0,4.998,,,0.653,0.854,0.0,17.6,,,,,,0.0,2026-05-09 12:02:19-07:00
108.06,1.0,10.0,2026-05-09 19:04:03,37.08168,-121.59969,400.0,0.0,234.1,-12.6,,,,,19:04:02,10.7,-0.5,358.2,0.0,195.0,0.1,-0.01,1.0,99.0,16.0,26.0,0.0,29.89,1487.0,,,147.0,,,,,0.0,0.0,,,,,,,,,,,,,,,,,,,0.0,18.0,0.0,0.0,30.0,0.0,,0.0,30.7,,,38.5,0.0,0.0,-0.7,14.7,12.1,,,,,20.0,21.0,20.0,22.0,20.0,21.0,20.0,22.0,,,-27.0,0.0,,30.7,3.0,4.998,,,0.653,0.854,0.0,17.6,,,,,,0.0,2026-05-09 12:02:19-07:00
109.06,1.0,10.0,2026-05-09 19:04:04,37.08168,-121.59969,400.0,0.0,234.1,-12.6,,,,,19:04:03,10.7,-0.5,358.2,0.0,195.0,0.0,-0.01,1.0,99.0,-2.0,26.0,0.0,29.89,1487.0,,,147.0,,,,,0.0,0.0,,,,,,,,,,,,,,,,,,,0.0,18.0,0.0,0.0,30.0,0.0,,0.0,30.6,,,38.5,0.0,0.0,-0.7,14.7,12.1,,,,,20.0,21.0,20.0,22.0,20.0,21.0,20.0,22.0,,,-27.0,0.0,,30.6,3.0,4.998,,,0.653,0.854,0.0,17.6,,,,,,0.0,2026-05-09 12:02:19-07:00
110.06,1.0,10.0,2026-05-09 19:04:05,37.08168,-121.59968,401.0,0.0,234.1,-12.6,,,,,19:04:04,10.7,-0.5,358.2,0.0,195.0,0.0,-0.01,1.0,99.0,-5.0,26.0,0.0,29.89,1496.0,,,147.0,,,,,0.0,0.0,,,,,,,,,,,,,,,,,,,0.0,18.0,0.0,0.0,30.0,0.0,,0.0,30.5,,,38.5,0.0,0.0,-0.7,14.7,12.1,,,,,20.0,21.0,20.0,22.0,20.0,21.0,20.0,22.0,,,-26.0,0.0,,30.5,3.0,4.998,,,0.653,0.854,0.0,17.6,,,,,,0.0,2026-05-09 12:02:19-07:00
111.06,1.0,10.0,2026-05-09 19:04:06,37.08168,-121.59968,401.0,0.0,234.1,-12.6,,,,,19:04:05,10.7,-0.6,358.2,0.0,195.0,0.0,-0.01,1.0,99.0,-3.0,26.0,0.0,29.89,1497.0,,,147.0,,,,,0.0,0.0,,,,,,,,,,,,,,,,,,,0.0,18.0,0.0,0.0,30.0,0.0,,0.0,30.4,,,38.5,0.0,0.0,-0.7,14.7,12.1,,,,,20.0,21.0,20.0,22.0,20.0,21.0,20.0,22.0,,,-27.0,0.0,,30.4,3.0,4.998,,,0.653,0.854,0.0,17.6,,,,,,0.0,2026-05-09 12:02:19-07:00
112.06,1.0,10.0,2026-05-09 19:04:07,37.08168,-121.59968,401.0,0.0,234.1,-12.6,,,,,19:04:06,10.6,-0.6,358.2,0.0,195.0,0.0,-0.01,1.0,99.0,14.0,26.0,0.0,29.89,1497.0,,,147.0,,,,,0.0,0.0,,,,,,,,,,,,,,,,,,,0.0,18.0,0.0,0.0,30.0,0.0,,0.0,30.3,,,38.5,0.0,0.0,-0.8,14.7,12.1,,,,,20.0,21.0,20.0,22.0,20.0,21.0,20.0,22.0,,,-27.0,0.0,,30.3,3.0,4.998,,,0.653,0.854,0.0,17.6,,,,,,0.0,2026-05-09 12:02:19-07:00
113.06,1.0,10.0,2026-05-09 19:04:08,37.08168,-121.59968,402.0,0.0,234.1,-12.6,,,,,19:04:07,10.7,-0.6,358.2,0.0,195.0,0.1,-0.01,1.0,99.0,42.0,26.0,0.0,29.89,1497.0,,,147.0,,,,,0.0,0.0,,,,,,,,,,,,,,,,,,,0.0,18.0,0.0,0.0,30.0,0.0,,0.0,30.2,,,38.5,0.0,0.0,-0.8,14.7,12.1,,,,,20.0,21.0,20.0,22.0,20.0,21.0,20.0,22.0,,,-26.0,0.0,,30.2,3.0,4.998,,,0.653,0.854,0.0,17.6,,,,,,0.0,2026-05-09 12:02:19-07:00
114.06,1.0,10.0,2026-05-09 19:04:09,37.08168,-121.59968,402.0,0.0,234.1,-12.6,,,,,19:04:08,10.7,-0.6,358.1,0.0,195.0,0.0,-0.01,1.0,99.0,65.0,26.0,0.0,29.89,1507.0,,,147.0,,,,,0.0,0.0,,,,,,,,,,,,,,,,,,,0.0,18.0,0.0,0.0,30.0,0.0,,0.0,30.1,,,38.5,0.0,0.0,-0.8,14.7,12.1,,,,,20.0,21.0,20.0,21.0,20.0,21.0,20.0,22.0,,,-26.0,0.0,,30.1,3.0,4.998,,,0.653,0.854,0.0,17.6,,,,,,0.0,2026-05-09 12:02:19-07:00
115.06,1.0,10.0,2026-05-09 19:04:10,37.08168,-121.59968,402.0,0.0,234.1,-12.6,,,,,19:04:09,10.7,-0.6,358.1,0.0,195.0,0.0,-0.01,1.0,99.0,90.0,26.0,0.0,29.89,1507.0,,,147.0,,,,,0.0,0.0,,,,,,,,,,,,,,,,,,,0.0,18.0,0.0,0.0,30.0,0.0,,0.0,30.0,,,38.5,0.0,0.0,-0.8,14.7,12.1,,,,,20.0,21.0,20.0,21.0,20.0,21.0,20.0,22.0,,,-27.0,0.0,,30.0,3.0,4.998,,,0.653,0.854,0.0,17.6,,,,,,0.0,2026-05-09 12:02:19-07:00
116.06,1.0,10.0,2026-05-09 19:04:11,37.08168,-121.59968,402.0,0.0,234.1,-12.6,,,,,19:04:10,10.7,-0.6,358.1,0.0,195.0,0.0,-0.01,1.0,99.0,92.0,26.0,0.0,29.89,1507.0,,,147.0,,,,,0.0,0.0,,,,,,,,,,,,,,,,,,,0.0,18.0,0.0,0.0,30.0,0.0,,0.0,29.9,,,38.5,0.0,0.0,-0.8,14.7,12.1,,,,,20.0,21.0,20.0,21.0,20.0,21.0,20.0,22.0,,,-28.0,0.0,,29.9,3.0,4.998,,,0.653,0.854,0.0,17.6,,,,,,0.0,2026-05-09 12:02:19-07:00
117.06,1.0,10.0,2026-05-09 19:04:12,37.08168,-121.59968,402.0,0.0,234.1,-12.6,,,,,19:04:11,10.7,-0.6,358.1,0.0,196.0,0.0,-0.01,1.0,99.0,81.0,26.0,0.0,29.89,1508.0,,,147.0,,,,,0.0,0.0,,,,,,,,,,,,,,,,,,,0.0,18.0,0.0,0.0,30.0,0.0,,0.0,29.8,,,38.5,0.0,0.0,-0.8,14.7,12.1,,,,,20.0,21.0,20.0,21.0,20.0,21.0,20.0,22.0,,,-28.0,0.0,,29.8,3.0,1.572,,,0.653,0.854,0.0,17.6,,,,,,0.0,2026-05-09 12:02:19-07:00
118.06,1.0,10.0,2026-05-09 19:04:13,37.08168,-121.59968,401.0,0.0,234.1,-12.6,,,,,19:04:12,10.8,-0.6,358.1,0.0,197.0,0.1,-0.01,1.0,99.0,48.0,26.0,0.0,29.89,1509.0,,,147.0,,,,,0.0,0.0,,,,,,,,,,,,,,,,,,,0.0,18.0,0.0,0.0,30.0,0.0,,0.0,29.7,,,38.5,0.0,0.0,-0.8,14.7,12.1,,,,,20.0,21.0,20.0,21.0,20.0,21.0,20.0,22.0,,,-28.0,0.0,,29.7,3.0,0.001,,,0.653,0.854,0.0,17.6,,,,,,0.0,2026-05-09 12:02:19-07:00
119.06,1.0,10.0,2026-05-09 19:04:14,37.08168,-121.59968,401.0,0.0,234.1,-12.6,,,,,19:04:13,10.7,-0.6,358.1,0.0,198.0,0.0,-0.01,1.0,99.0,58.0,26.0,0.0,29.89,1521.0,,,147.0,,,,,0.0,0.0,,,,,,,,,,,,,,,,,,,0.0,18.0,0.0,0.0,30.0,0.0,,0.0,29.6,,,38.5,0.0,0.0,-0.8,14.7,12.1,,,,,20.0,21.0,20.0,22.0,20.0,22.0,20.0,22.0,,,-28.0,0.0,,29.6,3.0,0.0,,,0.653,0.854,0.0,17.6,,,,,,0.0,2026-05-09 12:02:19-07:00
120.06,1.0,10.0,2026-05-09 19:04:15,37.08168,-121.59968,400.0,0.0,234.1,-12.6,,,,,19:04:14,10.7,-0.6,358.1,0.0,198.0,0.0,-0.01,1.0,99.0,45.0,26.0,0.0,29.89,1521.0,,,147.0,,,,,0.0,0.0,,,,,,,,,,,,,,,,,,,0.0,18.0,0.0,0.0,30.0,0.0,,0.0,29.5,,,38.5,0.0,0.0,-0.8,14.7,12.1,,,,,20.0,21.0,20.0,22.0,20.0,22.0,20.0,22.0,,,-28.0,0.0,,29.5,3.0,0.0,,,0.653,0.854,0.0,17.6,,,,,,0.0,2026-05-09 12:02:19-07:00
121.06,1.0,10.0,2026-05-09 19:04:16,37.08168,-121.59968,400.0,0.0,234.1,-12.6,,,,,19:04:15,10.7,-0.6,358.0,0.0,198.0,0.0,-0.01,1.0,99.0,39.0,26.0,0.0,29.89,1521.0,,,147.0,,,,,0.0,0.0,,,,,,,,,,,,,,,,,,,0.0,18.0,0.0,0.0,30.0,0.0,,0.0,29.4,,,38.5,0.0,0.0,-0.8,14.7,12.1,,,,,20.0,21.0,20.0,22.0,20.0,21.0,20.0,22.0,,,-28.0,0.0,,29.4,3.0,0.0,,,0.653,0.854,0.0,17.6,,,,,,0.0,2026-05-09 12:02:19-07:00
122.06,1.0,10.0,2026-05-09 19:04:17,37.08168,-121.59968,399.0,0.0,234.1,-12.6,,,,,19:04:16,10.7,-0.6,358.1,0.0,198.0,0.0,-0.01,1.0,99.0,-4.0,26.0,0.0,29.89,1530.0,,,147.0,,,,,0.0,0.0,,,,,,,,,,,,,,,,,,,0.0,18.0,0.0,0.0,30.0,0.0,,0.0,29.3,,,38.5,0.0,0.0,-0.8,14.7,12.1,,,,,20.0,21.0,20.0,22.0,20.0,22.0,20.0,22.0,,,-28.0,0.0,,29.3,3.0,0.0,,,0.653,0.854,0.0,17.6,,,,,,0.0,2026-05-09 12:02:19-07:00
123.06,1.0,10.0,2026-05-09 19:04:18,37.08168,-121.59968,399.0,0.0,234.1,-12.6,,,,,19:04:17,10.7,-0.6,358.1,0.0,198.0,0.0,-0.01,1.0,99.0,1.0,26.0,0.0,29.89,1530.0,,,147.0,,,,,0.0,0.0,,,,,,,,,,,,,,,,,,,0.0,18.0,0.0,0.0,30.0,0.0,,0.0,29.3,,,38.5,0.0,0.0,-0.8,14.7,12.1,,,,,20.0,21.0,20.0,22.0,20.0,22.0,20.0,22.0,,,-28.0,0.0,,29.3,3.0,0.0,,,0.653,0.854,0.0,17.6,,,,,,0.0,2026-05-09 12:02:19-07:00
124.06,1.0,10.0,2026-05-09 19:04:19,37.08169,-121.59969,398.0,0.0,234.1,-12.6,,,,,19:04:18,10.7,-0.6,358.1,0.0,198.0,0.0,-0.01,1.0,99.0,11.0,26.0,0.0,29.89,1530.0,,,147.0,,,,,0.0,0.0,,,,,,,,,,,,,,,,,,,0.0,18.0,0.0,0.0,30.0,0.0,,0.0,29.2,,,38.5,0.0,0.0,-0.8,14.7,12.1,,,,,20.0,21.0,20.0,22.0,20.0,22.0,20.0,22.0,,,-28.0,0.0,,29.2,3.0,0.0,,,0.653,0.854,0.0,17.6,,,,,,0.0,2026-05-09 12:02:19-07:00
125.06,1.0,10.0,2026-05-09 19:04:20,37.08169,-121.59969,396.0,0.0,234.1,-12.6,,,,,19:04:19,10.7,-0.6,358.1,0.0,198.0,0.0,-0.01,1.0,99.0,22.0,26.0,0.0,29.89,1531.0,,,147.0,,,,,0.0,0.0,,,,,,,,,,,,,,,,,,,0.0,18.0,0.0,0.0,30.0,0.0,,0.0,29.1,,,38.5,0.0,0.0,-0.8,14.7,12.1,,,,,20.0,21.0,20.0,22.0,20.0,21.0,20.0,22.0,,,-28.0,0.0,,29.1,3.0,0.0,,,0.653,0.854,0.0,17.6,,,,,,0.0,2026-05-09 12:02:19-07:00
126.06,1.0,10.0,2026-05-09 19:04:21,37.08169,-121.59969,395.0,0.0,234.1,-12.6,,,,,19:04:20,10.7,-0.7,358.3,0.0,198.0,0.0,-0.01,1.0,99.0,7.0,26.0,0.0,29.89,1531.0,,,147.0,,,,,0.0,0.0,,,,,,,,,,,,,,,,,,,0.0,14.0,105.0,105.0,30.0,0.0,,0.0,29.2,,,38.5,0.0,0.0,-0.7,14.7,12.1,,,,,17.0,18.0,17.0,18.0,18.0,18.0,18.0,18.0,,,-29.0,0.0,,29.2,3.0,0.0,,,0.653,0.864,0.0,14.2,,,,,,105.0,2026-05-09 12:02:19-07:00
127.06,1.0,10.0,2026-05-09 19:04:22,37.08169,-121.59969,394.0,0.1,234.1,-12.6,,,,,19:04:21,10.7,-0.5,358.3,0.0,198.0,0.0,-0.01,0.9,99.0,-49.0,26.0,0.0,29.89,1531.0,,,147.0,,,,,0.0,0.0,,,,,,,,,,,,,,,,,,,4.0,17.0,800.0,800.0,24.6,1.2,,1.2,23.9,,,38.5,0.0,0.0,-0.6,14.7,12.1,,,,,20.0,48.0,20.0,45.0,20.0,64.0,20.0,42.0,,,-29.0,0.0,,23.9,3.0,0.0,,,0.654,0.858,3.9,17.3,,,,,,800.0,2026-05-09 12:02:19-07:00
128.06,1.0,10.0,2026-05-09 19:04:23,37.08169,-121.59969,393.0,0.0,234.1,-12.6,,,,,19:04:22,10.7,-0.5,358.3,0.0,198.0,0.0,-0.01,1.0,99.0,4.0,26.0,0.0,29.89,1541.0,,,147.0,,,,,0.0,0.0,,,,,,,,,,,,,,,,,,,8.0,18.0,893.0,893.0,20.7,2.3,,2.3,24.3,,,38.5,0.0,0.0,-0.7,14.7,12.1,,,,,20.0,84.0,20.0,69.0,20.0,118.0,21.0,92.0,,,-29.0,0.0,,24.3,3.0,0.0,,,0.654,0.854,8.2,17.6,,,,,,893.0,2026-05-09 12:02:19-07:00
129.06,1.0,10.0,2026-05-09 19:04:24,37.08169,-121.59969,392.0,0.0,234.1,-12.6,,,,,19:04:23,10.7,-0.4,358.3,0.0,198.0,0.0,-0.01,1.0,99.0,-14.0,26.0,0.0,29.89,1541.0,,,147.0,,,,,0.0,0.0,,,,,,,,,,,,,,,,,,,10.0,18.0,964.0,964.0,19.1,2.8,,2.8,24.9,,,38.5,0.0,0.0,-0.7,14.7,12.1,,,,,20.0,129.0,20.0,97.0,20.0,166.0,21.0,137.0,,,-29.0,0.0,,24.9,3.0,0.0,,,0.653,0.859,9.9,17.6,,,,,,964.0,2026-05-09 12:02:19-07:00
130.06,1.0,10.0,2026-05-09 19:04:25,37.08169,-121.59969,391.0,0.0,234.1,-12.6,,,,,19:04:24,10.6,-0.5,358.3,0.0,198.0,0.0,-0.01,1.0,99.0,-54.0,26.0,0.0,29.89,1541.0,,,147.0,,,,,0.0,0.0,,,,,,,,,,,,,,,,,,,13.0,18.0,1004.0,1004.0,18.1,3.1,,3.1,25.1,,,38.5,0.0,0.0,-0.7,14.7,12.1,,,,,20.0,162.0,21.0,124.0,21.0,207.0,22.0,178.0,,,-29.0,0.0,,25.1,3.0,0.0,,,0.654,0.854,12.8,17.6,,,,,,1004.0,2026-05-09 12:02:19-07:00
131.06,1.0,10.0,2026-05-09 19:04:26,37.08169,-121.59968,390.0,0.0,234.1,-12.6,,,,,19:04:25,10.7,-0.5,358.3,0.0,198.0,0.0,-0.01,1.0,99.0,-47.0,26.0,0.0,29.89,1541.0,,,147.0,,,,,0.0,0.0,,,,,,,,,,,,,,,,,,,16.0,18.0,1027.0,1027.0,17.1,3.2,,3.2,25.1,,,38.5,0.0,0.0,-0.7,14.7,12.1,,,,,21.0,202.0,21.0,149.0,21.0,243.0,22.0,215.0,,,-29.0,0.0,,25.1,3.0,0.0,,,0.654,0.856,16.1,17.6,,,,,,1027.0,2026-05-09 12:02:19-07:00
132.06,1.0,10.0,2026-05-09 19:04:27,37.08169,-121.59968,389.0,0.1,234.1,-12.6,,,,,19:04:26,10.7,-0.4,358.3,0.0,198.0,0.0,-0.01,1.0,99.0,-58.0,26.0,0.0,29.89,1541.0,,,147.0,,,,,0.0,0.0,,,,,,,,,,,,,,,,,,,20.0,18.0,1001.0,1001.0,16.5,3.2,,3.2,25.2,,,38.5,0.0,0.0,-0.7,14.7,12.1,,,,,21.0,239.0,21.0,170.0,22.0,273.0,22.0,247.0,,,-29.0,0.0,,25.2,3.0,0.0,,,0.654,0.858,20.0,17.5,,,,,,1001.0,2026-05-09 12:02:19-07:00
133.06,1.0,10.0,2026-05-09 19:04:28,37.08169,-121.59968,388.0,0.0,234.1,-12.6,,,,,19:04:27,10.7,-0.4,358.4,0.0,198.0,0.0,-0.01,1.0,99.0,-82.0,26.0,0.0,29.89,1551.0,,,147.0,,,,,0.0,0.0,,,,,,,,,,,,,,,,,,,25.0,18.0,877.0,877.0,15.5,3.1,,3.1,25.4,,,38.5,0.0,0.0,-0.7,14.7,12.1,,,,,21.0,270.0,21.0,188.0,22.0,298.0,23.0,276.0,,,-29.0,0.0,,25.4,3.0,0.0,,,0.653,0.864,24.7,17.5,,,,,,877.0,2026-05-09 12:02:19-07:00
134.06,1.0,10.0,2026-05-09 19:04:29,37.08169,-121.59968,388.0,0.0,234.1,-12.6,,,,,19:04:28,10.7,-0.4,358.4,0.0,196.0,0.0,-0.01,1.0,99.0,-88.0,26.0,0.0,29.89,1551.0,,,147.0,,,,,0.0,0.0,,,,,,,,,,,,,,,,,,,30.0,18.0,897.0,897.0,15.6,2.9,,2.9,25.5,,,38.5,0.0,0.0,-0.7,14.7,12.1,,,,,21.0,294.0,21.0,212.0,22.0,318.0,24.0,300.0,,,-29.0,0.0,,25.5,3.0,0.0,,,0.657,0.864,30.0,17.5,,,,,,897.0,2026-05-09 12:02:19-07:00
135.06,1.0,10.0,2026-05-09 19:04:30,37.08168,-121.59968,387.0,0.0,234.1,-12.6,,,,,19:04:29,10.7,-0.4,358.4,0.0,195.0,0.0,-0.01,1.0,99.0,-78.0,26.0,0.0,29.89,1551.0,,,147.0,,,,,0.0,0.0,,,,,,,,,,,,,,,,,,,36.0,18.0,917.0,917.0,15.3,2.7,,2.7,25.5,,,38.5,0.0,0.0,-0.7,14.7,12.1,,,,,22.0,314.0,21.0,242.0,23.0,336.0,24.0,320.0,,,-29.0,0.0,,25.5,3.0,0.0,,,0.654,0.87,36.1,17.5,,,,,,917.0,2026-05-09 12:02:19-07:00
136.06,1.0,10.0,2026-05-09 19:04:31,37.08168,-121.59968,386.0,0.0,234.1,-12.6,,,,,19:04:30,10.7,-0.5,358.4,0.0,195.0,0.0,-0.01,1.0,99.0,-38.0,26.0,0.0,29.89,1558.0,,,147.0,,,,,0.0,0.0,,,,,,,2.0,,,-16.0,,,,,,,,,43.0,17.0,930.0,930.0,15.0,2.6,,2.6,25.6,,,38.5,0.0,0.0,-0.7,14.7,12.1,,,,,22.0,334.0,22.0,271.0,23.0,354.0,24.0,337.0,,,-29.0,0.0,,25.6,3.0,0.0,,,0.653,0.865,42.7,17.5,,,,,,930.0,2026-05-09 12:02:19-07:00
137.06,1.0,10.0,2026-05-09 19:04:32,37.08168,-121.59967,385.0,0.0,234.1,-12.6,,,,,19:04:31,10.7,-0.4,358.4,0.0,195.0,0.1,-0.01,1.0,99.0,-2.0,26.0,0.0,29.89,1558.0,,,147.0,,,,,0.0,0.0,,,,,,,2.0,,,-25.0,,,,,,,,,50.0,17.0,927.0,927.0,14.8,2.4,,2.4,25.6,,,38.5,0.0,0.0,-0.6,14.7,12.1,,,,,22.0,349.0,22.0,297.0,24.0,369.0,25.0,356.0,,,-29.0,0.0,,25.6,3.0,0.0,,,0.653,0.873,49.6,17.5,,,,,,927.0,2026-05-09 12:02:19-07:00
138.06,1.0,10.0,2026-05-09 19:04:33,37.08168,-121.59967,385.0,0.0,234.1,-12.6,,,,,19:04:32,10.7,-0.5,358.4,0.0,195.0,0.0,-0.01,1.0,99.0,23.0,26.0,0.0,29.89,1559.0,,,147.0,,,,,0.0,0.0,,,,,,,2.0,,,-33.0,,,,,,,,,56.0,17.0,941.0,941.0,14.7,2.4,,2.4,25.7,,,38.5,0.0,0.0,-0.6,14.7,12.1,,,,,23.0,364.0,22.0,319.0,24.0,384.0,25.0,374.0,,,-29.0,0.0,,25.7,3.0,0.0,,,0.654,0.859,56.2,17.5,,,,,,941.0,2026-05-09 12:02:19-07:00
139.06,1.0,10.0,2026-05-09 19:04:34,37.08159,-121.59961,345.0,0.0,234.1,-12.6,,,,,19:04:33,10.6,-0.5,358.3,0.0,195.0,0.0,-0.01,1.0,99.0,24.0,26.0,0.0,29.89,1559.0,,,147.0,,,,,0.0,0.0,,,,,,,2.0,,,-38.0,,,,,,,,,62.0,17.0,951.0,951.0,14.5,2.3,,2.3,25.7,,,38.5,0.0,0.0,-0.6,14.7,12.1,,,,,23.0,377.0,23.0,338.0,24.0,398.0,26.0,389.0,,,-29.0,0.0,,25.7,3.0,0.0,,,0.654,0.856,62.0,17.5,,,,,,951.0,2026-05-09 12:02:19-07:00
140.06,1.0,10.0,2026-05-09 19:04:35,37.08159,-121.59961,344.0,0.1,234.1,-12.6,,,,,19:04:34,10.7,-0.5,358.3,0.0,195.0,0.0,-0.01,1.0,99.0,25.0,26.0,0.0,29.89,1559.0,,,147.0,,,,,0.0,0.0,,,,,,,2.0,,,-40.0,,,,,3.0,0.0,0.0,1200.0,67.0,17.0,953.0,953.0,14.3,2.2,,2.2,25.7,,,38.5,0.0,0.0,-0.6,14.7,12.1,,,,,24.0,388.0,23.0,356.0,25.0,410.0,26.0,404.0,,,-29.0,0.0,,25.7,3.0,0.0,,,0.653,0.852,66.6,17.5,,,,,,953.0,2026-05-09 12:02:19-07:00
141.06,2.0,10.0,2026-05-09 19:04:36,37.08159,-121.59962,349.0,0.0,234.1,-12.6,,,,,19:04:35,10.7,-0.5,358.3,0.0,195.0,0.0,-0.01,1.0,99.0,22.0,26.0,0.0,29.89,1569.0,,,147.0,,,,,0.0,0.0,,,,,,,2.0,,,-42.0,,,,,1.0,1.0,0.0,1200.0,70.0,17.0,956.0,956.0,14.1,2.1,,2.1,25.6,,,38.5,0.0,0.0,-0.6,14.7,12.1,,,,,24.0,400.0,24.0,372.0,25.0,422.0,27.0,417.0,,,-29.0,0.0,,25.6,3.0,0.0,,,0.654,0.851,69.9,17.5,,,,,,956.0,2026-05-09 12:02:19-07:00
142.06,2.0,10.0,2026-05-09 19:04:37,37.08159,-121.59962,350.0,0.0,234.1,-12.6,,,,,19:04:36,10.7,-0.5,358.3,0.0,195.0,0.0,-0.01,1.0,99.0,16.0,26.0,0.0,29.89,1569.0,,,147.0,,,,,0.0,0.0,,,,,,,2.0,,,-42.0,,,,,1.0,0.0,0.0,1200.0,72.0,17.0,960.0,960.0,14.0,2.0,,2.0,25.6,,,38.5,0.0,0.0,-0.6,14.7,12.1,,,,,24.0,410.0,24.0,386.0,25.0,431.0,27.0,429.0,,,-29.0,0.0,,25.6,3.0,0.0,,,0.653,0.85,72.3,17.5,,,,,,960.0,2026-05-09 12:02:19-07:00
143.06,2.0,10.0,2026-05-09 19:04:38,37.08159,-121.59962,350.0,0.1,234.1,-12.6,,,,,19:04:37,10.7,-0.5,358.3,0.0,195.0,0.0,-0.01,1.0,99.0,1.0,26.0,0.0,29.89,1569.0,,,147.0,,,,,0.0,0.0,,,,,,,8.0,,,-43.0,,,,,,,,,74.0,17.0,943.0,943.0,14.1,2.0,,2.0,25.6,,,38.5,0.0,0.0,-0.6,14.7,12.1,,,,,25.0,418.0,24.0,400.0,26.0,441.0,28.0,439.0,,,-29.0,0.0,,25.6,3.0,0.0,,,0.653,0.85,73.9,17.5,,,,,,943.0,2026-05-09 12:02:19-07:00
144.06,2.0,10.0,2026-05-09 19:04:39,37.08159,-121.59962,350.0,0.0,234.1,-12.6,,,,,19:04:38,10.7,-0.4,358.3,0.0,195.0,0.0,-0.01,1.0,99.0,-30.0,26.0,0.0,29.89,1579.0,,,147.0,,,,,0.0,0.0,,,,,,,12.0,,,-46.0,,,,,,,,,75.0,17.0,962.0,962.0,14.1,2.0,,2.0,25.6,,,38.5,0.0,0.0,-0.6,14.7,12.1,,,,,25.0,427.0,25.0,412.0,26.0,452.0,28.0,448.0,,,-29.0,0.0,,25.6,3.0,0.0,,,0.653,0.85,74.9,17.5,,,,,,962.0,2026-05-09 12:02:19-07:00
145.06,2.0,10.0,2026-05-09 19:04:40,37.08159,-121.59962,351.0,0.1,234.1,-12.6,,,,,19:04:39,10.7,-0.4,358.4,0.0,195.0,0.0,-0.01,0.9,99.0,-3.0,26.0,0.0,29.89,1579.0,,,147.0,,,,,0.0,0.0,,,,,,,12.0,,,-49.0,,,,,,,,,76.0,18.0,959.0,959.0,14.1,1.9,,1.9,25.6,,,38.5,0.0,0.0,-0.5,14.7,12.1,,,,,26.0,435.0,25.0,422.0,27.0,460.0,29.0,461.0,,,-29.0,0.0,,25.6,3.0,0.0,,,0.653,0.85,75.5,17.5,,,,,,959.0,2026-05-09 12:02:19-07:00
146.06,2.0,10.0,2026-05-09 19:04:41,37.08158,-121.59962,354.0,0.0,234.1,-12.6,,,,,19:04:40,10.7,-0.5,358.4,0.0,195.0,0.0,-0.01,1.0,99.0,36.0,26.0,0.0,29.89,1579.0,,,147.0,,,,,0.0,0.0,,,,,,,12.0,,,-50.0,,,,,,,,,76.0,18.0,959.0,959.0,14.2,1.9,,1.9,25.6,,,38.5,0.0,0.0,-0.5,14.7,12.1,,,,,26.0,442.0,26.0,430.0,27.0,470.0,29.0,468.0,,,-29.0,0.0,,25.6,3.0,0.0,,,0.653,0.85,75.9,17.5,,,,,,959.0,2026-05-09 12:02:19-07:00
147.06,2.0,10.0,2026-05-09 19:04:42,37.08158,-121.59962,355.0,0.0,234.1,-12.6,,,,,19:04:41,10.7,-0.5,358.3,0.0,195.0,0.0,-0.01,0.9,99.0,39.0,26.0,0.0,29.89,1579.0,,,147.0,,,,,0.0,0.0,,,,,,,12.0,,,-51.0,,,,,,,,,76.0,18.0,954.0,954.0,14.1,1.9,,1.9,25.6,,,38.5,0.0,0.0,-0.4,14.7,12.1,,,,,26.0,449.0,26.0,437.0,27.0,479.0,30.0,477.0,,,-30.0,0.0,,25.6,3.0,0.0,,,0.653,0.848,76.2,17.5,,,,,,954.0,2026-05-09 12:02:19-07:00
148.06,2.0,10.0,2026-05-09 19:04:43,37.08158,-121.59962,355.0,0.1,234.1,-12.6,,,,,19:04:42,10.7,-0.5,358.3,0.0,195.0,0.0,-0.01,1.0,99.0,54.0,26.0,0.0,29.89,1580.0,,,147.0,,,,,0.0,0.0,,,,,,,12.0,,,-53.0,,,,,,,,,76.0,18.0,952.0,952.0,14.2,1.9,,1.9,25.6,,,38.5,0.0,0.0,-0.4,14.7,12.1,,,,,27.0,457.0,27.0,444.0,28.0,485.0,30.0,486.0,,,-30.0,0.0,,25.6,3.0,0.0,,,0.654,0.85,76.4,17.5,,,,,,952.0,2026-05-09 12:02:19-07:00
