Session Time,GPS Fix Quality,Number of Satellites,GPS Date & Time,Latitude (deg),Longitude (deg),GPS Altitude (feet),Ground Speed (knots),Ground Track (deg),Mag Var (deg),Cross Track Error (NM),Destination Waypoint ID,Range to Destination (NM),Bearing to Destination (deg),System Time,Pitch (deg),Roll (deg),Magnetic Heading (deg),Indicated Airspeed (knots),Pressure Altitude (ft),Turn Rate (deg/s),Lateral Accel (g),Vertical Accel(g),Angle of Attack (%),Vertical Speed (ft/min),OAT (deg C),True Airspeed (knots),Barometer Setting (inHg),Density Altitude (ft),Wind Direction (deg),Wind Speed (knots),Heading Bug (deg),Altitude Bug (ft),Airspeed Bug (knots),Vertical Speed Bug (ft/min),Course (deg),CDI Source Type,CDI Source Port,CDI Scale (NM),CDI Deflection (%),Glideslope (%),AP Engaged,AP Roll Mode,AP Roll Force,AP Roll Position (steps),AP Roll Slip (bool),AP Pitch Force,AP Pitch Position (steps),AP Pitch Slip (bool),AP Yaw Force,AP Yaw Position,AP Yaw Slip (bool),Transponder Status,Transponder Reply (bool),Transponder Identing (bool),Transponder Code (octal),Oil Pressure (PSI),Oil Temp (deg C),RPM L,RPM R,Manifold Pressure (inHg),Fuel Flow 1 (gal/hr),Fuel Flow 2 (gal/hr),Total Fuel Flow (gal/hr),Fuel Pressure (PSI),Fuel Level L (gal),Fuel Level R (gal),Fuel Remaining (gal),Volts 1,Volts 2,Amps,Hobbs Time,Tach Time,Thermocouple 1 (deg C),Thermocouple 2 (deg C),Thermocouple 3 (deg C),Thermocouple 4 (deg C),CHT 4 (deg C),EGT 4 (deg C),CHT 3 (deg C),EGT 3 (deg C),CHT 2 (deg C),EGT 2 (deg C),CHT 1 (deg C),EGT 1 (deg C),Thermocouple 13 (deg C),Thermocouple 14 (deg C),ELEV POSITION (%),CO PPM PRESSURE (PSI),GP Input 3,FUEL PRESSURE (PSI),AILERN POSITION (%),CANOPY CONTACT (V),GP Input 7,GP Input 8,LEFT LEVEL (Sensor V),RIGHT LEVEL (Sensor V),OIL PRESSURE (PSI),OIL TEMPERATURE (deg C),GP Input 13,Contacts,Percent Power,EGT Leaning State,Unnamed: 103,RPM,Flight ID
6.06,1.0,5.0,2026-02-14 01:11:43,37.08173,-121.59956,481.0,0.0,27.5,-12.6,,,,,01:11:43,10.8,-1.5,51.3,0.0,133.0,-0.0,-0.03,1.0,,-112.0,17.0,0.0,30.11,365.0,,,326.0,,,,,0.0,0.0,,,,,,,,,,,,,,,,,,,0.0,38.0,0.0,0.0,30.2,0.0,,0.0,0.6,,,35.9,0.0,0.0,-0.7,1.4,0.6,,,,,57.0,31.0,55.0,32.0,55.0,33.0,53.0,31.0,,,-16.0,254.5,,0.6,-7.0,0.0,,,0.658,0.791,0.0,37.6,,,,,,0.0,2026-02-13 17:11:43-08:00
7.06,1.0,8.0,2026-02-14 01:11:44,37.08171,-121.59962,372.0,0.0,27.5,-12.6,,,,,01:11:44,10.8,-1.5,51.3,0.0,132.0,-0.0,-0.03,1.0,,-107.0,17.0,0.0,30.11,365.0,,,326.0,,,,,0.0,0.0,,,,,,,,,,,,,,,,,,,0.0,38.0,0.0,0.0,30.2,0.0,,0.0,0.6,,,35.9,0.0,0.0,-0.7,1.4,0.6,,,,,57.0,31.0,55.0,32.0,55.0,33.0,53.0,31.0,,,-16.0,254.5,,0.6,-7.0,0.0,,,0.658,0.791,0.0,37.5,,,,,,0.0,2026-02-13 17:11:43-08:00
8.06,1.0,8.0,2026-02-14 01:11:45,37.08167,-121.59962,376.0,0.0,27.5,-12.6,,,,,01:11:45,10.8,-1.5,51.2,0.0,130.0,-0.0,-0.03,1.0,,-102.0,17.0,0.0,30.11,365.0,,,326.0,,,,,0.0,0.0,,,,,,,,,,,,,,,,,,,0.0,38.0,0.0,0.0,30.2,0.0,,0.0,0.6,,,35.9,0.0,0.0,-0.7,1.4,0.6,,,,,57.0,31.0,55.0,32.0,55.0,33.0,53.0,31.0,,,-16.0,254.5,,0.6,-7.0,0.0,,,0.658,0.791,0.0,37.5,,,,,,0.0,2026-02-13 17:11:43-08:00
9.06,1.0,8.0,2026-02-14 01:11:46,37.08167,-121.59962,375.0,0.0,27.5,-12.6,,,,,01:11:46,10.8,-1.6,51.2,0.0,130.0,-0.0,-0.03,1.0,,-82.0,17.0,0.0,30.11,361.0,,,326.0,,,,,0.0,0.0,,,,,,,,,,,,,,,,,,,0.0,38.0,0.0,0.0,30.2,0.0,,0.0,0.6,,,35.9,0.0,0.0,-0.7,1.4,0.6,,,,,57.0,31.0,55.0,32.0,55.0,33.0,53.0,31.0,,,-16.0,254.5,,0.6,-7.0,0.0,,,0.658,0.791,0.0,37.5,,,,,,0.0,2026-02-13 17:11:43-08:00
10.06,1.0,8.0,2026-02-14 01:11:47,37.08167,-121.59962,375.0,0.0,27.5,-12.6,,,,,01:11:47,10.8,-1.5,51.2,0.0,129.0,-0.0,-0.03,1.0,,-54.0,17.0,0.0,30.11,361.0,,,326.0,,,,,0.0,0.0,,,,,,,,,,,,,,,,,,,0.0,38.0,0.0,0.0,30.2,0.0,,0.0,0.6,,,35.9,0.0,0.0,-0.7,1.4,0.6,,,,,57.0,31.0,55.0,32.0,55.0,33.0,53.0,31.0,,,-16.0,254.5,,0.6,-7.0,0.0,,,0.658,0.791,0.0,37.5,,,,,,0.0,2026-02-13 17:11:43-08:00
11.06,1.0,9.0,2026-02-14 01:11:48,37.08166,-121.59963,381.0,0.0,27.5,-12.6,,,,,01:11:48,10.8,-1.5,51.2,0.0,129.0,-0.0,-0.03,1.0,,-28.0,17.0,0.0,30.11,361.0,,,326.0,,,,,0.0,0.0,,,,,,,,,,,,,,,,,,,0.0,38.0,0.0,0.0,30.2,0.0,,0.0,0.6,,,35.9,0.0,0.0,-0.7,1.4,0.6,,,,,57.0,31.0,55.0,32.0,55.0,33.0,53.0,31.0,,,-16.0,254.4,,0.6,-7.0,0.0,,,0.658,0.791,0.0,37.5,,,,,,0.0,2026-02-13 17:11:43-08:00
12.06,1.0,9.0,2026-02-14 01:11:49,37.08165,-121.59964,385.0,0.1,27.5,-12.6,,,,,01:11:49,10.8,-1.6,51.3,0.0,129.0,0.0,-0.03,1.0,,-23.0,17.0,0.0,30.11,360.0,,,326.0,,,,,0.0,0.0,,,,,,,,,,,,,,,,,,,0.0,38.0,0.0,0.0,30.2,0.0,,0.0,0.6,,,35.9,0.0,0.0,-0.7,1.4,0.6,,,,,57.0,31.0,55.0,32.0,55.0,33.0,53.0,31.0,,,-16.0,254.4,,0.6,-7.0,0.0,,,0.658,0.791,0.0,37.5,,,,,,0.0,2026-02-13 17:11:43-08:00
13.06,1.0,9.0,2026-02-14 01:11:50,37.08165,-121.59964,385.0,0.0,27.5,-12.6,,,,,01:11:50,10.8,-1.5,51.3,0.0,128.0,0.0,-0.03,1.0,,-31.0,17.0,0.0,30.11,360.0,,,326.0,,,,,0.0,0.0,,,,,,,,,,,,,,,,,,,0.0,38.0,0.0,0.0,30.2,0.0,,0.0,0.6,,,35.9,0.0,0.0,-0.7,1.4,0.6,,,,,57.0,31.0,55.0,32.0,55.0,33.0,53.0,32.0,,,-16.0,254.4,,0.6,-7.0,0.0,,,0.658,0.791,0.0,37.5,,,,,,0.0,2026-02-13 17:11:43-08:00
14.06,1.0,9.0,2026-02-14 01:11:51,37.08165,-121.59964,385.0,0.0,27.5,-12.6,,,,,01:11:51,10.8,-1.6,51.2,0.0,128.0,-0.0,-0.03,1.0,,-5.0,17.0,0.0,30.11,360.0,,,326.0,,,,,0.0,0.0,,,,,,,,,,,,,,,,,,,0.0,38.0,0.0,0.0,30.2,0.0,,0.0,0.6,,,35.9,0.0,0.0,-0.7,1.4,0.6,,,,,57.0,31.0,55.0,32.0,55.0,33.0,53.0,31.0,,,-16.0,254.4,,0.6,-7.0,0.0,,,0.658,0.791,0.0,37.5,,,,,,0.0,2026-02-13 17:11:43-08:00
15.06,1.0,9.0,2026-02-14 01:11:52,37.08165,-121.59964,386.0,0.0,27.5,-12.6,,,,,01:11:52,10.8,-1.6,51.2,0.0,126.0,-0.0,-0.03,1.0,,-42.0,17.0,0.0,30.11,357.0,,,326.0,,,,,0.0,0.0,,,,,,,,,,,,,,,,,,,0.0,38.0,0.0,0.0,30.2,0.0,,0.0,0.6,,,35.9,0.0,0.0,-0.7,1.4,0.6,,,,,57.0,31.0,55.0,32.0,55.0,33.0,53.0,32.0,,,-16.0,254.4,,0.6,-7.0,0.0,,,0.658,0.791,0.0,37.5,,,,,,0.0,2026-02-13 17:11:43-08:00
16.06,1.0,9.0,2026-02-14 01:11:53,37.08165,-121.59964,386.0,0.0,27.5,-12.6,,,,,01:11:53,10.8,-1.5,51.2,0.0,125.0,-0.0,-0.03,1.0,,-70.0,17.0,0.0,30.11,357.0,,,326.0,,,,,0.0,0.0,,,,,,,,,,,,,,,,,,,0.0,38.0,0.0,0.0,30.2,0.0,,0.0,0.6,,,35.9,0.0,0.0,-0.7,1.4,0.6,,,,,57.0,31.0,55.0,32.0,55.0,33.0,53.0,32.0,,,-16.0,254.4,,0.6,-7.0,0.0,,,0.658,0.791,0.0,37.5,,,,,,0.0,2026-02-13 17:11:43-08:00
17.06,1.0,9.0,2026-02-14 01:11:54,37.08165,-121.59964,386.0,0.0,27.5,-12.6,,,,,01:11:54,10.8,-1.5,51.2,0.0,123.0,-0.0,-0.03,1.0,,-83.0,17.0,0.0,30.11,357.0,,,326.0,,,,,0.0,0.0,,,,,,,,,,,,,,,,,,,0.0,38.0,0.0,0.0,30.2,0.0,,0.0,0.6,,,35.9,0.0,0.0,-0.7,1.4,0.6,,,,,57.0,31.0,55.0,32.0,55.0,33.0,53.0,32.0,,,-16.0,254.4,,0.6,-7.0,0.0,,,0.658,0.791,0.0,37.5,,,,,,0.0,2026-02-13 17:11:43-08:00
18.06,1.0,9.0,2026-02-14 01:11:55,37.08165,-121.59964,387.0,0.0,27.5,-12.6,,,,,01:11:55,10.8,-1.5,51.3,0.0,122.0,0.0,-0.03,1.0,,-65.0,17.0,0.0,30.11,352.0,,,326.0,,,,,0.0,0.0,,,,,,,,,,,,,,,,,,,0.0,37.0,0.0,0.0,30.2,0.0,,0.0,0.6,,,35.9,0.0,0.0,-0.7,1.4,0.6,,,,,57.0,31.0,55.0,32.0,55.0,33.0,53.0,32.0,,,-16.0,254.4,,0.6,-7.0,0.0,,,0.658,0.791,0.0,37.5,,,,,,0.0,2026-02-13 17:11:43-08:00
19.06,1.0,9.0,2026-02-14 01:11:56,37.08165,-121.59964,387.0,0.1,27.5,-12.6,,,,,01:11:56,10.8,-1.5,51.3,0.0,121.0,-0.0,-0.03,1.0,,-57.0,17.0,0.0,30.11,352.0,,,326.0,,,,,0.0,0.0,,,,,,,,,,,,,,,,,,,0.0,37.0,0.0,0.0,30.2,0.0,,0.0,0.6,,,35.9,0.0,0.0,-0.7,1.4,0.6,,,,,57.0,31.0,55.0,32.0,55.0,33.0,53.0,32.0,,,-16.0,254.4,,0.6,-7.0,0.0,,,0.658,0.791,0.0,37.5,,,,,,0.0,2026-02-13 17:11:43-08:00
20.06,1.0,9.0,2026-02-14 01:11:57,37.08165,-121.59964,388.0,0.0,27.5,-12.6,,,,,01:11:57,10.8,-1.6,51.2,0.0,121.0,-0.0,-0.03,1.0,,-45.0,17.0,0.0,30.11,352.0,,,326.0,,,,,0.0,0.0,,,,,,,,,,,,,,,,,,,0.0,38.0,0.0,0.0,30.2,0.0,,0.0,0.6,,,35.9,0.0,0.0,-0.7,1.4,0.6,,,,,57.0,31.0,55.0,32.0,55.0,33.0,53.0,32.0,,,-16.0,254.4,,0.6,-7.0,0.0,,,0.658,0.791,0.0,37.5,,,,,,0.0,2026-02-13 17:11:43-08:00
21.06,1.0,9.0,2026-02-14 01:11:58,37.08165,-121.59964,389.0,0.0,27.5,-12.6,,,,,01:11:58,10.8,-1.6,51.2,0.0,121.0,-0.0,-0.03,1.0,,-22.0,17.0,0.0,30.11,351.0,,,326.0,,,,,0.0,0.0,,,,,,,,,,,,,,,,,,,0.0,38.0,0.0,0.0,30.2,0.0,,0.0,0.6,,,35.9,0.0,0.0,-0.7,1.4,0.6,,,,,57.0,31.0,55.0,32.0,55.0,33.0,53.0,32.0,,,-16.0,254.4,,0.6,-7.0,0.0,,,0.658,0.791,0.0,37.5,,,,,,0.0,2026-02-13 17:11:43-08:00
22.06,1.0,9.0,2026-02-14 01:11:59,37.08164,-121.59964,390.0,0.0,27.5,-12.6,,,,,01:11:59,10.8,-1.6,51.2,0.0,121.0,-0.0,-0.03,1.0,,-5.0,17.0,0.0,30.11,352.0,,,326.0,,,,,0.0,0.0,,,,,,,,,,,,,,,,,,,0.0,37.0,0.0,0.0,30.2,0.0,,0.0,0.6,,,35.9,0.0,0.0,-0.7,1.4,0.6,,,,,57.0,31.0,55.0,32.0,55.0,33.0,53.0,32.0,,,-16.0,254.4,,0.6,-7.0,0.0,,,0.658,0.791,0.0,37.5,,,,,,0.0,2026-02-13 17:11:43-08:00
23.06,1.0,9.0,2026-02-14 01:12:00,37.08164,-121.59964,390.0,0.0,27.5,-12.6,,,,,01:12:00,10.8,-1.6,51.2,0.0,121.0,0.0,-0.03,1.0,,32.0,17.0,0.0,30.11,352.0,,,326.0,,,,,0.0,0.0,,,,,,,,,,,,,,,,,,,0.0,37.0,0.0,0.0,30.2,0.0,,0.0,0.6,,,35.9,0.0,0.0,-0.7,1.4,0.6,,,,,57.0,31.0,55.0,32.0,55.0,33.0,53.0,32.0,,,-16.0,254.4,,0.6,-7.0,0.0,,,0.658,0.791,0.0,37.5,,,,,,0.0,2026-02-13 17:11:43-08:00
24.06,1.0,9.0,2026-02-14 01:12:01,37.08164,-121.59964,391.0,0.0,27.5,-12.6,,,,,01:12:01,10.7,-1.6,51.2,0.0,121.0,-0.0,-0.03,1.0,,18.0,17.0,0.0,30.11,352.0,,,326.0,,,,,0.0,0.0,,,,,,,,,,,,,,,,,,,0.0,37.0,0.0,0.0,30.2,0.0,,0.0,0.6,,,35.9,0.0,0.0,-0.7,1.4,0.6,,,,,57.0,31.0,55.0,32.0,55.0,33.0,53.0,32.0,,,-16.0,254.4,,0.6,-7.0,0.0,,,0.658,0.791,0.0,37.5,,,,,,0.0,2026-02-13 17:11:43-08:00
25.06,1.0,9.0,2026-02-14 01:12:02,37.08164,-121.59964,392.0,0.0,27.5,-12.6,,,,,01:12:02,10.8,-1.6,51.2,0.0,121.0,-0.0,-0.03,1.0,,13.0,17.0,0.0,30.11,361.0,,,326.0,,,,,0.0,0.0,,,,,,,,,,,,,,,,,,,0.0,37.0,0.0,0.0,30.2,0.0,,0.0,0.6,,,35.9,0.0,0.0,-0.7,1.4,0.6,,,,,57.0,31.0,55.0,32.0,55.0,33.0,53.0,32.0,,,-16.0,254.4,,0.6,-7.0,0.0,,,0.658,0.791,0.0,37.5,,,,,,0.0,2026-02-13 17:11:43-08:00
26.06,1.0,9.0,2026-02-14 01:12:03,37.08164,-121.59964,392.0,0.0,27.5,-12.6,,,,,01:12:03,10.8,-1.6,51.2,0.0,121.0,-0.0,-0.03,1.0,,-1.0,17.0,0.0,30.11,361.0,,,326.0,,,,,0.0,0.0,,,,,,,,,,,,,,,,,,,0.0,38.0,0.0,0.0,30.2,0.0,,0.0,0.6,,,35.9,0.0,0.0,-0.7,1.4,0.6,,,,,57.0,31.0,55.0,32.0,55.0,33.0,53.0,32.0,,,-16.0,254.4,,0.6,-7.0,0.0,,,0.658,0.791,0.0,37.5,,,,,,0.0,2026-02-13 17:11:43-08:00
27.06,1.0,9.0,2026-02-14 01:12:04,37.08164,-121.59964,393.0,0.0,27.5,-12.6,,,,,01:12:04,10.8,-1.6,51.2,0.0,121.0,-0.0,-0.03,1.0,,22.0,17.0,0.0,30.11,361.0,,,326.0,,,,,0.0,0.0,,,,,,,,,,,,,,,,,,,0.0,37.0,0.0,0.0,30.2,0.0,,0.0,0.6,,,35.9,0.0,0.0,-0.7,1.4,0.6,,,,,57.0,31.0,55.0,32.0,55.0,33.0,53.0,32.0,,,-16.0,254.4,,0.6,-7.0,0.0,,,0.658,0.791,0.0,37.5,,,,,,0.0,2026-02-13 17:11:43-08:00
28.06,1.0,9.0,2026-02-14 01:12:05,37.08164,-121.59964,393.0,0.0,27.5,-12.6,,,,,01:12:05,10.8,-1.6,51.2,0.0,121.0,-0.0,-0.03,1.0,,21.0,17.0,0.0,30.11,351.0,,,326.0,,,,,0.0,0.0,,,,,,,,,,,,,,,,,,,0.0,38.0,0.0,0.0,30.2,0.0,,0.0,0.6,,,35.9,0.0,0.0,-0.7,1.4,0.6,,,,,57.0,31.0,55.0,32.0,55.0,33.0,53.0,32.0,,,-16.0,254.4,,0.6,-7.0,0.0,,,0.658,0.791,0.0,37.5,,,,,,0.0,2026-02-13 17:11:43-08:00
29.06,1.0,9.0,2026-02-14 01:12:06,37.08164,-121.59963,393.0,0.0,27.5,-12.6,,,,,01:12:06,10.8,-1.6,51.1,0.0,121.0,-0.0,-0.03,1.0,,-5.0,17.0,0.0,30.11,352.0,,,326.0,,,,,0.0,0.0,,,,,,,,,,,,,,,,,,,0.0,37.0,0.0,0.0,30.2,0.0,,0.0,0.6,,,35.9,0.0,0.0,-0.7,1.4,0.6,,,,,57.0,31.0,55.0,32.0,55.0,33.0,53.0,32.0,,,-16.0,254.4,,0.6,-7.0,0.0,,,0.658,0.791,0.0,37.5,,,,,,0.0,2026-02-13 17:11:43-08:00
30.06,1.0,9.0,2026-02-14 01:12:07,37.08164,-121.59963,393.0,0.0,27.5,-12.6,,,,,01:12:07,10.8,-1.6,51.0,0.0,121.0,-0.0,-0.03,1.0,,-26.0,17.0,0.0,30.11,352.0,,,326.0,,,,,0.0,0.0,,,,,,,,,,,,,,,,,,,0.0,37.0,0.0,0.0,30.2,0.0,,0.0,0.6,,,35.9,0.0,0.0,-0.7,1.4,0.6,,,,,57.0,31.0,55.0,32.0,55.0,33.0,53.0,32.0,,,-16.0,254.4,,0.6,-7.0,0.0,,,0.658,0.791,0.0,37.5,,,,,,0.0,2026-02-13 17:11:43-08:00
31.06,1.0,9.0,2026-02-14 01:12:08,37.08164,-121.59963,393.0,0.0,27.5,-12.6,,,,,01:12:08,10.9,-1.6,51.0,0.0,120.0,0.0,-0.03,1.0,,-57.0,17.0,0.0,30.11,352.0,,,326.0,,,,,0.0,0.0,,,,,,,,,,,,,,,,,,,0.0,37.0,0.0,0.0,30.2,0.0,,0.0,0.6,,,35.9,0.0,0.0,-0.7,1.4,0.6,,,,,57.0,31.0,55.0,32.0,55.0,33.0,53.0,32.0,,,-16.0,254.4,,0.6,-7.0,0.0,,,0.658,0.791,0.0,37.5,,,,,,0.0,2026-02-13 17:11:43-08:00
32.06,1.0,9.0,2026-02-14 01:12:09,37.08164,-121.59963,393.0,0.0,27.5,-12.6,,,,,01:12:09,10.9,-1.6,51.0,0.0,118.0,-0.0,-0.03,1.0,,-44.0,17.0,0.0,30.11,356.0,,,326.0,,,,,0.0,0.0,,,,,,,,,,,,,,,,,,,0.0,38.0,0.0,0.0,30.2,0.0,,0.0,0.4,,,35.9,0.0,0.0,-0.7,1.4,0.6,,,,,57.0,31.0,55.0,32.0,55.0,33.0,53.0,32.0,,,-16.0,254.4,,0.4,-7.0,0.0,,,0.658,0.791,0.0,37.5,,,,,,0.0,2026-02-13 17:11:43-08:00
33.06,1.0,9.0,2026-02-14 01:12:10,37.08164,-121.59963,393.0,0.0,27.5,-12.6,,,,,01:12:10,10.9,-1.6,51.0,0.0,118.0,-0.0,-0.03,1.0,,-33.0,17.0,0.0,30.11,356.0,,,326.0,,,,,0.0,0.0,,,,,,,,,,,,,,,,,,,0.0,37.0,0.0,0.0,30.2,0.0,,0.0,1.0,,,35.9,0.0,0.0,-0.7,1.4,0.6,,,,,57.0,31.0,55.0,32.0,55.0,33.0,53.0,32.0,,,-16.0,254.4,,1.0,-7.0,0.0,,,0.658,0.791,0.0,37.5,,,,,,0.0,2026-02-13 17:11:43-08:00
34.06,1.0,9.0,2026-02-14 01:12:11,37.08164,-121.59963,393.0,0.0,27.5,-12.6,,,,,01:12:11,10.9,-1.6,51.1,0.0,116.0,-0.0,-0.03,1.0,,-47.0,17.0,0.0,30.11,354.0,,,326.0,,,,,0.0,0.0,,,,,,,,,,,,,,,,,,,0.0,38.0,0.0,0.0,30.2,0.4,,0.4,30.6,,,35.9,0.0,0.0,-0.6,1.4,0.6,,,,,57.0,31.0,55.0,32.0,55.0,33.0,53.0,32.0,,,-16.0,254.4,,30.6,-7.0,0.0,,,0.658,0.791,0.0,37.5,,,,,,0.0,2026-02-13 17:11:43-08:00
35.06,1.0,9.0,2026-02-14 01:12:12,37.08165,-121.59963,394.0,0.0,27.5,-12.6,,,,,01:12:12,10.8,-1.6,51.0,0.0,116.0,-0.0,-0.03,1.0,,-15.0,17.0,0.0,30.11,354.0,,,326.0,,,,,0.0,0.0,,,,,,,,,,,,,,,,,,,0.0,38.0,0.0,0.0,30.2,0.5,,0.5,30.9,,,35.9,0.0,0.0,-0.6,1.4,0.6,,,,,57.0,31.0,55.0,32.0,55.0,33.0,53.0,32.0,,,-16.0,254.4,,30.9,-7.0,0.0,,,0.658,0.791,0.0,37.5,,,,,,0.0,2026-02-13 17:11:43-08:00
36.06,1.0,9.0,2026-02-14 01:12:13,37.08164,-121.59964,392.0,0.0,27.5,-12.6,,,,,01:12:13,10.9,-1.6,51.0,0.0,116.0,-0.0,-0.03,1.0,,-54.0,17.0,0.0,30.11,353.0,,,326.0,,,,,0.0,0.0,,,,,,,,,,,,,,,,,,,0.0,37.0,0.0,0.0,30.2,0.5,,0.5,30.3,,,35.9,0.0,0.0,-0.6,1.4,0.6,,,,,57.0,31.0,55.0,32.0,55.0,33.0,53.0,32.0,,,-16.0,254.4,,30.3,-7.0,0.0,,,0.658,0.791,0.0,37.5,,,,,,0.0,2026-02-13 17:11:43-08:00
37.06,1.0,9.0,2026-02-14 01:12:14,37.08164,-121.59964,392.0,0.0,27.5,-12.6,,,,,01:12:14,10.9,-1.6,51.1,0.0,113.0,-0.0,-0.03,1.0,,-55.0,17.0,0.0,30.11,350.0,,,326.0,,,,,0.0,0.0,,,,,,,,,,,,,,,,,,,0.0,37.0,0.0,0.0,30.2,0.5,,0.5,30.0,,,35.9,0.0,0.0,-0.7,1.4,0.6,,,,,57.0,31.0,55.0,32.0,55.0,33.0,53.0,32.0,,,-16.0,254.4,,30.0,-7.0,0.0,,,0.658,0.791,0.0,37.5,,,,,,0.0,2026-02-13 17:11:43-08:00
38.06,1.0,9.0,2026-02-14 01:12:15,37.08164,-121.59964,392.0,0.0,27.5,-12.6,,,,,01:12:15,10.9,-1.6,51.1,0.0,112.0,-0.0,-0.03,1.0,,-75.0,17.0,0.0,30.11,349.0,,,326.0,,,,,0.0,0.0,,,,,,,,,,,,,,,,,,,0.0,37.0,0.0,0.0,30.2,0.5,,0.5,29.9,,,35.9,0.0,0.0,-0.7,1.4,0.6,,,,,57.0,31.0,55.0,32.0,55.0,33.0,53.0,32.0,,,-16.0,254.4,,29.9,-7.0,0.0,,,0.658,0.791,0.0,37.5,,,,,,0.0,2026-02-13 17:11:43-08:00
39.06,1.0,9.0,2026-02-14 01:12:16,37.08164,-121.59964,392.0,0.0,27.5,-12.6,,,,,01:12:16,10.9,-1.6,51.1,0.0,109.0,-0.0,-0.03,1.0,,-112.0,17.0,0.0,30.11,345.0,,,326.0,,,,,0.0,0.0,,,,,,,,,,,,,,,,,,,0.0,37.0,0.0,0.0,30.2,0.0,,0.0,29.7,,,35.9,0.0,0.0,-0.7,1.4,0.6,,,,,57.0,31.0,55.0,32.0,55.0,33.0,53.0,32.0,,,-16.0,254.4,,29.7,-7.0,0.0,,,0.658,0.791,0.0,37.5,,,,,,0.0,2026-02-13 17:11:43-08:00
40.06,1.0,9.0,2026-02-14 01:12:17,37.08164,-121.59964,391.0,0.0,27.5,-12.6,,,,,01:12:17,10.9,-1.6,51.1,0.0,107.0,0.0,-0.03,1.0,,-125.0,17.0,0.0,30.11,345.0,,,326.0,,,,,0.0,0.0,,,,,,,,,,,,,,,,,,,0.0,37.0,0.0,0.0,30.2,0.0,,0.0,29.6,,,35.9,0.0,0.0,-0.7,1.4,0.6,,,,,57.0,31.0,55.0,32.0,55.0,33.0,53.0,32.0,,,-16.0,254.4,,29.6,-7.0,0.0,,,0.658,0.791,0.0,37.5,,,,,,0.0,2026-02-13 17:11:43-08:00
41.06,1.0,9.0,2026-02-14 01:12:18,37.08165,-121.59964,391.0,0.0,27.5,-12.6,,,,,01:12:18,10.9,-1.6,51.1,0.0,104.0,0.0,-0.03,1.0,,-115.0,17.0,0.0,30.11,339.0,,,326.0,,,,,0.0,0.0,,,,,,,,,,,,,,,,,,,0.0,38.0,0.0,0.0,30.2,0.0,,0.0,29.5,,,35.9,0.0,0.0,-0.7,1.4,0.6,,,,,57.0,31.0,55.0,32.0,55.0,33.0,53.0,32.0,,,-16.0,254.4,,29.5,-7.0,0.0,,,0.658,0.791,0.0,37.5,,,,,,0.0,2026-02-13 17:11:43-08:00
42.06,1.0,9.0,2026-02-14 01:12:19,37.08165,-121.59964,391.0,0.0,27.5,-12.6,,,,,01:12:19,10.9,-1.6,51.1,0.0,104.0,-0.0,-0.03,1.0,,-68.0,17.0,0.0,30.11,339.0,,,326.0,,,,,0.0,0.0,,,,,,,,,,,,,,,,,,,0.0,38.0,0.0,0.0,30.2,0.0,,0.0,29.4,,,35.9,0.0,0.0,-0.7,1.4,0.6,,,,,57.0,31.0,55.0,32.0,55.0,33.0,53.0,32.0,,,-16.0,235.2,,29.4,-7.0,0.0,,,0.658,0.791,0.0,37.5,,,,,,0.0,2026-02-13 17:11:43-08:00
43.06,1.0,9.0,2026-02-14 01:12:20,37.08165,-121.59964,390.0,0.0,27.5,-12.6,,,,,01:12:20,10.9,-1.6,51.1,0.0,103.0,-0.0,-0.03,1.0,,-74.0,17.0,0.0,30.11,338.0,,,326.0,,,,,0.0,0.0,,,,,,,,,,,,,,,,,,,0.0,37.0,0.0,0.0,30.2,0.0,,0.0,29.2,,,35.9,0.0,0.0,-0.7,1.4,0.6,,,,,57.0,31.0,55.0,32.0,55.0,33.0,53.0,32.0,,,-16.0,183.0,,29.2,-7.0,0.0,,,0.658,0.791,0.0,37.5,,,,,,0.0,2026-02-13 17:11:43-08:00
44.06,1.0,9.0,2026-02-14 01:12:21,37.08165,-121.59964,390.0,0.0,27.5,-12.6,,,,,01:12:21,10.9,-1.6,51.1,0.0,103.0,-0.0,-0.03,1.0,,-59.0,17.0,0.0,30.11,338.0,,,326.0,,,,,0.0,0.0,,,,,,,,,,,,,,,,,,,0.0,38.0,0.0,0.0,30.2,0.0,,0.0,29.1,,,35.9,0.0,0.0,-0.7,1.4,0.6,,,,,57.0,31.0,55.0,32.0,55.0,33.0,53.0,32.0,,,-16.0,142.5,,29.1,-7.0,0.0,,,0.658,0.791,0.0,37.5,,,,,,0.0,2026-02-13 17:11:43-08:00
45.06,1.0,9.0,2026-02-14 01:12:22,37.08165,-121.59964,390.0,0.1,27.5,-12.6,,,,,01:12:22,10.9,-1.5,51.1,0.0,103.0,-0.0,-0.03,1.0,,-34.0,17.0,0.0,30.11,338.0,,,326.0,,,,,0.0,0.0,,,,,,,,,,,,,,,,,,,0.0,37.0,0.0,0.0,30.2,0.0,,0.0,29.0,,,35.9,0.0,0.0,-0.7,1.4,0.6,,,,,57.0,31.0,55.0,32.0,55.0,33.0,53.0,32.0,,,-16.0,111.0,,29.0,-7.0,0.0,,,0.658,0.791,0.0,37.5,,,,,,0.0,2026-02-13 17:11:43-08:00
46.06,1.0,9.0,2026-02-14 01:12:23,37.08165,-121.59964,389.0,0.0,27.5,-12.6,,,,,01:12:23,10.9,-1.6,51.1,0.0,103.0,0.0,-0.03,1.0,,-16.0,17.0,0.0,30.11,339.0,,,326.0,,,,,0.0,0.0,,,,,,,,,,,,,,,,,,,0.0,38.0,0.0,0.0,30.2,0.0,,0.0,28.9,,,35.9,0.0,0.0,-0.7,1.4,0.6,,,,,57.0,31.0,55.0,32.0,55.0,33.0,53.0,32.0,,,-16.0,86.5,,28.9,-7.0,0.0,,,0.658,0.791,0.0,37.5,,,,,,0.0,2026-02-13 17:11:43-08:00
47.06,1.0,9.0,2026-02-14 01:12:24,37.08165,-121.59964,388.0,0.0,27.5,-12.6,,,,,01:12:24,10.8,-1.7,51.0,0.0,103.0,-0.0,-0.02,1.0,,-7.0,17.0,0.0,30.11,339.0,,,326.0,,,,,0.0,0.0,,,,,,,,,,,,,,,,,,,0.0,30.0,102.0,102.0,30.2,0.0,,0.0,29.0,,,35.9,0.0,0.0,-0.7,1.4,0.6,,,,,52.0,25.0,50.0,25.0,50.0,27.0,48.0,25.0,,,-15.0,67.4,,29.0,-7.0,0.0,,,0.657,0.79,0.0,30.3,,,,,,102.0,2026-02-13 17:11:43-08:00
48.06,1.0,9.0,2026-02-14 01:12:25,37.08164,-121.59964,387.0,0.0,27.5,-12.6,,,,,01:12:25,10.9,-1.5,51.1,0.0,102.0,-0.0,-0.02,1.0,,0.0,17.0,0.0,30.11,339.0,,,326.0,,,,,0.0,0.0,,,,,,,,,,,,,,,,,,,0.0,34.0,182.0,182.0,30.0,0.0,,0.0,28.9,,,35.9,0.0,0.0,-0.6,1.4,0.6,,,,,55.0,29.0,53.0,29.0,53.0,31.0,51.0,29.0,,,-18.0,52.6,,28.9,-7.0,0.0,,,0.657,0.791,0.2,33.9,,,,,,182.0,2026-02-13 17:11:43-08:00
49.06,1.0,9.0,2026-02-14 01:12:26,37.08164,-121.59964,386.0,0.0,27.5,-12.6,,,,,01:12:26,10.9,-1.5,51.0,0.0,101.0,-0.0,-0.02,0.9,,-22.0,17.0,0.0,30.11,337.0,,,326.0,,,,,0.0,0.0,,,,,,,,,,,,,,,,,,,4.0,37.0,732.0,732.0,27.8,1.1,,1.1,24.2,,,35.9,0.0,0.0,-0.6,1.4,0.6,,,,,57.0,40.0,55.0,43.0,55.0,52.0,53.0,53.0,,,-16.0,41.1,,24.2,-7.0,0.0,,,0.664,0.792,4.4,36.8,,,,,,732.0,2026-02-13 17:11:43-08:00
50.06,1.0,9.0,2026-02-14 01:12:27,37.08164,-121.59964,385.0,0.1,27.5,-12.6,,,,,01:12:27,10.8,-1.6,51.1,0.0,101.0,-0.0,-0.02,1.0,,0.0,17.0,0.0,30.11,337.0,,,326.0,,,,,0.0,0.0,,,,,,,,,,,,,,,,,,,19.0,38.0,1024.0,1024.0,25.9,2.1,,2.1,24.5,,,35.9,0.0,0.0,-0.6,1.4,0.6,,,,,57.0,74.0,55.0,54.0,55.0,94.0,53.0,63.0,,,-16.0,32.2,,24.5,-7.0,0.0,,,0.659,0.791,19.1,37.5,,,8.0,L,,1024.0,2026-02-13 17:11:43-08:00
51.06,1.0,9.0,2026-02-14 01:12:28,37.08164,-121.59964,384.0,0.0,27.5,-12.6,,,,,01:12:28,10.8,-1.5,51.1,0.0,101.0,-0.0,-0.03,0.9,,6.0,17.0,0.0,30.11,337.0,,,326.0,,,,,0.0,0.0,,,,,,,,,,,,,,,,,,,59.0,38.0,1171.0,1171.0,21.6,2.8,,2.8,25.1,,,35.9,0.0,0.0,-0.6,1.4,0.6,,,,,58.0,115.0,55.0,67.0,55.0,153.0,54.0,129.0,,,-16.0,25.2,,25.1,-7.0,0.0,,,0.659,0.791,58.6,37.5,,,15.0,P,,1171.0,2026-02-13 17:11:43-08:00
52.06,1.0,9.0,2026-02-14 01:12:29,37.08164,-121.59964,384.0,0.0,27.5,-12.6,,,,,01:12:29,10.8,-1.6,51.1,0.0,101.0,-0.0,-0.03,1.0,,5.0,17.0,0.0,30.11,335.0,,,326.0,,,,,0.0,0.0,,,,,,,,,,,,,,,,,,,71.0,38.0,1282.0,1282.0,20.6,3.3,,3.3,25.4,,,35.9,0.0,0.0,-0.7,1.4,0.6,,,,,58.0,142.0,55.0,87.0,55.0,201.0,54.0,177.0,,,-16.0,19.8,,25.4,-7.0,0.0,,,0.659,0.792,70.6,37.5,,,18.0,R,,1282.0,2026-02-13 17:11:43-08:00
53.06,1.0,9.0,2026-02-14 01:12:30,37.08164,-121.59964,383.0,0.0,27.5,-12.6,,,,,01:12:30,10.8,-1.5,51.1,0.0,101.0,-0.0,-0.02,0.9,,68.0,17.0,0.0,30.11,335.0,,,326.0,,,,,0.0,0.0,,,,,,,,,,,,,,,,,,,76.0,37.0,1491.0,1491.0,18.8,3.8,,3.8,25.6,,,35.9,0.0,0.0,-0.7,1.4,0.6,,,,,58.0,191.0,56.0,128.0,56.0,247.0,55.0,225.0,,,-16.0,15.6,,25.6,-7.0,0.0,,,0.657,0.791,76.4,37.5,,,18.0,R,,1491.0,2026-02-13 17:11:43-08:00
54.06,1.0,9.0,2026-02-14 01:12:31,37.08164,-121.59964,382.0,0.0,27.5,-12.6,,,,,01:12:31,10.7,-1.5,51.1,0.0,101.0,-0.0,-0.03,1.0,,78.0,17.0,0.0,30.11,335.0,,,326.0,,,,,0.0,0.0,,,,,,,,,,,,,,,,,,,81.0,37.0,1599.0,1599.0,16.6,4.1,,4.1,25.7,,,35.9,0.0,0.0,-0.7,1.4,0.6,,,,,58.0,252.0,56.0,194.0,56.0,293.0,55.0,275.0,,,-16.0,12.3,,25.7,-7.0,0.0,,,0.657,0.791,81.2,37.4,,,,,,1599.0,2026-02-13 17:11:43-08:00
55.06,1.0,9.0,2026-02-14 01:12:32,37.08164,-121.59964,382.0,0.0,27.5,-12.6,,,,,01:12:32,10.8,-1.5,51.1,0.0,101.0,-0.0,-0.03,1.1,,63.0,17.0,0.0,30.11,336.0,,,326.0,,,,,0.0,0.0,,,,,,,,,,,,,,,,,,,76.0,37.0,1400.0,1400.0,15.0,4.1,,4.1,25.9,,,35.9,0.0,0.0,-0.7,1.4,0.6,,,,,58.0,305.0,57.0,249.0,57.0,332.0,56.0,316.0,,,-16.0,9.8,,25.9,-7.0,0.0,,,0.657,0.791,76.4,37.4,,,,,,1400.0,2026-02-13 17:11:43-08:00
56.06,1.0,9.0,2026-02-14 01:12:33,37.08164,-121.59964,381.0,0.0,27.5,-12.6,,,,,01:12:33,10.7,-1.5,51.2,0.0,101.0,-0.0,-0.03,1.0,,33.0,17.0,0.0,30.11,336.0,,,326.0,,,,,0.0,0.0,,,,,,,,,,,,,,,,,,,73.0,37.0,1276.0,1276.0,14.5,4.1,,4.1,25.9,,,35.9,0.0,0.0,-0.7,1.4,0.6,,,,,59.0,344.0,57.0,292.0,57.0,362.0,56.0,349.0,,,-16.0,7.8,,25.9,-7.0,0.0,,,0.657,0.791,73.2,37.4,,,,,,1276.0,2026-02-13 17:11:43-08:00
57.06,1.0,9.0,2026-02-14 01:12:34,37.08164,-121.59964,381.0,0.0,27.5,-12.6,,,,,01:12:34,10.8,-1.5,51.1,0.0,101.0,-0.0,-0.03,1.0,,22.0,17.0,0.0,30.11,336.0,,,326.0,,,,,0.0,0.0,,,,,,,,,,,,,,,,,,,69.0,37.0,1148.0,1148.0,14.0,3.8,,3.8,25.9,,,35.9,0.0,0.0,-0.7,1.4,0.6,,,,,59.0,372.0,58.0,325.0,57.0,386.0,57.0,377.0,,,-16.0,6.3,,25.9,-7.0,0.0,,,0.656,0.791,68.7,37.4,,,,,,1148.0,2026-02-13 17:11:43-08:00
58.06,1.0,9.0,2026-02-14 01:12:35,37.08164,-121.59963,380.0,0.0,27.5,-12.6,,,,,01:12:35,10.8,-1.5,51.1,0.0,101.0,-0.1,-0.03,1.0,,29.0,17.0,0.0,30.11,336.0,,,326.0,,,,,0.0,0.0,,,,,,,,,,,,,,,,,,,67.0,37.0,1084.0,1084.0,13.9,3.6,,3.6,25.9,,,35.9,0.0,0.0,-0.7,1.4,0.6,,,,,60.0,395.0,58.0,353.0,58.0,405.0,57.0,399.0,,,-16.0,5.1,,25.9,-7.0,0.0,,,0.656,0.791,66.7,37.4,,,,,,1084.0,2026-02-13 17:11:43-08:00
59.06,1.0,9.0,2026-02-14 01:12:36,37.08164,-121.59963,380.0,0.0,27.5,-12.6,,,,,01:12:36,10.8,-1.5,51.1,0.0,101.0,-0.0,-0.03,1.0,,19.0,17.0,0.0,30.11,336.0,,,326.0,,,,,0.0,0.0,,,,,,,,,,,,,,,,,,,65.0,37.0,996.0,996.0,13.7,3.4,,3.4,26.0,,,35.9,0.0,0.0,-0.7,1.4,0.6,,,,,60.0,412.0,58.0,375.0,58.0,420.0,58.0,417.0,,,-16.0,4.2,,26.0,-7.0,0.0,,,0.66,0.791,65.0,37.4,,,,,,996.0,2026-02-13 17:11:43-08:00
60.06,1.0,9.0,2026-02-14 01:12:37,37.08164,-121.59963,379.0,0.1,27.5,-12.6,,,,,01:12:37,10.8,-1.5,51.1,0.0,101.0,-0.0,-0.03,1.0,,41.0,17.0,0.0,30.11,336.0,,,326.0,,,,,0.0,0.0,,,,,,,,,,,,,,,,,,,63.0,37.0,955.0,955.0,13.8,3.2,,3.2,26.0,,,35.9,0.0,0.0,-0.7,1.4,0.6,,,,,61.0,426.0,58.0,383.0,58.0,429.0,58.0,431.0,,,-16.0,3.5,,26.0,-7.0,0.0,,,0.66,0.791,63.1,37.4,,,,,,955.0,2026-02-13 17:11:43-08:00
61.06,1.0,9.0,2026-02-14 01:12:38,37.08164,-121.59963,379.0,0.0,27.5,-12.6,,,,,01:12:38,10.8,-1.5,51.1,0.0,101.0,-0.0,-0.03,1.0,,49.0,17.0,0.0,30.11,336.0,,,326.0,,,,,0.0,0.0,,,,,,,,,,,,,,,,,,,63.0,37.0,963.0,963.0,13.9,3.1,,3.1,26.0,,,35.9,0.0,0.0,-0.7,1.4,0.6,,,,,61.0,437.0,59.0,381.0,59.0,437.0,58.0,442.0,,,-16.0,2.9,,26.0,-7.0,0.0,,,0.659,0.791,62.9,37.4,,,,,,963.0,2026-02-13 17:11:43-08:00
62.06,1.0,9.0,2026-02-14 01:12:39,37.08164,-121.59963,378.0,0.0,27.5,-12.6,,,,,01:12:39,10.8,-1.6,51.0,0.0,101.0,-0.0,-0.03,1.0,,42.0,17.0,0.0,30.11,336.0,,,326.0,,,,,0.0,0.0,,,,,,,,,,,,,,,,,,,63.0,37.0,975.0,975.0,13.8,3.0,,3.0,26.0,,,35.9,0.0,0.0,-0.7,1.4,0.6,,,,,61.0,441.0,59.0,384.0,59.0,444.0,59.0,453.0,,,-16.0,2.5,,26.0,-7.0,0.0,,,0.659,0.791,63.3,37.4,,,,,,975.0,2026-02-13 17:11:43-08:00
63.06,1.0,9.0,2026-02-14 01:12:40,37.08164,-121.59963,377.0,0.0,27.5,-12.6,,,,,01:12:40,10.8,-1.6,51.0,0.0,102.0,-0.0,-0.03,1.0,,19.0,17.0,0.0,30.11,336.0,,,326.0,,,,,0.0,0.0,,,,,,,,,,,,,,,,,,,63.0,37.0,964.0,964.0,13.8,2.8,,2.8,26.0,,,35.9,0.0,0.0,-0.7,1.4,0.6,,,,,61.0,449.0,59.0,393.0,59.0,451.0,59.0,462.0,,,-16.0,2.2,,26.0,-7.0,0.0,,,0.66,0.791,63.1,37.4,,,,,,964.0,2026-02-13 17:11:43-08:00
64.06,1.0,9.0,2026-02-14 01:12:41,37.08164,-121.59963,377.0,0.0,27.5,-12.6,,,,,01:12:41,10.8,-1.6,51.0,0.0,102.0,-0.0,-0.03,1.0,,19.0,17.0,0.0,30.11,337.0,,,326.0,,,,,0.0,0.0,,,,,,,,,,,,,,,,,,,63.0,37.0,959.0,959.0,13.7,2.7,,2.7,26.0,,,35.9,0.0,0.0,-0.7,1.4,0.6,,,,,62.0,456.0,59.0,401.0,60.0,458.0,59.0,471.0,,,-16.0,1.9,,26.0,-7.0,0.0,,,0.659,0.791,62.8,37.4,,,,,,959.0,2026-02-13 17:11:43-08:00
65.06,1.0,9.0,2026-02-14 01:12:42,37.08164,-121.59963,376.0,0.0,27.5,-12.6,,,,,01:12:42,10.8,-1.6,50.9,0.0,102.0,-0.0,-0.02,1.0,,21.0,17.0,0.0,30.11,337.0,,,326.0,,,,,0.0,0.0,,,,,,,,,,,,,,,,,,,63.0,37.0,983.0,983.0,13.8,2.7,,2.7,26.0,,,35.9,0.0,0.0,-0.7,1.4,0.6,,,,,62.0,465.0,60.0,401.0,60.0,464.0,60.0,478.0,,,-16.0,1.7,,26.0,-7.0,0.0,,,0.659,0.791,63.2,37.4,,,,,,983.0,2026-02-13 17:11:43-08:00
66.06,1.0,9.0,2026-02-14 01:12:43,37.08164,-121.59963,375.0,0.0,27.5,-12.6,,,,,01:12:43,10.9,-1.6,50.9,0.0,102.0,-0.0,-0.02,1.0,,18.0,17.0,0.0,30.11,337.0,,,326.0,,,,,0.0,0.0,,,,,,,,,,,,,,,,,,,63.0,37.0,969.0,969.0,13.6,2.6,,2.6,26.0,,,35.9,0.0,0.0,-0.7,1.4,0.6,,,,,62.0,474.0,60.0,404.0,61.0,469.0,60.0,486.0,,,-16.0,1.5,,26.0,-7.0,0.0,,,0.659,0.791,63.2,37.4,,,,,,969.0,2026-02-13 17:11:43-08:00
67.06,1.0,9.0,2026-02-14 01:12:44,37.08164,-121.59962,357.0,0.0,27.5,-12.6,,,,,01:12:44,10.8,-1.6,50.9,0.0,103.0,-0.0,-0.03,1.0,,25.0,17.0,0.0,30.11,337.0,,,326.0,,,,,0.0,0.0,,,,,,,,,,,,,,,,,,,64.0,37.0,973.0,973.0,13.6,2.6,,2.6,26.0,,,35.9,0.0,0.0,-0.7,1.4,0.6,,,,,63.0,482.0,60.0,406.0,61.0,474.0,61.0,492.0,,,-16.0,1.4,,26.0,-7.0,0.0,,,0.659,0.791,63.6,37.4,,,,,,973.0,2026-02-13 17:11:43-08:00
68.06,1.0,9.0,2026-02-14 01:12:45,37.08164,-121.59962,357.0,0.0,27.5,-12.6,,,,,01:12:45,10.9,-1.6,50.9,0.0,103.0,-0.0,-0.03,1.0,,28.0,17.0,0.0,30.11,337.0,,,326.0,,,,,0.0,0.0,,,,,,,,,,,,,,,,,,,63.0,37.0,968.0,968.0,13.6,2.6,,2.6,26.0,,,35.9,0.0,0.0,-0.7,1.4,0.6,,,,,63.0,490.0,61.0,412.0,61.0,479.0,61.0,499.0,,,-16.0,1.3,,26.0,-7.0,0.0,,,0.659,0.791,63.0,37.4,,,,,,968.0,2026-02-13 17:11:43-08:00
69.06,1.0,9.0,2026-02-14 01:12:46,37.08164,-121.59962,357.0,0.0,27.5,-12.6,,,,,01:12:46,10.9,-1.5,50.9,0.0,103.0,0.0,-0.03,1.0,,25.0,17.0,0.0,30.11,337.0,,,326.0,,,,,0.0,0.0,,,,,,,,,,,,,,,,,,,63.0,38.0,969.0,969.0,13.6,2.6,,2.6,26.1,,,35.9,0.0,0.0,0.2,1.4,0.6,,,,,64.0,496.0,62.0,413.0,62.0,483.0,62.0,505.0,,,-16.0,1.3,,26.1,-7.0,0.0,,,0.659,0.791,63.2,38.1,,,,,,969.0,2026-02-13 17:11:43-08:00
70.06,1.0,9.0,2026-02-14 01:12:47,37.08163,-121.59962,357.0,0.0,27.5,-12.6,,,,,01:12:47,10.8,-1.5,50.9,0.0,103.0,-0.0,-0.03,1.0,,-8.0,17.0,0.0,30.11,340.0,,,326.0,,,,,0.0,0.0,,,,,,,0.0,,,-24.0,,,,,,,,,61.0,39.0,887.0,887.0,14.4,2.5,,2.5,25.9,,,35.9,0.0,0.0,22.6,1.4,0.6,,,,,65.0,501.0,62.0,420.0,64.0,487.0,63.0,510.0,,,-16.0,1.2,,25.9,-7.0,0.0,,,0.659,0.791,61.1,39.3,,,,,,887.0,2026-02-13 17:11:43-08:00
71.06,1.0,9.0,2026-02-14 01:12:48,37.08163,-121.59962,359.0,0.0,27.5,-12.6,,,,,01:12:48,10.8,-1.5,50.8,0.0,103.0,-0.0,-0.03,1.0,,-33.0,17.0,0.0,30.11,340.0,,,326.0,,,,,0.0,0.0,,,,,,,0.0,,,-28.0,,,,,,,,,61.0,39.0,869.0,869.0,15.1,2.5,,2.5,26.0,,,35.9,0.0,0.0,35.8,1.4,0.6,,,,,65.0,505.0,63.0,427.0,64.0,490.0,64.0,513.0,,,-16.0,1.1,,26.0,-7.0,0.0,,,0.659,0.791,60.5,39.2,,,,,,869.0,2026-02-13 17:11:43-08:00
72.06,1.0,9.0,2026-02-14 01:12:49,37.08163,-121.59962,360.0,0.0,27.5,-12.6,,,,,01:12:49,10.9,-1.5,50.8,0.0,103.0,-0.0,-0.03,1.0,,-20.0,17.0,0.0,30.11,340.0,,,326.0,,,,,0.0,0.0,,,,,,,0.0,,,-33.0,,,,,,,,,60.0,39.0,875.0,875.0,15.2,2.4,,2.4,26.0,,,35.9,0.0,0.0,43.5,1.4,0.6,,,,,65.0,509.0,63.0,438.0,64.0,493.0,64.0,516.0,,,-16.0,1.1,,26.0,-7.0,0.0,,,0.658,0.791,60.5,39.2,,,,,,875.0,2026-02-13 17:11:43-08:00
73.06,1.0,9.0,2026-02-14 01:12:50,37.08163,-121.59962,360.0,0.0,27.5,-12.6,,,,,01:12:50,10.8,-1.6,50.7,0.0,103.0,-0.1,-0.03,1.0,,8.0,17.0,0.0,30.11,340.0,,,326.0,,,,,0.0,0.0,,,,,,,0.0,,,-36.0,,,,,,,,,62.0,39.0,914.0,914.0,14.9,2.4,,2.4,26.0,,,35.9,0.0,0.0,49.1,1.4,0.6,,,,,66.0,513.0,63.0,448.0,64.0,496.0,64.0,519.0,,,-16.0,1.1,,26.0,-7.0,0.0,,,0.658,0.791,61.7,39.3,,,,,,914.0,2026-02-13 17:11:43-08:00
74.06,1.0,9.0,2026-02-14 01:12:51,37.08163,-121.59962,361.0,0.0,27.5,-12.6,,,,,01:12:51,10.9,-1.6,50.8,0.0,103.0,-0.0,-0.03,0.9,,8.0,17.0,0.0,30.11,340.0,,,326.0,,,,,0.0,0.0,,,,,,,0.0,,,-39.0,,,,,3.0,0.0,0.0,1200.0,61.0,39.0,896.0,896.0,14.8,2.4,,2.4,26.0,,,35.9,0.0,0.0,50.5,1.4,0.6,,,,,66.0,516.0,64.0,456.0,65.0,498.0,64.0,522.0,,,-16.0,1.0,,26.0,-7.0,0.0,,,0.658,0.791,61.3,39.0,,,,,,896.0,2026-02-13 17:11:43-08:00
75.06,1.0,9.0,2026-02-14 01:12:52,37.08163,-121.59962,362.0,0.0,27.5,-12.6,,,,,01:12:52,10.8,-1.6,50.8,0.0,103.0,0.0,-0.03,1.0,,-55.0,17.0,0.0,30.11,340.0,,,326.0,,,,,0.0,0.0,,,,,,,0.0,,,-40.0,,,,,1.0,0.0,0.0,1200.0,62.0,39.0,912.0,912.0,14.8,2.4,,2.4,26.0,,,35.9,0.0,0.0,47.4,1.4,0.6,,,,,66.0,518.0,64.0,465.0,65.0,501.0,65.0,525.0,,,-16.0,1.0,,26.0,-7.0,0.0,,,0.658,0.791,61.6,38.8,,,,,,912.0,2026-02-13 17:11:43-08:00
76.06,1.0,9.0,2026-02-14 01:12:53,37.08163,-121.59962,363.0,0.0,27.5,-12.6,,,,,01:12:53,10.8,-1.6,50.8,0.0,103.0,-0.0,-0.03,1.0,,-12.0,17.0,0.0,30.11,340.0,,,326.0,,,,,0.0,0.0,,,,,,,0.0,,,-41.0,,,,,1.0,0.0,0.0,1200.0,62.0,39.0,927.0,927.0,14.7,2.4,,2.4,26.0,,,35.9,0.0,0.0,42.9,1.4,0.6,,,,,66.0,523.0,64.0,472.0,65.0,503.0,65.0,528.0,,,-16.0,1.0,,26.0,-7.0,0.0,,,0.658,0.791,61.8,38.6,,,,,,927.0,2026-02-13 17:11:43-08:00
77.06,1.0,9.0,2026-02-14 01:12:54,37.08163,-121.59962,363.0,0.0,27.5,-12.6,,,,,01:12:54,10.8,-1.6,50.8,0.0,103.0,-0.0,-0.03,1.0,,6.0,17.0,0.0,30.11,341.0,,,326.0,,,,,0.0,0.0,,,,,,,0.0,,,-43.0,,,,,,,,,62.0,38.0,940.0,940.0,14.6,2.4,,2.4,26.0,,,35.9,0.0,0.0,38.3,1.4,0.6,,,,,67.0,525.0,64.0,479.0,66.0,506.0,66.0,529.0,,,-16.0,1.0,,26.0,-7.0,0.0,,,0.658,0.791,62.0,38.5,,,,,,940.0,2026-02-13 17:11:43-08:00
78.06,1.0,9.0,2026-02-14 01:12:55,37.08163,-121.59962,364.0,0.0,27.5,-12.6,,,,,01:12:55,10.9,-1.7,50.8,0.0,103.0,-0.0,-0.03,1.0,,2.0,17.0,0.0,30.11,341.0,,,326.0,,,,,0.0,0.0,,,,,,,0.0,,,-44.0,,,,,,,,,62.0,38.0,933.0,933.0,14.3,2.3,,2.3,26.0,,,35.9,0.0,0.0,34.0,1.4,0.6,,,,,67.0,528.0,65.0,486.0,66.0,508.0,66.0,532.0,,,-16.0,1.0,,26.0,-7.0,0.0,,,0.658,0.791,62.2,38.3,,,,,,933.0,2026-02-13 17:11:43-08:00
79.06,1.0,9.0,2026-02-14 01:12:56,37.08163,-121.59962,365.0,0.0,27.5,-12.6,,,,,01:12:56,10.8,-1.6,50.8,0.0,103.0,-0.0,-0.03,1.0,,-23.0,17.0,0.0,30.11,341.0,,,326.0,,,,,0.0,0.0,,,,,,,0.0,,,-46.0,,,,,,,,,62.0,38.0,923.0,923.0,14.1,2.3,,2.3,26.0,,,35.9,0.0,0.0,30.1,1.4,0.6,,,,,67.0,532.0,65.0,491.0,66.0,510.0,66.0,534.0,,,-16.0,1.0,,26.0,-7.0,0.0,,,0.657,0.791,62.2,38.2,,,,,,923.0,2026-02-13 17:11:43-08:00
80.06,1.0,9.0,2026-02-14 01:12:57,37.08163,-121.59962,366.0,0.0,27.5,-12.6,,,,,01:12:57,10.8,-1.6,50.9,0.0,103.0,-0.0,-0.03,1.0,,-57.0,17.0,0.0,30.11,349.0,,,326.0,,,,,0.0,0.0,,,,,,,0.0,,,-47.0,,,,,,,,,61.0,38.0,854.0,854.0,14.1,2.3,,2.3,26.0,,,35.9,0.0,0.0,27.0,1.4,0.6,,,,,67.0,535.0,65.0,496.0,67.0,511.0,67.0,537.0,,,-16.0,1.0,,26.0,-7.0,0.0,,,0.657,0.791,60.7,38.1,,,,,,854.0,2026-02-13 17:11:43-08:00
81.06,1.0,9.0,2026-02-14 01:12:58,37.08163,-121.59962,367.0,0.0,27.5,-12.6,,,,,01:12:58,10.8,-1.7,50.9,0.0,103.0,-0.0,-0.03,1.0,,-53.0,17.0,0.0,30.11,349.0,,,326.0,,,,,0.0,0.0,,,,,,,0.0,,,-47.0,,,,,,,,,59.0,38.0,826.0,826.0,14.5,2.2,,2.2,26.0,,,35.9,0.0,0.0,24.3,1.4,0.6,,,,,68.0,536.0,65.0,500.0,67.0,512.0,67.0,538.0,,,-16.0,1.0,,26.0,-7.0,0.0,,,0.657,0.792,59.4,38.1,,,,,,826.0,2026-02-13 17:11:43-08:00
82.06,1.0,9.0,2026-02-14 01:12:59,37.08163,-121.59962,367.0,0.0,27.5,-12.6,,,,,01:12:59,10.8,-1.6,50.9,0.0,103.0,-0.0,-0.03,1.0,,-54.0,17.0,0.0,30.11,348.0,,,326.0,,,,,0.0,0.0,,,,,,,0.0,,,-47.0,,,,,,,,,59.0,38.0,823.0,823.0,14.5,2.1,,2.1,26.0,,,35.9,0.0,0.0,21.9,1.4,0.6,,,,,68.0,535.0,66.0,500.0,67.0,513.0,67.0,539.0,,,-16.0,1.0,,26.0,-7.0,0.0,,,0.656,0.791,59.4,38.0,,,,,,823.0,2026-02-13 17:11:43-08:00
83.06,1.0,9.0,2026-02-14 01:13:00,37.08163,-121.59962,368.0,0.0,27.5,-12.6,,,,,01:13:00,10.9,-1.6,50.9,0.0,103.0,0.0,-0.02,1.0,,-42.0,17.0,0.0,30.11,348.0,,,326.0,,,,,0.0,0.0,,,,,,,0.0,,,-47.0,,,,,,,,,59.0,38.0,828.0,828.0,14.6,2.1,,2.1,26.0,,,35.9,0.0,0.0,19.8,1.4,0.6,,,,,68.0,536.0,66.0,504.0,67.0,514.0,67.0,540.0,,,-16.0,1.0,,26.0,-7.0,0.0,,,0.657,0.792,59.4,37.9,,,,,,828.0,2026-02-13 17:11:43-08:00
84.06,1.0,9.0,2026-02-14 01:13:01,37.08163,-121.59962,369.0,0.0,27.5,-12.6,,,,,01:13:01,10.9,-1.6,50.9,0.0,102.0,-0.0,-0.03,1.0,,-48.0,17.0,0.0,30.11,347.0,,,326.0,,,,,0.0,0.0,,,,,,,0.0,,,-48.0,,,,,,,,,60.0,38.0,854.0,854.0,14.5,2.0,,2.0,26.0,,,35.9,0.0,0.0,18.0,1.4,0.6,,,,,69.0,537.0,66.0,508.0,68.0,515.0,68.0,543.0,,,-16.0,1.0,,26.0,-7.0,0.0,,,0.656,0.791,59.6,37.9,,,,,,854.0,2026-02-13 17:11:43-08:00
85.06,1.0,9.0,2026-02-14 01:13:02,37.08162,-121.59959,369.0,0.0,27.5,-12.6,,,,,01:13:02,10.8,-1.6,50.9,0.0,102.0,-0.0,-0.03,0.9,,-25.0,17.0,0.0,30.11,347.0,,,326.0,,,,,0.0,0.0,,,,,,,0.0,,,-48.0,,,,,,,,,60.0,38.0,838.0,838.0,14.4,2.0,,2.0,26.0,,,35.9,0.0,0.0,16.4,1.4,0.6,,,,,69.0,537.0,66.0,512.0,68.0,518.0,69.0,545.0,,,-16.0,1.0,,26.0,-7.0,0.0,,,0.656,0.792,59.6,37.8,,,,,,838.0,2026-02-13 17:11:43-08:00
86.06,1.0,9.0,2026-02-14 01:13:03,37.08162,-121.59959,390.0,0.0,27.5,-12.6,,,,,01:13:03,10.8,-1.6,50.9,0.0,102.0,0.0,-0.03,1.0,,10.0,17.0,0.0,30.11,347.0,,,326.0,,,,,0.0,0.0,,,,,,,0.0,,,-48.0,,,,,,,,,59.0,38.0,832.0,832.0,14.3,1.9,,1.9,26.0,,,35.9,0.0,0.0,14.7,1.4,0.6,,,,,69.0,538.0,67.0,516.0,69.0,520.0,69.0,545.0,,,-16.0,1.0,,26.0,-7.0,0.0,,,0.656,0.791,59.4,37.7,,,,,,832.0,2026-02-13 17:11:43-08:00
87.06,1.0,9.0,2026-02-14 01:13:04,37.08162,-121.59959,390.0,0.0,27.5,-12.6,,,,,01:13:04,10.8,-1.6,50.9,0.0,102.0,-0.0,-0.03,1.0,,22.0,17.0,0.0,30.11,339.0,,,326.0,,,,,0.0,0.0,,,,,,,0.0,,,-48.0,,,,,,,,,59.0,38.0,827.0,827.0,14.4,1.9,,1.9,26.0,,,35.9,0.0,0.0,13.4,1.4,0.6,,,,,69.0,540.0,67.0,519.0,69.0,522.0,69.0,547.0,,,-16.0,0.0,,26.0,-7.0,0.0,,,0.656,0.791,59.4,37.7,,,,,,827.0,2026-02-13 17:11:43-08:00
88.06,1.0,9.0,2026-02-14 01:13:05,37.08162,-121.59959,390.0,0.0,27.5,-12.6,,,,,01:13:05,10.8,-1.6,51.0,0.0,102.0,0.0,-0.03,1.0,,19.0,17.0,0.0,30.11,339.0,,,326.0,,,,,0.0,0.0,,,,,,,0.0,,,-48.0,,,,,,,,,60.0,38.0,860.0,860.0,14.4,1.9,,1.9,26.0,,,35.9,0.0,0.0,12.3,1.4,0.6,,,,,70.0,541.0,67.0,522.0,70.0,523.0,70.0,548.0,,,-16.0,0.0,,26.0,-7.0,0.0,,,0.656,0.792,59.7,37.7,,,,,,860.0,2026-02-13 17:11:43-08:00
89.06,1.0,9.0,2026-02-14 01:13:06,37.08162,-121.59959,390.0,0.0,27.5,-12.6,,,,,01:13:06,10.8,-1.6,51.0,0.0,102.0,0.0,-0.03,1.0,,28.0,17.0,0.0,30.11,339.0,,,326.0,,,,,0.0,0.0,,,,,,,0.0,,,-48.0,,,,,,,,,60.0,38.0,845.0,845.0,14.2,1.9,,1.9,26.0,,,35.9,0.0,0.0,11.4,1.4,0.6,,,,,70.0,542.0,68.0,524.0,70.0,526.0,70.0,551.0,,,-16.0,0.0,,26.0,-7.0,0.0,,,0.656,0.791,59.9,37.7,,,,,,845.0,2026-02-13 17:11:43-08:00
90.06,1.0,9.0,2026-02-14 01:13:07,37.08162,-121.59959,390.0,0.0,27.5,-12.6,,,,,01:13:07,10.7,-1.6,51.0,0.0,102.0,-0.0,-0.03,1.0,,48.0,17.0,0.0,30.11,337.0,,,326.0,,,,,0.0,0.0,,,,,,,0.0,,,-48.0,,,,,,,,,60.0,38.0,861.0,861.0,14.1,1.9,,1.9,26.0,,,35.9,0.0,0.0,10.6,1.4,0.6,,,,,71.0,543.0,68.0,526.0,70.0,528.0,70.0,552.0,,,-16.0,0.0,,26.0,-7.0,0.0,,,0.656,0.792,60.1,37.6,,,,,,861.0,2026-02-13 17:11:43-08:00
91.06,1.0,9.0,2026-02-14 01:13:08,37.08162,-121.59959,390.0,0.0,27.5,-12.6,,,,,01:13:08,10.7,-1.7,51.0,0.0,102.0,-0.0,-0.03,1.0,,58.0,17.0,0.0,30.11,339.0,,,326.0,,,,,0.0,0.0,,,,,,,0.0,,,-48.0,,,,,,,,,59.0,38.0,830.0,830.0,14.0,1.9,,1.9,25.9,,,35.9,0.0,0.0,10.0,1.4,0.6,,,,,71.0,545.0,68.0,527.0,71.0,530.0,71.0,555.0,,,-16.0,0.0,,25.9,-7.0,0.0,,,0.656,0.791,59.4,37.6,,,,,,830.0,2026-02-13 17:11:43-08:00
92.06,1.0,9.0,2026-02-14 01:13:09,37.08162,-121.59959,390.0,0.0,27.5,-12.6,,,,,01:13:09,10.8,-1.6,51.0,0.0,102.0,-0.0,-0.03,1.0,,34.0,17.0,0.0,30.11,339.0,,,326.0,,,,,0.0,0.0,,,,,,,0.0,,,-48.0,,,,,,,,,59.0,38.0,810.0,810.0,14.6,1.9,,1.9,25.9,,,35.9,0.0,0.0,9.4,1.4,0.6,,,,,71.0,546.0,69.0,524.0,71.0,530.0,71.0,556.0,,,-16.0,0.0,,25.9,-7.0,0.0,,,0.656,0.792,58.8,37.6,,,,,,810.0,2026-02-13 17:11:43-08:00
93.06,1.0,9.0,2026-02-14 01:13:10,37.08162,-121.59959,389.0,0.0,27.5,-12.6,,,,,01:13:10,10.8,-1.7,51.1,0.0,102.0,0.0,-0.03,1.0,,45.0,17.0,0.0,30.11,339.0,,,326.0,,,,,0.0,0.0,,,,,,,0.0,,,-48.0,,,,,,,,,62.0,38.0,943.0,943.0,13.5,1.8,,1.8,26.2,,,35.9,0.0,0.0,8.9,1.4,0.6,,,,,71.0,546.0,69.0,522.0,71.0,533.0,71.0,560.0,,,-16.0,0.0,,26.2,-7.0,0.0,,,0.656,0.791,61.7,37.6,,,,,,943.0,2026-02-13 17:11:43-08:00
94.06,1.0,9.0,2026-02-14 01:13:11,37.08162,-121.59959,388.0,0.0,27.5,-12.6,,,,,01:13:11,10.8,-1.6,51.0,0.0,102.0,-0.0,-0.03,0.9,,65.0,17.0,0.0,30.11,347.0,,,326.0,,,,,0.0,0.0,,,,,,,0.0,,,-50.0,,,,,,,,,62.0,38.0,901.0,901.0,13.0,1.7,,1.7,26.2,,,35.9,0.0,0.0,9.3,1.4,0.6,,,,,72.0,547.0,69.0,525.0,72.0,538.0,72.0,564.0,,,-16.0,0.0,,26.2,-7.0,0.0,,,0.657,0.791,61.6,37.6,,,,,,901.0,2026-02-13 17:11:43-08:00
95.06,1.0,9.0,2026-02-14 01:13:12,37.08162,-121.59959,387.0,0.0,27.5,-12.6,,,,,01:13:12,10.8,-1.6,51.0,0.0,102.0,0.0,-0.03,1.0,,47.0,17.0,0.0,30.11,347.0,,,326.0,,,,,0.0,0.0,,,,,,,0.0,,,-51.0,,,,,,,,,62.0,38.0,945.0,945.0,12.8,1.7,,1.7,26.2,,,35.9,0.0,0.0,9.6,1.4,0.6,,,,,72.0,548.0,70.0,527.0,72.0,546.0,72.0,573.0,,,-16.0,0.0,,26.2,-7.0,0.0,,,0.657,0.791,62.2,37.6,,,,,,945.0,2026-02-13 17:11:43-08:00
96.06,1.0,9.0,2026-02-14 01:13:13,37.08162,-121.5996,386.0,0.0,27.5,-12.6,,,,,01:13:13,10.8,-1.6,51.0,0.0,102.0,-0.0,-0.03,1.0,,25.0,17.0,0.0,30.11,347.0,,,326.0,,,,,0.0,0.0,,,,,,,0.0,,,-51.0,,,,,,,,,62.0,38.0,941.0,941.0,12.7,1.6,,1.6,26.1,,,35.9,0.0,0.0,9.7,1.4,0.6,,,,,73.0,549.0,70.0,531.0,73.0,550.0,73.0,571.0,,,-16.0,0.0,,26.1,-7.0,0.0,,,0.657,0.791,62.1,37.6,,,,,,941.0,2026-02-13 17:11:43-08:00
97.06,1.0,9.0,2026-02-14 01:13:14,37.08162,-121.5996,388.0,0.0,27.5,-12.6,,,,,01:13:14,10.8,-1.6,50.9,0.0,102.0,-0.0,-0.03,1.0,,5.0,17.0,0.0,30.11,347.0,,,326.0,,,,,0.0,0.0,,,,,,,0.0,,,-51.0,,,,,,,,,62.0,38.0,944.0,944.0,12.6,1.6,,1.6,26.2,,,35.9,0.0,0.0,9.6,1.4,0.6,,,,,73.0,550.0,70.0,534.0,73.0,549.0,73.0,574.0,,,-16.0,0.0,,26.2,-7.0,0.0,,,0.657,0.791,62.3,37.6,,,,,,944.0,2026-02-13 17:11:43-08:00
98.06,1.0,9.0,2026-02-14 01:13:15,37.08162,-121.5996,387.0,0.0,27.5,-12.6,,,,,01:13:15,10.8,-1.7,50.9,0.0,102.0,-0.0,-0.03,1.0,,38.0,17.0,0.0,30.11,347.0,,,326.0,,,,,0.0,0.0,,,,,,,0.0,,,-52.0,,,,,3.0,0.0,0.0,1200.0,63.0,38.0,965.0,965.0,12.6,1.6,,1.6,26.2,,,35.9,0.0,0.0,9.4,1.4,0.6,,,,,74.0,551.0,71.0,537.0,74.0,552.0,74.0,577.0,,,-16.0,0.0,,26.2,-7.0,0.0,,,0.657,0.791,62.9,37.6,,,,,,965.0,2026-02-13 17:11:43-08:00
99.06,1.0,9.0,2026-02-14 01:13:16,37.08162,-121.5996,387.0,0.0,27.5,-12.6,,,,,01:13:16,10.8,-1.7,50.9,0.0,102.0,-0.0,-0.03,1.0,,6.0,17.0,0.0,30.11,347.0,,,326.0,,,,,0.0,0.0,,,,,,,0.0,,,-52.0,,,,,1.0,0.0,0.0,1200.0,63.0,38.0,956.0,956.0,12.5,1.6,,1.6,26.2,,,35.9,0.0,0.0,9.3,1.4,0.6,,,,,74.0,552.0,71.0,539.0,74.0,555.0,74.0,585.0,,,-16.0,0.0,,26.2,-7.0,0.0,,,0.657,0.791,62.9,37.6,,,,,,956.0,2026-02-13 17:11:43-08:00
100.06,1.0,9.0,2026-02-14 01:13:17,37.08162,-121.59961,387.0,0.0,27.5,-12.6,,,,,01:13:17,10.7,-1.7,50.9,0.0,102.0,-0.0,-0.03,1.0,,8.0,17.0,0.0,30.11,347.0,,,326.0,,,,,0.0,0.0,,,,,,,0.0,,,-52.0,,,,,1.0,0.0,0.0,1200.0,63.0,38.0,984.0,984.0,12.5,1.6,,1.6,26.2,,,35.9,0.0,0.0,9.2,1.4,0.6,,,,,74.0,553.0,71.0,543.0,74.0,559.0,74.0,590.0,,,-16.0,0.0,,26.2,-7.0,0.0,,,0.657,0.791,63.4,37.6,,,,,,984.0,2026-02-13 17:11:43-08:00
101.06,1.0,9.0,2026-02-14 01:13:18,37.08162,-121.59961,387.0,0.0,27.5,-12.6,,,,,01:13:18,10.8,-1.7,50.9,0.0,102.0,-0.0,-0.03,1.0,,-3.0,17.0,0.0,30.11,347.0,,,326.0,,,,,0.0,0.0,,,,,,,0.0,,,-53.0,,,,,1.0,0.0,0.0,1200.0,63.0,38.0,981.0,981.0,12.5,1.6,,1.6,26.2,,,35.9,0.0,0.0,9.1,1.4,0.6,,,,,75.0,554.0,72.0,547.0,75.0,559.0,75.0,592.0,,,-16.0,0.0,,26.2,-7.0,0.0,,,0.657,0.791,63.1,37.6,,,,,,981.0,2026-02-13 17:11:43-08:00
102.06,1.0,9.0,2026-02-14 01:13:19,37.08162,-121.59961,387.0,0.0,27.5,-12.6,,,,,01:13:19,10.8,-1.7,50.9,0.0,102.0,-0.0,-0.03,1.0,,15.0,17.0,0.0,30.11,347.0,,,326.0,,,,,0.0,0.0,,,,,,,0.0,,,-53.0,,,,,1.0,0.0,0.0,1200.0,64.0,38.0,987.0,987.0,12.5,1.6,,1.6,26.2,,,35.9,0.0,0.0,8.9,1.4,0.6,,,,,75.0,555.0,73.0,550.0,75.0,562.0,75.0,595.0,,,-16.0,0.0,,26.2,-7.0,0.0,,,0.657,0.791,63.6,37.5,,,,,,987.0,2026-02-13 17:11:43-08:00
103.06,1.0,9.0,2026-02-14 01:13:20,37.08162,-121.59961,388.0,0.0,27.5,-12.6,,,,,01:13:20,10.8,-1.7,50.9,0.0,102.0,-0.0,-0.03,1.0,,21.0,17.0,0.0,30.11,337.0,,,326.0,,,,,0.0,0.0,,,,,,,0.0,,,-53.0,,,,,1.0,0.0,0.0,1200.0,64.0,38.0,955.0,955.0,12.5,1.6,,1.6,26.2,,,35.9,0.0,0.0,8.8,1.4,0.6,,,,,76.0,556.0,73.0,552.0,75.0,565.0,76.0,599.0,,,-16.0,0.0,,26.2,-7.0,0.0,,,0.656,0.791,63.5,37.5,,,,,,955.0,2026-02-13 17:11:43-08:00
104.06,1.0,9.0,2026-02-14 01:13:21,37.08162,-121.59961,388.0,0.0,27.5,-12.6,,,,,01:13:21,10.8,-1.7,50.9,0.0,102.0,-0.0,-0.02,1.0,,35.0,17.0,0.0,30.11,339.0,,,326.0,,,,,0.0,0.0,,,,,,,0.0,,,-54.0,,,,,1.0,0.0,0.0,1200.0,64.0,38.0,1004.0,1004.0,12.5,1.6,,1.6,26.2,,,35.9,0.0,0.0,8.7,1.4,0.6,,,,,76.0,557.0,73.0,553.0,76.0,566.0,76.0,601.0,,,-16.0,0.0,,26.2,-7.0,0.0,,,0.656,0.791,63.7,37.5,,,,,,1004.0,2026-02-13 17:11:43-08:00
105.06,1.0,9.0,2026-02-14 01:13:22,37.08162,-121.59961,388.0,0.0,27.5,-12.6,,,,,01:13:22,10.8,-1.6,51.0,0.0,103.0,0.0,-0.03,0.9,,61.0,17.0,0.0,30.11,340.0,,,326.0,,,,,0.0,0.0,,,,,,,0.0,,,-54.0,,,,,1.0,0.0,0.0,1200.0,64.0,38.0,1001.0,1001.0,12.4,1.6,,1.6,26.2,,,35.9,0.0,0.0,8.6,1.4,0.6,,,,,77.0,558.0,74.0,557.0,76.0,569.0,77.0,604.0,,,-16.0,0.0,,26.2,-7.0,0.0,,,0.656,0.791,63.9,37.5,,,,,,1001.0,2026-02-13 17:11:43-08:00
106.06,1.0,9.0,2026-02-14 01:13:23,37.08162,-121.59961,388.0,0.0,27.5,-12.6,,,,,01:13:23,10.8,-1.6,51.0,0.0,103.0,-0.0,-0.03,1.0,,28.0,17.0,0.0,30.11,340.0,,,326.0,,,,,0.0,0.0,,,,,,,0.0,,,-54.0,,,,,1.0,0.0,0.0,1200.0,64.0,38.0,1008.0,1008.0,12.2,1.6,,1.6,26.2,,,35.9,0.0,0.0,8.4,1.4,0.6,,,,,77.0,559.0,74.0,559.0,77.0,571.0,77.0,607.0,,,-16.0,0.0,,26.2,-7.0,0.0,,,0.656,0.791,64.2,37.5,,,,,,1008.0,2026-02-13 17:11:43-08:00
107.06,1.0,9.0,2026-02-14 01:13:24,37.08162,-121.59961,389.0,0.1,27.5,-12.6,,,,,01:13:24,10.8,-1.6,51.0,0.0,103.0,0.0,-0.03,0.9,,28.0,17.0,0.0,30.11,340.0,,,326.0,,,,,0.0,0.0,,,,,,,0.0,,,-54.0,,,,,1.0,0.0,0.0,1200.0,63.0,38.0,954.0,954.0,12.3,1.6,,1.6,26.2,,,35.9,0.0,0.0,8.3,1.4,0.6,,,,,77.0,560.0,75.0,563.0,77.0,572.0,77.0,607.0,,,-16.0,0.0,,26.2,-7.0,0.0,,,0.657,0.791,63.0,37.5,,,,,,954.0,2026-02-13 17:11:43-08:00
108.06,1.0,9.0,2026-02-14 01:13:25,37.08162,-121.59961,389.0,0.0,27.5,-12.6,,,,,01:13:25,10.8,-1.6,51.0,0.0,104.0,-0.0,-0.03,1.0,,47.0,17.0,0.0,30.11,341.0,,,326.0,,,,,0.0,0.0,,,,,,,0.0,,,-55.0,,,,,1.0,0.0,0.0,1200.0,64.0,38.0,982.0,982.0,12.4,1.6,,1.6,26.2,,,35.9,0.0,0.0,8.1,1.4,0.6,,,,,78.0,561.0,75.0,564.0,78.0,575.0,78.0,610.0,,,-16.0,0.0,,26.2,-7.0,0.0,,,0.657,0.791,63.7,37.5,,,,,,982.0,2026-02-13 17:11:43-08:00
109.06,1.0,9.0,2026-02-14 01:13:26,37.08162,-121.59961,389.0,0.0,27.5,-12.6,,,,,01:13:26,10.8,-1.6,51.0,0.0,104.0,-0.0,-0.03,1.0,,11.0,17.0,0.0,30.11,342.0,,,326.0,,,,,0.0,0.0,,,,,,,0.0,,,-55.0,,,,,1.0,0.0,0.0,1200.0,64.0,37.0,1002.0,1002.0,12.4,1.6,,1.6,26.2,,,35.9,0.0,0.0,7.9,1.4,0.6,,,,,78.0,562.0,75.0,566.0,78.0,576.0,78.0,615.0,,,-16.0,0.0,,26.2,-7.0,0.0,,,0.657,0.791,63.8,37.5,,,,,,1002.0,2026-02-13 17:11:43-08:00
110.06,1.0,9.0,2026-02-14 01:13:27,37.08162,-121.59961,389.0,0.0,27.5,-12.6,,,,,01:13:27,10.8,-1.6,51.0,0.0,104.0,-0.0,-0.02,1.0,,-2.0,17.0,0.0,30.11,342.0,,,326.0,,,,,0.0,0.0,,,,,,,0.0,,,-55.0,,,,,1.0,0.0,0.0,1200.0,64.0,37.0,1007.0,1007.0,12.3,1.6,,1.6,26.2,,,35.9,0.0,0.0,7.8,1.4,0.6,,,,,79.0,563.0,76.0,566.0,79.0,574.0,79.0,616.0,,,-16.0,0.0,,26.2,-7.0,0.0,,,0.657,0.791,63.8,37.5,,,,,,1007.0,2026-02-13 17:11:43-08:00
111.06,1.0,9.0,2026-02-14 01:13:28,37.08162,-121.59961,389.0,0.1,27.5,-12.6,,,,,01:13:28,10.8,-1.6,51.0,0.0,104.0,-0.0,-0.03,0.9,,20.0,17.0,0.0,30.11,342.0,,,326.0,,,,,0.0,0.0,,,,,,,0.0,,,-55.0,,,,,1.0,0.0,0.0,1200.0,64.0,37.0,1001.0,1001.0,12.3,1.6,,1.6,26.2,,,35.9,0.0,0.0,7.8,1.4,0.6,,,,,79.0,565.0,76.0,569.0,79.0,577.0,79.0,617.0,,,-16.0,0.0,,26.2,-7.0,0.0,,,0.657,0.791,64.1,37.5,,,,,,1001.0,2026-02-13 17:11:43-08:00
112.06,1.0,9.0,2026-02-14 01:13:29,37.08162,-121.59961,388.0,0.0,27.5,-12.6,,,,,01:13:29,10.8,-1.6,51.1,0.0,104.0,0.0,-0.03,0.9,,4.0,17.0,0.0,30.11,342.0,,,326.0,,,,,0.0,0.0,,,,,,,0.0,,,-55.0,,,,,1.0,0.0,0.0,1200.0,64.0,37.0,1000.0,1000.0,12.2,1.6,,1.6,26.2,,,35.9,0.0,0.0,7.7,1.4,0.6,,,,,80.0,566.0,77.0,571.0,80.0,579.0,80.0,623.0,,,-16.0,0.0,,26.2,-7.0,0.0,,,0.656,0.791,63.6,37.5,,,,,,1000.0,2026-02-13 17:11:43-08:00
113.06,1.0,9.0,2026-02-14 01:13:30,37.08162,-121.59961,388.0,0.1,27.5,-12.6,,,,,01:13:30,10.8,-1.6,51.3,0.0,104.0,0.1,-0.04,1.0,,31.0,17.0,0.0,30.11,342.0,,,326.0,,,,,0.0,0.0,,,,,,,0.0,,,-55.0,,,,,1.0,0.0,0.0,1200.0,64.0,37.0,984.0,984.0,12.3,1.6,,1.6,26.2,,,35.9,0.0,0.0,7.6,1.4,0.6,,,,,80.0,567.0,77.0,572.0,80.0,581.0,80.0,624.0,,,-16.0,0.0,,26.2,-7.0,0.0,,,0.657,0.791,63.9,37.5,,,,,,984.0,2026-02-13 17:11:43-08:00
114.06,1.0,9.0,2026-02-14 01:13:31,37.08162,-121.59961,388.0,0.0,27.5,-12.6,,,,,01:13:31,10.7,-1.6,51.1,0.0,104.0,-0.0,-0.02,1.0,,29.0,17.0,0.0,30.11,342.0,,,326.0,,,,,0.0,0.0,,,,,,,0.0,,,-56.0,,,,,1.0,0.0,0.0,1200.0,64.0,37.0,1001.0,1001.0,12.4,1.6,,1.6,26.2,,,35.9,0.0,0.0,7.5,1.4,0.6,,,,,81.0,568.0,77.0,574.0,80.0,579.0,81.0,624.0,,,-16.0,0.0,,26.2,-7.0,0.0,,,0.658,0.791,63.8,37.5,,,,,,1001.0,2026-02-13 17:11:43-08:00
115.06,2.0,9.0,2026-02-14 01:13:32,37.08162,-121.59962,390.0,0.0,27.5,-12.6,,,,,01:13:32,10.7,-1.7,51.1,0.0,104.0,-0.0,-0.03,1.0,,-5.0,17.0,0.0,30.11,342.0,,,326.0,,,,,0.0,0.0,,,,,,,0.0,,,-56.0,,,,,1.0,0.0,0.0,1200.0,64.0,37.0,1022.0,1022.0,12.3,1.6,,1.6,26.2,,,35.9,0.0,0.0,7.5,1.4,0.6,,,,,81.0,568.0,78.0,574.0,81.0,581.0,81.0,626.0,,,-16.0,0.0,,26.2,-7.0,0.0,,,0.658,0.791,64.2,37.4,,,,,,1022.0,2026-02-13 17:11:43-08:00
116.06,2.0,9.0,2026-02-14 01:13:33,37.08162,-121.59962,391.0,0.2,27.5,-12.6,,,,,01:13:33,10.8,-1.6,51.2,0.0,104.0,0.0,-0.03,1.0,,15.0,17.0,0.0,30.11,342.0,,,326.0,,,,,0.0,0.0,,,,,,,0.0,,,-59.0,,,,,1.0,0.0,0.0,1200.0,69.0,37.0,1248.0,1248.0,14.2,1.8,,1.8,26.1,,,35.9,0.0,0.0,7.4,1.4,0.6,,,,,81.0,577.0,78.0,581.0,81.0,588.0,82.0,624.0,,,-16.0,0.0,,26.1,-7.0,0.0,,,0.658,0.791,69.0,37.4,,,,,,1248.0,2026-02-13 17:11:43-08:00
117.06,2.0,9.0,2026-02-14 01:13:34,37.08162,-121.59962,390.0,0.6,27.5,-12.6,,,,,01:13:34,10.9,-1.6,51.3,0.0,104.0,0.1,-0.03,1.0,,25.0,17.0,0.0,30.11,342.0,,,326.0,,,,,0.0,0.0,,,,,,,-1.0,,,1.0,,,,,1.0,0.0,0.0,1200.0,71.0,37.0,1276.0,1276.0,13.5,1.9,,1.9,26.1,,,35.9,0.0,0.0,7.2,1.4,0.6,,,,,82.0,590.0,79.0,589.0,82.0,604.0,82.0,637.0,,,-16.0,0.0,,26.1,-7.0,0.0,,,0.658,0.791,71.4,37.4,,,,,,1276.0,2026-02-13 17:11:43-08:00
118.06,2.0,9.0,2026-02-14 01:13:35,37.08162,-121.59961,390.0,1.2,31.1,-12.6,,,,,01:13:35,11.2,-1.6,51.7,0.0,105.0,0.3,-0.03,1.0,,40.0,17.0,0.0,30.11,343.0,,,326.0,,,,,0.0,0.0,,,,,,,-1.0,,,2.0,,,,,1.0,0.0,0.0,1200.0,71.0,37.0,1200.0,1200.0,13.3,1.9,,1.9,26.1,,,35.9,0.0,0.0,7.2,1.4,0.6,,,,,82.0,602.0,79.0,595.0,82.0,618.0,83.0,648.0,,,-16.0,0.0,,26.1,-7.0,0.0,,,0.662,0.791,70.9,37.4,,,,,,1200.0,2026-02-13 17:11:43-08:00
119.06,2.0,9.0,2026-02-14 01:13:36,37.08162,-121.5996,390.0,1.4,54.8,-12.6,,,,,01:13:36,11.4,-1.7,52.2,0.0,105.0,0.5,-0.03,0.9,,7.0,17.0,0.0,30.11,343.0,,,326.0,,,,,0.0,0.0,,,,,,,-1.0,,,2.0,,,,,1.0,0.0,0.0,1200.0,70.0,37.0,1229.0,1229.0,13.3,2.0,,2.0,26.1,,,35.8,0.0,0.0,7.2,1.4,0.6,,,,,83.0,610.0,80.0,590.0,83.0,620.0,83.0,656.0,,,-16.0,0.0,,26.1,-7.0,0.0,,,0.658,0.791,69.7,37.4,,,,,,1229.0,2026-02-13 17:11:43-08:00
120.06,2.0,9.0,2026-02-14 01:13:37,37.08162,-121.59959,390.0,2.0,62.8,-12.6,,,,,01:13:37,11.4,-1.8,52.8,0.0,105.0,0.7,-0.03,1.0,,-5.0,17.0,0.0,30.11,343.0,,,326.0,,,,,0.0,0.0,,,,,,,-1.0,,,2.0,,,,,1.0,0.0,0.0,1200.0,71.0,37.0,1277.0,1277.0,13.3,2.1,,2.1,26.2,,,35.8,0.0,0.0,7.1,1.4,0.6,,,,,84.0,621.0,81.0,595.0,83.0,631.0,84.0,665.0,,,-16.0,0.0,,26.2,-7.0,0.0,,,0.657,0.791,71.1,37.4,,,,,,1277.0,2026-02-13 17:11:43-08:00
121.06,2.0,9.0,2026-02-14 01:13:38,37.08163,-121.59959,390.0,2.5,64.2,-12.6,,,,,01:13:38,10.4,-1.9,54.1,0.0,106.0,1.0,-0.04,0.9,,33.0,17.0,0.0,30.11,351.0,,,326.0,,,,,0.0,0.0,,,,,,,-1.0,,,1.0,,,,,1.0,0.0,0.0,1200.0,71.0,37.0,1272.0,1272.0,13.2,2.1,,2.1,26.1,,,35.8,0.0,0.0,7.1,1.4,0.6,,,,,84.0,625.0,81.0,601.0,84.0,636.0,84.0,672.0,,,-16.0,0.0,,26.1,-7.0,0.0,,,0.657,0.791,71.4,37.4,,,,,,1272.0,2026-02-13 17:11:43-08:00
122.06,2.0,9.0,2026-02-14 01:13:39,37.08163,-121.59957,390.0,2.9,63.9,-12.6,,,,,01:13:39,10.3,-2.0,55.7,0.0,106.0,1.1,-0.04,1.0,,10.0,17.0,0.0,30.11,351.0,,,326.0,,,,,0.0,0.0,,,,,,,-1.0,,,2.0,,,,,1.0,0.0,0.0,1200.0,71.0,37.0,1241.0,1241.0,13.1,2.1,,2.1,26.1,,,35.8,0.0,0.0,7.0,1.4,0.6,,,,,85.0,631.0,82.0,606.0,84.0,646.0,85.0,676.0,,,-16.0,0.0,,26.1,-7.0,0.0,,,0.657,0.791,70.7,37.4,,,,,,1241.0,2026-02-13 17:11:43-08:00
123.06,2.0,9.0,2026-02-14 01:13:40,37.08164,-121.59956,389.0,3.2,63.7,-12.6,,,,,01:13:40,10.4,-2.1,56.9,0.0,106.0,1.0,-0.04,0.9,,7.0,17.0,0.0,30.11,351.0,,,326.0,,,,,0.0,0.0,,,,,,,-1.0,,,1.0,,,,,1.0,0.0,0.0,1200.0,71.0,37.0,1226.0,1226.0,13.1,2.1,,2.1,26.1,,,35.8,0.0,0.0,7.0,1.4,0.6,,,,,85.0,638.0,82.0,609.0,85.0,653.0,85.0,684.0,,,-16.0,0.0,,26.1,-7.0,0.0,,,0.657,0.791,70.6,37.4,,,,,,1226.0,2026-02-13 17:11:43-08:00
124.06,2.0,9.0,2026-02-14 01:13:41,37.08165,-121.59953,389.0,3.1,66.6,-12.6,,,,,01:13:41,10.5,-2.3,57.4,0.0,106.0,0.6,-0.05,1.0,,25.0,17.0,0.0,30.11,344.0,,,326.0,,,,,0.0,0.0,,,,,,,-1.0,,,0.0,,,,,1.0,0.0,0.0,1200.0,71.0,37.0,1272.0,1272.0,13.1,2.1,,2.1,26.2,,,35.8,0.0,0.0,6.9,1.4,0.6,,,,,86.0,641.0,83.0,614.0,85.0,658.0,86.0,688.0,,,-16.0,0.0,,26.2,-7.0,0.0,,,0.658,0.791,71.1,37.4,,,,,,1272.0,2026-02-13 17:11:43-08:00
125.06,2.0,9.0,2026-02-14 01:13:42,37.08166,-121.59952,390.0,3.0,56.5,-12.6,,,,,01:13:42,10.6,-2.3,55.5,0.0,106.0,-0.8,-0.03,1.0,,9.0,17.0,0.0,30.11,344.0,,,326.0,,,,,0.0,0.0,,,,,,,-1.0,,,0.0,,,,,1.0,0.0,0.0,1200.0,71.0,37.0,1246.0,1246.0,13.0,2.1,,2.1,26.2,,,35.8,0.0,0.0,6.8,1.4,0.6,,,,,87.0,643.0,84.0,619.0,86.0,664.0,86.0,695.0,,,-16.0,0.0,,26.2,-7.0,0.0,,,0.659,0.791,70.8,37.4,,,,,,1246.0,2026-02-13 17:11:43-08:00
126.06,2.0,9.0,2026-02-14 01:13:43,37.08166,-121.5995,389.0,3.1,57.1,-12.6,,,,,01:13:43,10.8,-1.8,57.4,0.0,106.0,0.6,-0.05,0.9,,14.0,17.0,0.0,30.11,344.0,,,326.0,,,,,0.0,0.0,,,,,,,-1.0,,,-1.0,,,,,1.0,0.0,0.0,1200.0,71.0,37.0,1260.0,1260.0,13.0,2.1,,2.1,26.2,,,35.8,0.0,0.0,6.8,1.4,0.6,,,,,87.0,647.0,84.0,624.0,86.0,670.0,87.0,702.0,,,-16.0,0.0,,26.2,-7.0,0.0,,,0.657,0.791,70.7,37.4,,,,,,1260.0,2026-02-13 17:11:43-08:00
127.06,2.0,9.0,2026-02-14 01:13:44,37.08167,-121.59949,386.0,3.5,62.1,-12.6,,,,,01:13:44,11.0,-1.6,61.3,0.0,106.0,2.5,-0.04,1.0,,-1.0,17.0,0.0,30.11,352.0,,,326.0,,,,,0.0,0.0,,,,,,,-1.0,,,-1.0,,,,,1.0,0.0,0.0,1200.0,71.0,37.0,1263.0,1263.0,13.0,2.1,,2.1,26.2,,,35.8,0.0,0.0,6.7,1.4,0.6,,,,,88.0,648.0,85.0,627.0,87.0,671.0,87.0,704.0,,,-16.0,0.0,,26.2,-7.0,0.0,,,0.656,0.791,70.8,37.4,,,,,,1263.0,2026-02-13 17:11:43-08:00
128.06,2.0,9.0,2026-02-14 01:13:45,37.08167,-121.59946,386.0,3.4,68.2,-12.6,,,,,01:13:45,11.0,-1.6,63.1,0.0,106.0,2.4,-0.04,1.1,,-15.0,17.0,0.0,30.11,352.0,,,326.0,,,,,0.0,0.0,,,,,,,-1.0,,,-2.0,,,,,1.0,0.0,0.0,1200.0,71.0,37.0,1265.0,1265.0,12.9,2.1,,2.1,26.2,,,35.8,0.0,0.0,6.7,1.4,0.6,,,,,88.0,651.0,85.0,630.0,87.0,675.0,88.0,707.0,,,-16.0,0.0,,26.2,-7.0,0.0,,,0.657,0.791,71.1,37.4,,,,,,1265.0,2026-02-13 17:11:43-08:00
129.06,2.0,9.0,2026-02-14 01:13:46,37.08168,-121.59945,387.0,3.5,66.8,-12.6,,,,,01:13:46,11.1,-1.7,63.4,0.0,106.0,1.3,-0.04,0.9,,3.0,17.0,0.0,30.11,352.0,,,326.0,,,,,0.0,0.0,,,,,,,-1.0,,,-3.0,,,,,1.0,0.0,0.0,1200.0,71.0,37.0,1269.0,1269.0,12.8,2.1,,2.1,26.2,,,35.8,0.0,0.0,6.6,1.4,0.6,,,,,89.0,653.0,86.0,632.0,88.0,680.0,89.0,711.0,,,-16.0,0.0,,26.2,-7.0,0.0,,,0.656,0.791,71.0,37.4,,,,,,1269.0,2026-02-13 17:11:43-08:00
130.06,2.0,9.0,2026-02-14 01:13:47,37.08168,-121.59943,387.0,3.5,69.3,-12.6,,,,,01:13:47,11.2,-1.6,63.5,0.0,106.0,0.6,-0.04,1.0,,-45.0,17.0,0.0,30.11,344.0,,,326.0,,,,,0.0,0.0,,,,,,,-1.0,,,-3.0,,,,,1.0,0.0,0.0,1200.0,71.0,37.0,1258.0,1258.0,12.8,2.1,,2.1,26.2,,,35.8,0.0,0.0,6.6,1.4,0.6,,,,,90.0,655.0,87.0,633.0,88.0,684.0,89.0,714.0,,,-16.0,0.0,,26.2,-7.0,0.0,,,0.657,0.791,70.9,37.4,,,,,,1258.0,2026-02-13 17:11:43-08:00
131.06,2.0,9.0,2026-02-14 01:13:48,37.08168,-121.59941,389.0,3.2,76.5,-12.6,,,,,01:13:48,11.3,-1.5,63.4,0.0,106.0,0.2,-0.03,1.0,,-32.0,17.0,0.0,30.11,344.0,,,326.0,,,,,0.0,0.0,,,,,,,-1.0,,,-3.0,,,,,1.0,0.0,0.0,1200.0,71.0,37.0,1267.0,1267.0,12.8,2.1,,2.1,26.2,,,35.8,0.0,0.0,6.6,1.4,0.6,,,,,90.0,657.0,87.0,634.0,89.0,686.0,90.0,717.0,,,-16.0,0.0,,26.2,-7.0,0.0,,,0.657,0.791,71.0,37.4,,,,,,1267.0,2026-02-13 17:11:43-08:00
132.06,2.0,9.0,2026-02-14 01:13:49,37.08169,-121.5994,388.0,3.1,74.0,-12.6,,,,,01:13:49,11.1,-1.1,62.2,0.0,106.0,-0.4,-0.02,1.0,,-80.0,17.0,0.0,30.11,344.0,,,326.0,,,,,0.0,0.0,,,,,,,-1.0,,,-3.0,,,,,1.0,0.0,0.0,1200.0,71.0,37.0,1260.0,1260.0,12.7,2.1,,2.1,26.2,,,35.8,0.0,0.0,6.5,1.4,0.6,,,,,91.0,657.0,87.0,639.0,89.0,687.0,90.0,719.0,,,-16.0,0.0,,26.2,-7.0,0.0,,,0.656,0.791,70.5,37.4,,,,,,1260.0,2026-02-13 17:11:43-08:00
133.06,2.0,9.0,2026-02-14 01:13:50,37.08169,-121.59938,389.0,2.9,69.4,-12.6,,,,,01:13:50,11.1,-1.1,60.8,0.0,106.0,-1.0,-0.03,0.9,,-59.0,17.0,0.0,30.11,343.0,,,326.0,,,,,0.0,0.0,,,,,,,-1.0,,,-3.0,,,,,1.0,0.0,0.0,1200.0,71.0,37.0,1263.0,1263.0,12.8,2.2,,2.2,26.1,,,35.8,0.0,0.0,6.5,1.4,0.6,,,,,91.0,659.0,88.0,643.0,90.0,687.0,91.0,714.0,,,-16.0,0.0,,26.1,-7.0,0.0,,,0.658,0.791,70.9,37.4,,,,,,1263.0,2026-02-13 17:11:43-08:00
134.06,2.0,9.0,2026-02-14 01:13:51,37.0817,-121.59937,389.0,2.8,69.5,-12.6,,,,,01:13:51,11.1,-1.0,59.6,0.0,106.0,-1.2,-0.01,1.0,,-21.0,17.0,0.0,30.11,344.0,,,326.0,,,,,0.0,0.0,,,,,,,-1.0,,,-3.0,,,,,1.0,0.0,0.0,1200.0,71.0,37.0,1269.0,1269.0,12.7,2.2,,2.2,26.1,,,35.8,0.0,0.0,6.5,1.4,0.6,,,,,92.0,656.0,89.0,641.0,90.0,684.0,91.0,711.0,,,-16.0,0.0,,26.1,-7.0,0.0,,,0.657,0.791,70.8,37.4,,,,,,1269.0,2026-02-13 17:11:43-08:00
135.06,2.0,9.0,2026-02-14 01:13:52,37.0817,-121.59935,389.0,3.1,72.1,-12.6,,,,,01:13:52,11.0,-0.9,60.2,0.0,106.0,-0.3,-0.02,1.1,,-25.0,17.0,0.0,30.11,344.0,,,326.0,,,,,0.0,0.0,,,,,,,-1.0,,,-3.0,,,,,1.0,0.0,0.0,1200.0,71.0,37.0,1274.0,1274.0,12.7,2.2,,2.2,26.1,,,35.8,0.0,0.0,6.4,1.4,0.6,,,,,92.0,654.0,89.0,640.0,91.0,682.0,92.0,708.0,,,-16.0,0.0,,26.1,-7.0,0.0,,,0.656,0.791,71.1,37.4,,,,,,1274.0,2026-02-13 17:11:43-08:00
136.06,2.0,9.0,2026-02-14 01:13:53,37.08171,-121.59933,389.0,3.1,62.1,-12.6,,,,,01:13:53,11.0,-0.8,60.7,0.0,106.0,0.2,-0.01,0.9,,-18.0,17.0,0.0,30.11,344.0,,,326.0,,,,,0.0,0.0,,,,,,,-1.0,,,-3.0,,,,,1.0,0.0,0.0,1200.0,71.0,37.0,1283.0,1283.0,12.7,2.3,,2.3,26.1,,,35.8,0.0,0.0,6.4,1.4,0.6,,,,,93.0,653.0,90.0,639.0,91.0,682.0,92.0,706.0,,,-16.0,0.0,,26.1,-7.0,0.0,,,0.656,0.791,71.4,37.4,,,,,,1283.0,2026-02-13 17:11:43-08:00
137.06,2.0,9.0,2026-02-14 01:13:54,37.08171,-121.59931,389.0,3.1,67.5,-12.6,,,,,01:13:54,11.0,-1.0,61.0,0.0,106.0,0.3,-0.03,1.0,,25.0,17.0,0.0,30.11,344.0,,,326.0,,,,,0.0,0.0,,,,,,,-1.0,,,-3.0,,,,,1.0,0.0,0.0,1200.0,72.0,37.0,1282.0,1282.0,12.6,2.3,,2.3,26.1,,,35.8,0.0,0.0,6.4,1.4,0.6,,,,,93.0,653.0,90.0,638.0,92.0,682.0,93.0,705.0,,,-16.0,0.0,,26.1,-7.0,0.0,,,0.657,0.791,71.5,37.4,,,,,,1282.0,2026-02-13 17:11:43-08:00
138.06,2.0,9.0,2026-02-14 01:13:55,37.08172,-121.5993,390.0,2.9,71.1,-12.6,,,,,01:13:55,11.0,-0.7,61.1,0.0,106.0,0.2,-0.01,0.9,,49.0,17.0,0.0,30.11,344.0,,,326.0,,,,,0.0,0.0,,,,,,,-1.0,,,-3.0,,,,,1.0,0.0,0.0,1200.0,71.0,37.0,1259.0,1259.0,12.5,2.3,,2.3,26.1,,,35.8,0.0,0.0,6.3,1.4,0.6,,,,,94.0,652.0,91.0,638.0,93.0,681.0,93.0,703.0,,,-16.0,0.0,,26.1,-7.0,0.0,,,0.654,0.791,71.2,37.4,,,,,,1259.0,2026-02-13 17:11:43-08:00
139.06,2.0,9.0,2026-02-14 01:13:56,37.08173,-121.59928,390.0,3.3,66.8,-12.6,,,,,01:13:56,11.1,-0.8,61.3,0.0,106.0,0.2,-0.02,1.0,,11.0,17.0,0.0,30.11,344.0,,,326.0,,,,,0.0,0.0,,,,,,,-1.0,,,-3.0,,,,,1.0,0.0,0.0,1200.0,71.0,37.0,1269.0,1269.0,12.6,2.3,,2.3,26.1,,,35.8,0.0,0.0,6.3,1.4,0.6,,,,,94.0,649.0,91.0,637.0,93.0,676.0,94.0,704.0,,,-16.0,0.0,,26.1,-7.0,0.0,,,0.656,0.791,70.8,37.4,,,,,,1269.0,2026-02-13 17:11:43-08:00
140.06,2.0,9.0,2026-02-14 01:13:57,37.08173,-121.59927,390.0,3.6,68.9,-12.6,,,,,01:13:57,11.3,-1.0,61.5,0.0,106.0,0.3,-0.02,1.0,,12.0,17.0,0.0,30.11,343.0,,,326.0,,,,,0.0,0.0,,,,,,,-1.0,,,-3.0,,,,,1.0,0.0,0.0,1200.0,71.0,37.0,1268.0,1268.0,12.7,2.3,,2.3,26.2,,,35.8,0.0,0.0,6.3,1.4,0.6,,,,,95.0,651.0,92.0,636.0,93.0,676.0,95.0,702.0,,,-16.0,0.0,,26.2,-7.0,0.0,,,0.656,0.791,70.9,37.4,,,,,,1268.0,2026-02-13 17:11:43-08:00
141.06,2.0,9.0,2026-02-14 01:13:58,37.08174,-121.59924,390.0,3.9,67.5,-12.6,,,,,01:13:58,11.1,-1.1,61.2,0.0,106.0,-0.1,-0.02,1.0,,41.0,17.0,0.0,30.11,343.0,,,326.0,,,,,0.0,0.0,,,,,,,-1.0,,,2.0,,,,,1.0,0.0,0.0,1200.0,71.0,37.0,1275.0,1275.0,12.6,2.3,,2.3,26.1,,,35.8,0.0,0.0,6.3,1.4,0.6,,,,,95.0,650.0,92.0,636.0,94.0,678.0,95.0,701.0,,,-16.0,0.0,,26.1,-7.0,0.0,,,0.656,0.791,70.9,37.4,,,,,,1275.0,2026-02-13 17:11:43-08:00
142.06,2.0,9.0,2026-02-14 01:13:59,37.08175,-121.59922,390.0,4.4,64.2,-12.6,,,,,01:13:59,11.1,-0.9,60.5,0.0,106.0,-0.4,-0.01,0.9,,62.0,17.0,0.0,30.11,343.0,,,326.0,,,,,0.0,0.0,,,,,,,0.0,,,-3.0,,,,,1.0,0.0,0.0,1200.0,71.0,37.0,1268.0,1268.0,12.6,2.3,,2.3,26.2,,,35.8,0.0,0.0,6.3,1.4,0.6,,,,,96.0,649.0,93.0,637.0,94.0,677.0,95.0,701.0,,,-16.0,0.0,,26.2,-7.0,0.0,,,0.656,0.791,70.9,37.4,,,,,,1268.0,2026-02-13 17:11:43-08:00
143.06,2.0,9.0,2026-02-14 01:14:00,37.08176,-121.5992,390.0,5.0,59.7,-12.6,,,,,01:14:00,11.1,-0.9,60.1,0.0,106.0,-0.5,-0.01,1.0,,28.0,17.0,0.0,30.11,343.0,,,326.0,,,,,0.0,0.0,,,,,,,-5.0,,,2.0,,,,,1.0,0.0,0.0,1200.0,71.0,37.0,1259.0,1259.0,12.6,2.3,,2.3,26.2,,,35.8,0.0,0.0,6.2,1.4,0.6,,,,,96.0,647.0,93.0,636.0,95.0,680.0,96.0,699.0,,,-16.0,0.0,,26.2,-7.0,0.0,,,0.654,0.791,70.7,37.4,,,,,,1259.0,2026-02-13 17:11:43-08:00
144.06,2.0,9.0,2026-02-14 01:14:01,37.08177,-121.59917,390.0,5.4,67.5,-12.6,,,,,01:14:01,10.9,-0.7,59.4,0.0,106.0,-0.6,-0.01,0.9,,38.0,17.0,0.0,30.11,343.0,,,326.0,,,,,0.0,0.0,,,,,,,-1.0,,,1.0,,,,,1.0,0.0,0.0,1200.0,71.0,37.0,1248.0,1248.0,12.6,2.3,,2.3,26.2,,,35.8,0.0,0.0,6.2,1.4,0.6,,,,,97.0,646.0,94.0,636.0,95.0,679.0,97.0,698.0,,,-16.0,0.0,,26.2,-7.0,0.0,,,0.657,0.791,70.6,37.4,,,,,,1248.0,2026-02-13 17:11:43-08:00
145.06,2.0,9.0,2026-02-14 01:14:02,37.08178,-121.59914,391.0,5.0,59.7,-12.6,,,,,01:14:02,10.7,-1.2,58.3,0.0,106.0,-0.9,-0.03,1.1,,16.0,17.0,0.0,30.11,343.0,,,326.0,,,,,0.0,0.0,,,,,,,0.0,,,-2.0,,,,,1.0,0.0,0.0,1200.0,70.0,37.0,1214.0,1214.0,12.4,2.3,,2.3,26.1,,,35.8,0.0,0.0,6.2,1.4,0.6,,,,,97.0,644.0,94.0,635.0,96.0,678.0,97.0,697.0,,,-16.0,0.0,,26.1,-7.0,0.0,,,0.656,0.791,69.6,37.4,,,,,,1214.0,2026-02-13 17:11:43-08:00
146.06,2.0,9.0,2026-02-14 01:14:03,37.08179,-121.59912,396.0,4.8,69.9,-12.6,,,,,01:14:03,10.6,-1.2,54.3,0.0,106.0,-2.8,0.01,0.9,,-2.0,17.0,0.0,30.11,343.0,,,326.0,,,,,0.0,0.0,,,,,,,0.0,,,-2.0,,,,,1.0,0.0,0.0,1200.0,69.0,37.0,1176.0,1176.0,12.2,2.3,,2.3,26.2,,,35.8,0.0,0.0,6.2,1.4,0.6,,,,,98.0,642.0,95.0,634.0,96.0,675.0,97.0,693.0,,,-16.0,0.0,,26.2,-7.0,0.0,,,0.659,0.791,68.6,37.4,,,,,,1176.0,2026-02-13 17:11:43-08:00
147.06,2.0,9.0,2026-02-14 01:14:04,37.08181,-121.5991,396.0,3.9,58.7,-12.6,,,,,01:14:04,10.9,-1.0,53.2,0.0,106.0,-2.0,-0.01,1.0,,-2.0,17.0,0.0,30.11,343.0,,,326.0,,,,,0.0,0.0,,,,,,,0.0,,,-2.0,,,,,1.0,0.0,0.0,1200.0,68.0,37.0,1145.0,1145.0,12.1,2.2,,2.2,26.1,,,35.8,0.0,0.0,6.2,1.4,0.6,,,,,98.0,638.0,95.0,631.0,97.0,671.0,98.0,689.0,,,-16.0,0.0,,26.1,-7.0,0.0,,,0.654,0.791,67.7,37.4,,,,,,1145.0,2026-02-13 17:11:43-08:00
148.06,2.0,9.0,2026-02-14 01:14:05,37.08181,-121.59908,397.0,3.0,66.5,-12.6,,,,,01:14:05,11.0,-1.0,53.2,0.0,106.0,-0.9,-0.01,1.0,,5.0,17.0,0.0,30.11,343.0,,,326.0,,,,,0.0,0.0,,,,,,,0.0,,,-3.0,,,,,1.0,0.0,0.0,1200.0,67.0,37.0,1110.0,1110.0,12.1,2.2,,2.2,26.1,,,35.8,0.0,0.0,6.2,1.4,0.6,,,,,99.0,636.0,95.0,629.0,97.0,668.0,99.0,686.0,,,-16.0,0.0,,26.1,-7.0,0.0,,,0.654,0.791,66.9,37.4,,,,,,1110.0,2026-02-13 17:11:43-08:00
