Session Time,GPS Fix Quality,Number of Satellites,GPS Date & Time,Latitude (deg),Longitude (deg),GPS Altitude (feet),Ground Speed (knots),Ground Track (deg),Mag Var (deg),Cross Track Error (NM),Destination Waypoint ID,Range to Destination (NM),Bearing to Destination (deg),System Time,Pitch (deg),Roll (deg),Magnetic Heading (deg),Indicated Airspeed (knots),Pressure Altitude (ft),Turn Rate (deg/s),Lateral Accel (g),Vertical Accel(g),Angle of Attack (%),Vertical Speed (ft/min),OAT (deg C),True Airspeed (knots),Barometer Setting (inHg),Density Altitude (ft),Wind Direction (deg),Wind Speed (knots),Heading Bug (deg),Altitude Bug (ft),Airspeed Bug (knots),Vertical Speed Bug (ft/min),Course (deg),CDI Source Type,CDI Source Port,CDI Scale (NM),CDI Deflection (%),Glideslope (%),AP Engaged,AP Roll Mode,AP Roll Force,AP Roll Position (steps),AP Roll Slip (bool),AP Pitch Force,AP Pitch Position (steps),AP Pitch Slip (bool),AP Yaw Force,AP Yaw Position,AP Yaw Slip (bool),Transponder Status,Transponder Reply (bool),Transponder Identing (bool),Transponder Code (octal),Oil Pressure (PSI),Oil Temp (deg C),RPM L,RPM R,Manifold Pressure (inHg),Fuel Flow 1 (gal/hr),Fuel Flow 2 (gal/hr),Total Fuel Flow (gal/hr),Fuel Pressure (PSI),Fuel Level L (gal),Fuel Level R (gal),Fuel Remaining (gal),Volts 1,Volts 2,Amps,Hobbs Time,Tach Time,Thermocouple 1 (deg C),Thermocouple 2 (deg C),Thermocouple 3 (deg C),Thermocouple 4 (deg C),CHT 4 (deg C),EGT 4 (deg C),CHT 3 (deg C),EGT 3 (deg C),CHT 2 (deg C),EGT 2 (deg C),CHT 1 (deg C),EGT 1 (deg C),Thermocouple 13 (deg C),Thermocouple 14 (deg C),ELEV POSITION (%),CO PPM PRESSURE (PSI),GP Input 3,FUEL PRESSURE (PSI),AILERN POSITION (%),CANOPY CONTACT (V),GP Input 7,GP Input 8,LEFT LEVEL (Sensor V),RIGHT LEVEL (Sensor V),OIL PRESSURE (PSI),OIL TEMPERATURE (deg C),GP Input 13,Contacts,Percent Power,EGT Leaning State,Unnamed: 103,RPM,AVG_CHT (deg C),CHT_Delta_T (deg C),OIL_Delta_T (deg C),OAT (deg F),Oil Temp (deg F),Thermocouple 1 (deg F),Thermocouple 2 (deg F),Thermocouple 3 (deg F),Thermocouple 4 (deg F),CHT 4 (deg F),EGT 4 (deg F),CHT 3 (deg F),EGT 3 (deg F),CHT 2 (deg F),EGT 2 (deg F),CHT 1 (deg F),EGT 1 (deg F),Thermocouple 13 (deg F),Thermocouple 14 (deg F),OIL TEMPERATURE (deg F),AVG_CHT (deg F),CHT_Delta_T (deg F),OIL_Delta_T (deg F),Fuel Flow Integral,Distance Traveled,MPG,Max CHT,Flight ID
37.06,1.0,4.0,2026-02-13 23:45:03,37.08174,-121.59944,483.0,0.3,146.8,-12.6,0.0,,0.0,0.0,0.0,11.1,-0.3,325.6,0.0,114.0,0.0,-0.0,1.0,0.0,7.0,16.0,0.0,30.11,309.0,0.0,0.0,326.0,0.0,0.0,0.0,0.0,0.0,0.0,0.0,0.0,0.0,0.0,0.0,0.0,0.0,0.0,0.0,0.0,0.0,0.0,0.0,0.0,0.0,0.0,0.0,0.0,0.0,14.0,0.0,0.0,30.2,0.0,0.0,0.0,0.2,0.0,0.0,36.2,0.0,0.0,-0.5,1.2,0.5,0.0,0.0,0.0,0.0,15.0,16.0,15.0,16.0,15.0,16.0,15.0,17.0,0.0,0.0,-15.0,254.4,0.0,0.2,-8.0,4.998,0.0,0.0,0.653,0.79,0.0,14.5,0.0,0.0,0.0,,0.0,0.0,15.0,-1.0,-1.5,60.8,57.2,0.0,0.0,0.0,0.0,59.0,60.8,59.0,60.8,59.0,60.8,59.0,62.6,0.0,0.0,58.1,59.0,30.2,29.3,0.0,0.0,0.0,62.6,2026-02-13 15:45:03-08:00
38.06,1.0,4.0,2026-02-13 23:45:04,37.08175,-121.59946,472.0,0.1,146.8,-12.6,0.0,,0.0,0.0,0.0,11.1,-0.3,325.6,0.0,114.0,0.0,-0.0,1.0,0.0,-9.0,16.0,0.0,30.11,308.0,0.0,0.0,326.0,0.0,0.0,0.0,0.0,0.0,0.0,0.0,0.0,0.0,0.0,0.0,0.0,0.0,0.0,0.0,0.0,0.0,0.0,0.0,0.0,0.0,0.0,0.0,0.0,0.0,14.0,0.0,0.0,30.2,0.0,0.0,0.0,0.2,0.0,0.0,36.2,0.0,0.0,-0.5,1.2,0.5,0.0,0.0,0.0,0.0,15.0,16.0,15.0,16.0,15.0,16.0,15.0,16.0,0.0,0.0,-15.0,247.3,0.0,0.2,-8.0,4.998,0.0,0.0,0.653,0.79,0.0,14.5,0.0,0.0,0.0,,0.0,0.0,15.0,-1.0,-1.5,60.8,57.2,0.0,0.0,0.0,0.0,59.0,60.8,59.0,60.8,59.0,60.8,59.0,60.8,0.0,0.0,58.1,59.0,30.2,29.3,0.0,0.3373333333333333,0.0,62.6,2026-02-13 15:45:03-08:00
39.06,1.0,4.0,2026-02-13 23:45:05,37.08174,-121.59946,466.0,0.0,146.8,-12.6,0.0,,0.0,0.0,0.0,11.1,-0.3,325.6,0.0,114.0,0.0,-0.0,1.0,0.0,-5.0,16.0,0.0,30.11,308.0,0.0,0.0,326.0,0.0,0.0,0.0,0.0,0.0,0.0,0.0,0.0,0.0,0.0,0.0,0.0,0.0,0.0,0.0,0.0,0.0,0.0,0.0,0.0,0.0,0.0,0.0,0.0,0.0,14.0,0.0,0.0,30.2,0.0,0.0,0.0,0.2,0.0,0.0,36.2,0.0,0.0,-0.5,1.2,0.5,0.0,0.0,0.0,0.0,15.0,16.0,15.0,16.0,15.0,16.0,15.0,17.0,0.0,0.0,-15.0,192.5,0.0,0.2,-8.0,4.998,0.0,0.0,0.653,0.79,0.0,14.5,0.0,0.0,0.0,,0.0,0.0,15.0,-1.0,-1.5,60.8,57.2,0.0,0.0,0.0,0.0,59.0,60.8,59.0,60.8,59.0,60.8,59.0,62.6,0.0,0.0,58.1,59.0,30.2,29.3,0.0,0.42166666666666663,0.0,62.6,2026-02-13 15:45:03-08:00
40.06,1.0,4.0,2026-02-13 23:45:06,37.08174,-121.59947,463.0,0.4,146.8,-12.6,0.0,,0.0,0.0,0.0,11.1,-0.4,325.6,0.0,113.0,-0.0,-0.0,1.0,0.0,1.0,16.0,0.0,30.11,307.0,0.0,0.0,326.0,0.0,0.0,0.0,0.0,0.0,0.0,0.0,0.0,0.0,0.0,0.0,0.0,0.0,0.0,0.0,0.0,0.0,0.0,0.0,0.0,0.0,0.0,0.0,0.0,0.0,14.0,0.0,0.0,30.2,0.0,0.0,0.0,0.2,0.0,0.0,36.2,0.0,0.0,-0.5,1.2,0.5,0.0,0.0,0.0,0.0,15.0,16.0,15.0,16.0,15.0,16.0,15.0,17.0,0.0,0.0,-15.0,149.9,0.0,0.2,-8.0,4.998,0.0,0.0,0.653,0.79,0.0,14.5,0.0,0.0,0.0,,0.0,0.0,15.0,-1.0,-1.5,60.8,57.2,0.0,0.0,0.0,0.0,59.0,60.8,59.0,60.8,59.0,60.8,59.0,62.6,0.0,0.0,58.1,59.0,30.2,29.3,0.0,0.7589999999999999,0.0,62.6,2026-02-13 15:45:03-08:00
41.06,1.0,4.0,2026-02-13 23:45:07,37.08174,-121.59947,460.0,0.1,146.8,-12.6,0.0,,0.0,0.0,0.0,11.1,-0.4,325.6,0.0,113.0,0.0,-0.0,1.0,0.0,42.0,16.0,0.0,30.11,307.0,0.0,0.0,326.0,0.0,0.0,0.0,0.0,0.0,0.0,0.0,0.0,0.0,0.0,0.0,0.0,0.0,0.0,0.0,0.0,0.0,0.0,0.0,0.0,0.0,0.0,0.0,0.0,0.0,14.0,0.0,0.0,30.2,0.0,0.0,0.0,0.2,0.0,0.0,36.2,0.0,0.0,-0.5,1.2,0.5,0.0,0.0,0.0,0.0,15.0,16.0,15.0,16.0,15.0,16.0,15.0,17.0,0.0,0.0,-15.0,116.7,0.0,0.2,-8.0,4.998,0.0,0.0,0.653,0.79,0.0,14.5,0.0,0.0,0.0,,0.0,0.0,15.0,-1.0,-1.5,60.8,57.2,0.0,0.0,0.0,0.0,59.0,60.8,59.0,60.8,59.0,60.8,59.0,62.6,0.0,0.0,58.1,59.0,30.2,29.3,0.0,1.1806666666666665,0.0,62.6,2026-02-13 15:45:03-08:00
42.06,1.0,4.0,2026-02-13 23:45:08,37.08174,-121.59946,458.0,0.2,146.8,-12.6,0.0,,0.0,0.0,0.0,11.1,-0.4,325.5,0.0,113.0,0.0,-0.0,1.0,0.0,13.0,16.0,0.0,30.11,307.0,0.0,0.0,326.0,0.0,0.0,0.0,0.0,0.0,0.0,0.0,0.0,0.0,0.0,0.0,0.0,0.0,0.0,0.0,0.0,0.0,0.0,0.0,0.0,0.0,0.0,0.0,0.0,0.0,14.0,0.0,0.0,30.2,0.0,0.0,0.0,0.2,0.0,0.0,36.2,0.0,0.0,-0.5,1.2,0.5,0.0,0.0,0.0,0.0,15.0,16.0,15.0,16.0,15.0,16.0,15.0,17.0,0.0,0.0,-15.0,90.9,0.0,0.2,-8.0,4.998,0.0,0.0,0.653,0.79,0.0,14.5,0.0,0.0,0.0,,0.0,0.0,15.0,-1.0,-1.5,60.8,57.2,0.0,0.0,0.0,0.0,59.0,60.8,59.0,60.8,59.0,60.8,59.0,62.6,0.0,0.0,58.1,59.0,30.2,29.3,0.0,1.4336666666666666,0.0,62.6,2026-02-13 15:45:03-08:00
43.06,1.0,4.0,2026-02-13 23:45:09,37.08173,-121.59946,455.0,0.3,146.8,-12.6,0.0,,0.0,0.0,0.0,11.1,-0.4,325.5,0.0,113.0,0.0,-0.01,1.0,0.0,-9.0,16.0,0.0,30.11,307.0,0.0,0.0,326.0,0.0,0.0,0.0,0.0,0.0,0.0,0.0,0.0,0.0,0.0,0.0,0.0,0.0,0.0,0.0,0.0,0.0,0.0,0.0,0.0,0.0,0.0,0.0,0.0,0.0,14.0,0.0,0.0,30.2,0.0,0.0,0.0,0.2,0.0,0.0,36.2,0.0,0.0,-0.5,1.2,0.5,0.0,0.0,0.0,0.0,15.0,16.0,15.0,16.0,15.0,16.0,15.0,17.0,0.0,0.0,-15.0,70.9,0.0,0.2,-8.0,4.998,0.0,0.0,0.653,0.79,0.0,14.5,0.0,0.0,0.0,,0.0,0.0,15.0,-1.0,-1.5,60.8,57.2,0.0,0.0,0.0,0.0,59.0,60.8,59.0,60.8,59.0,60.8,59.0,62.6,0.0,0.0,58.1,59.0,30.2,29.3,0.0,1.8553333333333333,0.0,62.6,2026-02-13 15:45:03-08:00
44.06,1.0,4.0,2026-02-13 23:45:10,37.08173,-121.59946,452.0,0.2,146.8,-12.6,0.0,,0.0,0.0,0.0,11.1,-0.4,325.4,0.0,113.0,-0.0,-0.0,1.0,0.0,-16.0,16.0,0.0,30.11,307.0,0.0,0.0,326.0,0.0,0.0,0.0,0.0,0.0,0.0,0.0,0.0,0.0,0.0,0.0,0.0,0.0,0.0,0.0,0.0,0.0,0.0,0.0,0.0,0.0,0.0,0.0,0.0,0.0,14.0,0.0,0.0,30.2,0.0,0.0,0.0,0.2,0.0,0.0,36.2,0.0,0.0,-0.5,1.2,0.5,0.0,0.0,0.0,0.0,15.0,16.0,15.0,16.0,15.0,16.0,15.0,17.0,0.0,0.0,-15.0,55.3,0.0,0.2,-8.0,4.998,0.0,0.0,0.653,0.79,0.0,14.5,0.0,0.0,0.0,,0.0,0.0,15.0,-1.0,-1.5,60.8,57.2,0.0,0.0,0.0,0.0,59.0,60.8,59.0,60.8,59.0,60.8,59.0,62.6,0.0,0.0,58.1,59.0,30.2,29.3,0.0,2.2769999999999997,0.0,62.6,2026-02-13 15:45:03-08:00
45.06,1.0,4.0,2026-02-13 23:45:11,37.08173,-121.59946,448.0,0.1,146.8,-12.6,0.0,,0.0,0.0,0.0,11.1,-0.4,325.5,0.0,113.0,0.0,-0.0,1.0,0.0,-27.0,16.0,0.0,30.11,307.0,0.0,0.0,326.0,0.0,0.0,0.0,0.0,0.0,0.0,0.0,0.0,0.0,0.0,0.0,0.0,0.0,0.0,0.0,0.0,0.0,0.0,0.0,0.0,0.0,0.0,0.0,0.0,0.0,14.0,0.0,0.0,30.2,0.0,0.0,0.0,0.2,0.0,0.0,36.2,0.0,0.0,-0.5,1.2,0.5,0.0,0.0,0.0,0.0,15.0,16.0,15.0,16.0,15.0,16.0,15.0,17.0,0.0,0.0,-15.0,43.2,0.0,0.2,-8.0,4.998,0.0,0.0,0.653,0.79,0.0,14.5,0.0,0.0,0.0,,0.0,0.0,15.0,-1.0,-1.5,60.8,57.2,0.0,0.0,0.0,0.0,59.0,60.8,59.0,60.8,59.0,60.8,59.0,62.6,0.0,0.0,58.1,59.0,30.2,29.3,0.0,2.53,0.0,62.6,2026-02-13 15:45:03-08:00
46.06,1.0,4.0,2026-02-13 23:45:12,37.08173,-121.59946,444.0,0.2,146.8,-12.6,0.0,,0.0,0.0,0.0,11.1,-0.4,325.5,0.0,112.0,0.0,-0.0,1.0,0.0,-46.0,16.0,0.0,30.11,305.0,0.0,0.0,326.0,0.0,0.0,0.0,0.0,0.0,0.0,0.0,0.0,0.0,0.0,0.0,0.0,0.0,0.0,0.0,0.0,0.0,0.0,0.0,0.0,0.0,0.0,0.0,0.0,0.0,14.0,0.0,0.0,30.2,0.0,0.0,0.0,0.2,0.0,0.0,36.2,0.0,0.0,-0.5,1.2,0.5,0.0,0.0,0.0,0.0,15.0,16.0,15.0,16.0,15.0,16.0,15.0,17.0,0.0,0.0,-15.0,33.8,0.0,0.2,-8.0,4.998,0.0,0.0,0.653,0.79,0.0,14.5,0.0,0.0,0.0,,0.0,0.0,15.0,-1.0,-1.5,60.8,57.2,0.0,0.0,0.0,0.0,59.0,60.8,59.0,60.8,59.0,60.8,59.0,62.6,0.0,0.0,58.1,59.0,30.2,29.3,0.0,2.783,0.0,62.6,2026-02-13 15:45:03-08:00
47.06,1.0,4.0,2026-02-13 23:45:13,37.08173,-121.59945,441.0,0.1,146.8,-12.6,0.0,,0.0,0.0,0.0,11.1,-0.4,325.5,0.0,110.0,0.0,-0.01,1.0,0.0,-67.0,16.0,0.0,30.11,303.0,0.0,0.0,326.0,0.0,0.0,0.0,0.0,0.0,0.0,0.0,0.0,0.0,0.0,0.0,0.0,0.0,0.0,0.0,0.0,0.0,0.0,0.0,0.0,0.0,0.0,0.0,0.0,0.0,14.0,0.0,0.0,30.2,0.0,0.0,0.0,0.2,0.0,0.0,36.2,0.0,0.0,-0.5,1.2,0.5,0.0,0.0,0.0,0.0,15.0,16.0,15.0,16.0,15.0,16.0,15.0,17.0,0.0,0.0,-15.0,26.5,0.0,0.2,-8.0,4.998,0.0,0.0,0.653,0.79,0.0,14.5,0.0,0.0,0.0,,0.0,0.0,15.0,-1.0,-1.5,60.8,57.2,0.0,0.0,0.0,0.0,59.0,60.8,59.0,60.8,59.0,60.8,59.0,62.6,0.0,0.0,58.1,59.0,30.2,29.3,0.0,3.036,0.0,62.6,2026-02-13 15:45:03-08:00
48.06,1.0,4.0,2026-02-13 23:45:14,37.08173,-121.59944,437.0,0.2,146.8,-12.6,0.0,,0.0,0.0,0.0,11.1,-0.3,325.5,0.0,109.0,0.0,-0.0,1.0,0.0,-61.0,16.0,0.0,30.11,302.0,0.0,0.0,326.0,0.0,0.0,0.0,0.0,0.0,0.0,0.0,0.0,0.0,0.0,0.0,0.0,0.0,0.0,0.0,0.0,0.0,0.0,0.0,0.0,0.0,0.0,0.0,0.0,0.0,14.0,0.0,0.0,30.2,0.0,0.0,0.0,0.2,0.0,0.0,36.2,0.0,0.0,-0.5,1.2,0.5,0.0,0.0,0.0,0.0,15.0,16.0,15.0,16.0,15.0,16.0,15.0,17.0,0.0,0.0,-15.0,20.8,0.0,0.2,-8.0,4.998,0.0,0.0,0.653,0.79,0.0,14.5,0.0,0.0,0.0,,0.0,0.0,15.0,-1.0,-1.5,60.8,57.2,0.0,0.0,0.0,0.0,59.0,60.8,59.0,60.8,59.0,60.8,59.0,62.6,0.0,0.0,58.1,59.0,30.2,29.3,0.0,3.2889999999999997,0.0,62.6,2026-02-13 15:45:03-08:00
49.06,1.0,4.0,2026-02-13 23:45:15,37.08172,-121.59944,433.0,0.3,146.8,-12.6,0.0,,0.0,0.0,0.0,11.1,-0.3,325.5,0.0,107.0,0.0,-0.0,1.0,0.0,-58.0,16.0,0.0,30.11,300.0,0.0,0.0,326.0,0.0,0.0,0.0,0.0,0.0,0.0,0.0,0.0,0.0,0.0,0.0,0.0,0.0,0.0,0.0,0.0,0.0,0.0,0.0,0.0,0.0,0.0,0.0,0.0,0.0,14.0,0.0,0.0,30.2,0.0,0.0,0.0,0.2,0.0,0.0,36.2,0.0,0.0,-0.5,1.2,0.5,0.0,0.0,0.0,0.0,15.0,16.0,15.0,16.0,15.0,16.0,15.0,17.0,0.0,0.0,-15.0,16.4,0.0,0.2,-8.0,4.998,0.0,0.0,0.653,0.79,0.0,14.5,0.0,0.0,0.0,,0.0,0.0,15.0,-1.0,-1.5,60.8,57.2,0.0,0.0,0.0,0.0,59.0,60.8,59.0,60.8,59.0,60.8,59.0,62.6,0.0,0.0,58.1,59.0,30.2,29.3,0.0,3.7106666666666666,0.0,62.6,2026-02-13 15:45:03-08:00
50.06,1.0,4.0,2026-02-13 23:45:16,37.08172,-121.59943,430.0,0.1,146.8,-12.6,0.0,,0.0,0.0,0.0,11.1,-0.4,325.5,0.0,107.0,0.0,-0.01,1.0,0.0,-28.0,16.0,0.0,30.11,300.0,0.0,0.0,326.0,0.0,0.0,0.0,0.0,0.0,0.0,0.0,0.0,0.0,0.0,0.0,0.0,0.0,0.0,0.0,0.0,0.0,0.0,0.0,0.0,0.0,0.0,0.0,0.0,0.0,14.0,0.0,0.0,30.2,0.0,0.0,0.0,0.2,0.0,0.0,36.2,0.0,0.0,-0.5,1.2,0.5,0.0,0.0,0.0,0.0,15.0,16.0,15.0,16.0,15.0,16.0,15.0,17.0,0.0,0.0,-15.0,12.9,0.0,0.2,-7.0,4.998,0.0,0.0,0.653,0.79,0.0,14.5,0.0,0.0,0.0,,0.0,0.0,15.0,-1.0,-1.5,60.8,57.2,0.0,0.0,0.0,0.0,59.0,60.8,59.0,60.8,59.0,60.8,59.0,62.6,0.0,0.0,58.1,59.0,30.2,29.3,0.0,4.048,0.0,62.6,2026-02-13 15:45:03-08:00
51.06,1.0,4.0,2026-02-13 23:45:17,37.08171,-121.59943,427.0,0.1,146.8,-12.6,0.0,,0.0,0.0,0.0,11.1,-0.3,325.5,0.0,107.0,-0.0,-0.0,1.0,0.0,-25.0,16.0,0.0,30.11,299.0,0.0,0.0,326.0,0.0,0.0,0.0,0.0,0.0,0.0,0.0,0.0,0.0,0.0,0.0,0.0,0.0,0.0,0.0,0.0,0.0,0.0,0.0,0.0,0.0,0.0,0.0,0.0,0.0,14.0,0.0,0.0,30.2,0.0,0.0,0.0,0.2,0.0,0.0,36.2,0.0,0.0,-0.5,1.2,0.5,0.0,0.0,0.0,0.0,15.0,16.0,15.0,16.0,15.0,16.0,15.0,17.0,0.0,0.0,-15.0,10.3,0.0,0.2,-7.0,4.998,0.0,0.0,0.653,0.79,0.0,14.5,0.0,0.0,0.0,,0.0,0.0,15.0,-1.0,-1.5,60.8,57.2,0.0,0.0,0.0,0.0,59.0,60.8,59.0,60.8,59.0,60.8,59.0,62.6,0.0,0.0,58.1,59.0,30.2,29.3,0.0,4.216666666666667,0.0,62.6,2026-02-13 15:45:03-08:00
52.06,1.0,4.0,2026-02-13 23:45:18,37.08171,-121.59943,423.0,0.0,146.8,-12.6,0.0,,0.0,0.0,0.0,11.1,-0.4,325.5,0.0,106.0,0.0,-0.0,1.0,0.0,-7.0,16.0,0.0,30.11,298.0,0.0,0.0,326.0,0.0,0.0,0.0,0.0,0.0,0.0,0.0,0.0,0.0,0.0,0.0,0.0,0.0,0.0,0.0,0.0,0.0,0.0,0.0,0.0,0.0,0.0,0.0,0.0,0.0,14.0,0.0,0.0,30.2,0.0,0.0,0.0,0.2,0.0,0.0,36.2,0.0,0.0,-0.5,1.2,0.5,0.0,0.0,0.0,0.0,15.0,16.0,15.0,16.0,15.0,16.0,15.0,17.0,0.0,0.0,-15.0,8.2,0.0,0.2,-7.0,4.998,0.0,0.0,0.653,0.79,0.0,14.5,0.0,0.0,0.0,,0.0,0.0,15.0,-1.0,-1.5,60.8,57.2,0.0,0.0,0.0,0.0,59.0,60.8,59.0,60.8,59.0,60.8,59.0,62.6,0.0,0.0,58.1,59.0,30.2,29.3,0.0,4.301,0.0,62.6,2026-02-13 15:45:03-08:00
53.06,1.0,4.0,2026-02-13 23:45:19,37.08171,-121.59943,420.0,0.1,146.8,-12.6,0.0,,0.0,0.0,0.0,11.1,-0.4,325.5,0.0,106.0,0.0,-0.01,1.0,0.0,-22.0,16.0,0.0,30.11,298.0,0.0,0.0,326.0,0.0,0.0,0.0,0.0,0.0,0.0,0.0,0.0,0.0,0.0,0.0,0.0,0.0,0.0,0.0,0.0,0.0,0.0,0.0,0.0,0.0,0.0,0.0,0.0,0.0,14.0,0.0,0.0,30.2,0.0,0.0,0.0,0.2,0.0,0.0,36.2,0.0,0.0,-0.5,1.2,0.5,0.0,0.0,0.0,0.0,15.0,16.0,15.0,16.0,15.0,16.0,15.0,17.0,0.0,0.0,-15.0,6.6,0.0,0.2,-7.0,4.998,0.0,0.0,0.653,0.79,0.0,14.5,0.0,0.0,0.0,,0.0,0.0,15.0,-1.0,-1.5,60.8,57.2,0.0,0.0,0.0,0.0,59.0,60.8,59.0,60.8,59.0,60.8,59.0,62.6,0.0,0.0,58.1,59.0,30.2,29.3,0.0,4.3853333333333335,0.0,62.6,2026-02-13 15:45:03-08:00
54.06,1.0,4.0,2026-02-13 23:45:20,37.08171,-121.59943,416.0,0.0,146.8,-12.6,0.0,,0.0,0.0,0.0,11.1,-0.4,325.5,0.0,105.0,0.0,-0.01,1.0,0.0,-40.0,16.0,0.0,30.11,298.0,0.0,0.0,326.0,0.0,0.0,0.0,0.0,0.0,0.0,0.0,0.0,0.0,0.0,0.0,0.0,0.0,0.0,0.0,0.0,0.0,0.0,0.0,0.0,0.0,0.0,0.0,0.0,0.0,14.0,0.0,0.0,30.2,0.0,0.0,0.0,0.2,0.0,0.0,36.2,0.0,0.0,-0.5,1.2,0.5,0.0,0.0,0.0,0.0,15.0,16.0,15.0,16.0,15.0,16.0,15.0,17.0,0.0,0.0,-15.0,5.3,0.0,0.2,-7.0,4.998,0.0,0.0,0.653,0.79,0.0,14.5,0.0,0.0,0.0,,0.0,0.0,15.0,-1.0,-1.5,60.8,57.2,0.0,0.0,0.0,0.0,59.0,60.8,59.0,60.8,59.0,60.8,59.0,62.6,0.0,0.0,58.1,59.0,30.2,29.3,0.0,4.469666666666667,0.0,62.6,2026-02-13 15:45:03-08:00
55.06,1.0,4.0,2026-02-13 23:45:21,37.0817,-121.59943,413.0,0.1,146.8,-12.6,0.0,,0.0,0.0,0.0,11.1,-0.4,325.4,0.0,105.0,0.0,-0.01,1.0,0.0,-6.0,16.0,0.0,30.11,298.0,0.0,0.0,326.0,0.0,0.0,0.0,0.0,0.0,0.0,0.0,0.0,0.0,0.0,0.0,0.0,0.0,0.0,0.0,0.0,0.0,0.0,0.0,0.0,0.0,0.0,0.0,0.0,0.0,14.0,0.0,0.0,30.2,0.0,0.0,0.0,0.2,0.0,0.0,36.2,0.0,0.0,-0.5,1.2,0.5,0.0,0.0,0.0,0.0,15.0,16.0,15.0,16.0,15.0,16.0,15.0,17.0,0.0,0.0,-15.0,4.4,0.0,0.2,-7.0,4.998,0.0,0.0,0.653,0.79,0.0,14.5,0.0,0.0,0.0,,0.0,0.0,15.0,-1.0,-1.5,60.8,57.2,0.0,0.0,0.0,0.0,59.0,60.8,59.0,60.8,59.0,60.8,59.0,62.6,0.0,0.0,58.1,59.0,30.2,29.3,0.0,4.553999999999999,0.0,62.6,2026-02-13 15:45:03-08:00
56.06,1.0,4.0,2026-02-13 23:45:22,37.0817,-121.59942,411.0,0.0,146.8,-12.6,0.0,,0.0,0.0,0.0,11.1,-0.4,325.4,0.0,105.0,0.0,-0.01,1.0,0.0,-18.0,16.0,0.0,30.11,297.0,0.0,0.0,326.0,0.0,0.0,0.0,0.0,0.0,0.0,0.0,0.0,0.0,0.0,0.0,0.0,0.0,0.0,0.0,0.0,0.0,0.0,0.0,0.0,0.0,0.0,0.0,0.0,0.0,14.0,0.0,0.0,30.2,0.0,0.0,0.0,0.2,0.0,0.0,36.2,0.0,0.0,-0.5,1.2,0.5,0.0,0.0,0.0,0.0,16.0,16.0,16.0,16.0,15.0,16.0,16.0,17.0,0.0,0.0,-15.0,3.6,0.0,0.2,-7.0,4.998,0.0,0.0,0.653,0.79,0.0,14.5,0.0,0.0,0.0,,0.0,0.0,15.75,-0.25,-1.5,60.8,57.2,0.0,0.0,0.0,0.0,60.8,60.8,60.8,60.8,59.0,60.8,60.8,62.6,0.0,0.0,58.1,60.35,31.55,29.3,0.0,4.638333333333333,0.0,62.6,2026-02-13 15:45:03-08:00
57.06,1.0,4.0,2026-02-13 23:45:23,37.0817,-121.59942,409.0,0.1,146.8,-12.6,0.0,,0.0,0.0,0.0,11.1,-0.4,325.5,0.0,103.0,0.0,-0.01,1.0,0.0,-17.0,16.0,0.0,30.11,295.0,0.0,0.0,326.0,0.0,0.0,0.0,0.0,0.0,0.0,0.0,0.0,0.0,0.0,0.0,0.0,0.0,0.0,0.0,0.0,0.0,0.0,0.0,0.0,0.0,0.0,0.0,0.0,0.0,14.0,0.0,0.0,30.2,0.0,0.0,0.0,0.2,0.0,0.0,36.2,0.0,0.0,-0.5,1.2,0.5,0.0,0.0,0.0,0.0,15.0,16.0,15.0,16.0,15.0,16.0,15.0,17.0,0.0,0.0,-15.0,3.0,0.0,0.2,-7.0,4.998,0.0,0.0,0.653,0.79,0.0,14.5,0.0,0.0,0.0,,0.0,0.0,15.0,-1.0,-1.5,60.8,57.2,0.0,0.0,0.0,0.0,59.0,60.8,59.0,60.8,59.0,60.8,59.0,62.6,0.0,0.0,58.1,59.0,30.2,29.3,0.0,4.722666666666666,0.0,62.6,2026-02-13 15:45:03-08:00
58.06,1.0,4.0,2026-02-13 23:45:24,37.0817,-121.59942,407.0,0.1,146.8,-12.6,0.0,,0.0,0.0,0.0,11.0,-0.4,325.4,0.0,103.0,0.0,-0.01,1.0,0.0,-16.0,16.0,0.0,30.11,295.0,0.0,0.0,326.0,0.0,0.0,0.0,0.0,0.0,0.0,0.0,0.0,0.0,0.0,0.0,0.0,0.0,0.0,0.0,0.0,0.0,0.0,0.0,0.0,0.0,0.0,0.0,0.0,0.0,14.0,0.0,0.0,30.2,0.0,0.0,0.0,0.2,0.0,0.0,36.2,0.0,0.0,-0.5,1.2,0.5,0.0,0.0,0.0,0.0,16.0,16.0,16.0,16.0,15.0,16.0,16.0,17.0,0.0,0.0,-15.0,2.6,0.0,0.2,-7.0,4.998,0.0,0.0,0.653,0.79,0.0,14.5,0.0,0.0,0.0,,0.0,0.0,15.75,-0.25,-1.5,60.8,57.2,0.0,0.0,0.0,0.0,60.8,60.8,60.8,60.8,59.0,60.8,60.8,62.6,0.0,0.0,58.1,60.35,31.55,29.3,0.0,4.891333333333333,0.0,62.6,2026-02-13 15:45:03-08:00
59.06,1.0,4.0,2026-02-13 23:45:25,37.08169,-121.59942,405.0,0.3,146.8,-12.6,0.0,,0.0,0.0,0.0,11.0,-0.4,325.4,0.0,103.0,0.0,-0.01,1.0,0.0,3.0,16.0,0.0,30.11,295.0,0.0,0.0,326.0,0.0,0.0,0.0,0.0,0.0,0.0,0.0,0.0,0.0,0.0,0.0,0.0,0.0,0.0,0.0,0.0,0.0,0.0,0.0,0.0,0.0,0.0,0.0,0.0,0.0,15.0,0.0,0.0,30.2,0.0,0.0,0.0,0.0,0.0,0.0,36.2,0.0,0.0,-0.5,1.2,0.5,0.0,0.0,0.0,0.0,16.0,16.0,16.0,16.0,15.0,16.0,16.0,17.0,0.0,0.0,-15.0,2.2,0.0,0.0,-7.0,4.998,0.0,0.0,0.653,0.79,0.0,14.5,0.0,0.0,0.0,,0.0,0.0,15.75,-0.25,-1.5,60.8,59.0,0.0,0.0,0.0,0.0,60.8,60.8,60.8,60.8,59.0,60.8,60.8,62.6,0.0,0.0,58.1,60.35,31.55,29.3,0.0,5.228666666666666,0.0,62.6,2026-02-13 15:45:03-08:00
60.06,1.0,4.0,2026-02-13 23:45:26,37.08169,-121.59942,403.0,0.2,146.8,-12.6,0.0,,0.0,0.0,0.0,11.0,-0.4,325.4,0.0,103.0,0.0,-0.01,1.0,0.0,18.0,16.0,0.0,30.11,296.0,0.0,0.0,326.0,0.0,0.0,0.0,0.0,0.0,0.0,0.0,0.0,0.0,0.0,0.0,0.0,0.0,0.0,0.0,0.0,0.0,0.0,0.0,0.0,0.0,0.0,0.0,0.0,0.0,14.0,0.0,0.0,30.2,0.0,0.0,0.0,0.0,0.0,0.0,36.2,0.0,0.0,-0.5,1.2,0.5,0.0,0.0,0.0,0.0,16.0,16.0,16.0,16.0,15.0,16.0,16.0,17.0,0.0,0.0,-15.0,2.0,0.0,0.0,-7.0,4.998,0.0,0.0,0.653,0.79,0.0,14.5,0.0,0.0,0.0,,0.0,0.0,15.75,-0.25,-1.5,60.8,57.2,0.0,0.0,0.0,0.0,60.8,60.8,60.8,60.8,59.0,60.8,60.8,62.6,0.0,0.0,58.1,60.35,31.55,29.3,0.0,5.650333333333333,0.0,62.6,2026-02-13 15:45:03-08:00
61.06,1.0,4.0,2026-02-13 23:45:27,37.08169,-121.59942,401.0,0.2,146.8,-12.6,0.0,,0.0,0.0,0.0,11.0,-0.4,325.4,0.0,103.0,0.0,-0.01,1.0,0.0,22.0,16.0,0.0,30.11,295.0,0.0,0.0,326.0,0.0,0.0,0.0,0.0,0.0,0.0,0.0,0.0,0.0,0.0,0.0,0.0,0.0,0.0,0.0,0.0,0.0,0.0,0.0,0.0,0.0,0.0,0.0,0.0,0.0,14.0,0.0,0.0,30.2,0.0,0.0,0.0,0.0,0.0,0.0,36.2,0.0,0.0,-0.5,1.2,0.5,0.0,0.0,0.0,0.0,16.0,16.0,16.0,16.0,15.0,16.0,16.0,17.0,0.0,0.0,-15.0,1.7,0.0,0.0,-7.0,4.998,0.0,0.0,0.653,0.79,0.0,14.5,0.0,0.0,0.0,,0.0,0.0,15.75,-0.25,-1.5,60.8,57.2,0.0,0.0,0.0,0.0,60.8,60.8,60.8,60.8,59.0,60.8,60.8,62.6,0.0,0.0,58.1,60.35,31.55,29.3,0.0,5.987666666666667,0.0,62.6,2026-02-13 15:45:03-08:00
62.06,1.0,4.0,2026-02-13 23:45:28,37.08168,-121.59942,399.0,0.2,146.8,-12.6,0.0,,0.0,0.0,0.0,11.0,-0.4,325.4,0.0,103.0,0.0,-0.01,1.0,0.0,21.0,16.0,0.0,30.11,295.0,0.0,0.0,326.0,0.0,0.0,0.0,0.0,0.0,0.0,0.0,0.0,0.0,0.0,0.0,0.0,0.0,0.0,0.0,0.0,0.0,0.0,0.0,0.0,0.0,0.0,0.0,0.0,0.0,14.0,0.0,0.0,30.2,0.0,0.0,0.0,0.0,0.0,0.0,36.2,0.0,0.0,-0.5,1.2,0.5,0.0,0.0,0.0,0.0,16.0,16.0,16.0,16.0,15.0,16.0,16.0,17.0,0.0,0.0,-15.0,1.5,0.0,0.0,-7.0,4.998,0.0,0.0,0.653,0.79,0.0,14.5,0.0,0.0,0.0,,0.0,0.0,15.75,-0.25,-1.5,60.8,57.2,0.0,0.0,0.0,0.0,60.8,60.8,60.8,60.8,59.0,60.8,60.8,62.6,0.0,0.0,58.1,60.35,31.55,29.3,0.0,6.324999999999999,0.0,62.6,2026-02-13 15:45:03-08:00
63.06,1.0,4.0,2026-02-13 23:45:29,37.08168,-121.59942,398.0,0.3,146.8,-12.6,0.0,,0.0,0.0,0.0,11.0,-0.4,325.4,0.0,103.0,0.0,-0.01,1.0,0.0,-8.0,16.0,0.0,30.11,295.0,0.0,0.0,326.0,0.0,0.0,0.0,0.0,0.0,0.0,0.0,0.0,0.0,0.0,0.0,0.0,0.0,0.0,0.0,0.0,0.0,0.0,0.0,0.0,0.0,0.0,0.0,0.0,0.0,14.0,0.0,0.0,30.2,0.0,0.0,0.0,0.0,0.0,0.0,36.2,0.0,0.0,-0.5,1.2,0.5,0.0,0.0,0.0,0.0,16.0,16.0,16.0,16.0,15.0,16.0,16.0,17.0,0.0,0.0,-15.0,1.4,0.0,0.0,-7.0,4.998,0.0,0.0,0.653,0.79,0.0,14.5,0.0,0.0,0.0,,0.0,0.0,15.75,-0.25,-1.5,60.8,57.2,0.0,0.0,0.0,0.0,60.8,60.8,60.8,60.8,59.0,60.8,60.8,62.6,0.0,0.0,58.1,60.35,31.55,29.3,0.0,6.746666666666666,0.0,62.6,2026-02-13 15:45:03-08:00
64.06,1.0,4.0,2026-02-13 23:45:30,37.08168,-121.59942,397.0,0.1,146.8,-12.6,0.0,,0.0,0.0,0.0,11.1,-0.4,325.4,0.0,103.0,0.0,-0.01,1.0,0.0,22.0,16.0,0.0,30.11,295.0,0.0,0.0,326.0,0.0,0.0,0.0,0.0,0.0,0.0,0.0,0.0,0.0,0.0,0.0,0.0,0.0,0.0,0.0,0.0,0.0,0.0,0.0,0.0,0.0,0.0,0.0,0.0,0.0,14.0,0.0,0.0,30.2,0.0,0.0,0.0,0.0,0.0,0.0,36.2,0.0,0.0,-0.5,1.2,0.5,0.0,0.0,0.0,0.0,16.0,16.0,16.0,16.0,15.0,16.0,16.0,17.0,0.0,0.0,-15.0,1.3,0.0,0.0,-7.0,4.998,0.0,0.0,0.653,0.79,0.0,14.5,0.0,0.0,0.0,,0.0,0.0,15.75,-0.25,-1.5,60.8,57.2,0.0,0.0,0.0,0.0,60.8,60.8,60.8,60.8,59.0,60.8,60.8,62.6,0.0,0.0,58.1,60.35,31.55,29.3,0.0,7.084,0.0,62.6,2026-02-13 15:45:03-08:00
65.06,1.0,4.0,2026-02-13 23:45:31,37.08168,-121.59942,395.0,0.0,146.8,-12.6,0.0,,0.0,0.0,0.0,11.0,-0.4,325.4,0.0,103.0,0.0,-0.01,1.0,0.0,24.0,16.0,0.0,30.11,295.0,0.0,0.0,326.0,0.0,0.0,0.0,0.0,0.0,0.0,0.0,0.0,0.0,0.0,0.0,0.0,0.0,0.0,0.0,0.0,0.0,0.0,0.0,0.0,0.0,0.0,0.0,0.0,0.0,14.0,0.0,0.0,30.2,0.0,0.0,0.0,0.0,0.0,0.0,36.2,0.0,0.0,-0.5,1.2,0.5,0.0,0.0,0.0,0.0,16.0,16.0,16.0,16.0,15.0,16.0,16.0,17.0,0.0,0.0,-15.0,1.2,0.0,0.0,-7.0,4.998,0.0,0.0,0.653,0.79,0.0,14.5,0.0,0.0,0.0,,0.0,0.0,15.75,-0.25,-1.5,60.8,57.2,0.0,0.0,0.0,0.0,60.8,60.8,60.8,60.8,59.0,60.8,60.8,62.6,0.0,0.0,58.1,60.35,31.55,29.3,0.0,7.168333333333333,0.0,62.6,2026-02-13 15:45:03-08:00
66.06,1.0,4.0,2026-02-13 23:45:32,37.08168,-121.59942,394.0,0.1,146.8,-12.6,0.0,,0.0,0.0,0.0,11.0,-0.4,325.4,0.0,103.0,0.0,-0.01,1.0,0.0,38.0,16.0,0.0,30.11,295.0,0.0,0.0,326.0,0.0,0.0,0.0,0.0,0.0,0.0,0.0,0.0,0.0,0.0,0.0,0.0,0.0,0.0,0.0,0.0,0.0,0.0,0.0,0.0,0.0,0.0,0.0,0.0,0.0,14.0,0.0,0.0,30.2,0.0,0.0,0.0,0.0,0.0,0.0,36.2,0.0,0.0,-0.5,1.2,0.5,0.0,0.0,0.0,0.0,16.0,16.0,16.0,16.0,15.0,16.0,16.0,17.0,0.0,0.0,-15.0,1.2,0.0,0.0,-7.0,4.998,0.0,0.0,0.653,0.79,0.0,14.5,0.0,0.0,0.0,,0.0,0.0,15.75,-0.25,-1.5,60.8,57.2,0.0,0.0,0.0,0.0,60.8,60.8,60.8,60.8,59.0,60.8,60.8,62.6,0.0,0.0,58.1,60.35,31.55,29.3,0.0,7.252666666666666,0.0,62.6,2026-02-13 15:45:03-08:00
67.06,1.0,4.0,2026-02-13 23:45:33,37.08168,-121.59942,393.0,0.3,146.8,-12.6,0.0,,0.0,0.0,0.0,11.0,-0.4,325.4,0.0,103.0,0.0,-0.01,1.0,0.0,22.0,16.0,0.0,30.11,296.0,0.0,0.0,326.0,0.0,0.0,0.0,0.0,0.0,0.0,0.0,0.0,0.0,0.0,0.0,0.0,0.0,0.0,0.0,0.0,0.0,0.0,0.0,0.0,0.0,0.0,0.0,0.0,0.0,14.0,0.0,0.0,30.2,0.0,0.0,0.0,0.0,0.0,0.0,36.2,0.0,0.0,-0.5,1.2,0.5,0.0,0.0,0.0,0.0,16.0,16.0,16.0,16.0,15.0,16.0,16.0,17.0,0.0,0.0,-15.0,1.2,0.0,0.0,-7.0,4.998,0.0,0.0,0.653,0.79,0.0,14.5,0.0,0.0,0.0,,0.0,0.0,15.75,-0.25,-1.5,60.8,57.2,0.0,0.0,0.0,0.0,60.8,60.8,60.8,60.8,59.0,60.8,60.8,62.6,0.0,0.0,58.1,60.35,31.55,29.3,0.0,7.59,0.0,62.6,2026-02-13 15:45:03-08:00
68.06,1.0,4.0,2026-02-13 23:45:34,37.08167,-121.59942,392.0,0.1,146.8,-12.6,0.0,,0.0,0.0,0.0,11.0,-0.4,325.4,0.0,103.0,0.0,-0.0,1.0,0.0,70.0,16.0,0.0,30.11,295.0,0.0,0.0,326.0,0.0,0.0,0.0,0.0,0.0,0.0,0.0,0.0,0.0,0.0,0.0,0.0,0.0,0.0,0.0,0.0,0.0,0.0,0.0,0.0,0.0,0.0,0.0,0.0,0.0,15.0,0.0,0.0,30.2,0.0,0.0,0.0,0.0,0.0,0.0,36.2,0.0,0.0,-0.5,1.2,0.5,0.0,0.0,0.0,0.0,16.0,16.0,16.0,16.0,15.0,16.0,16.0,17.0,0.0,0.0,-15.0,1.1,0.0,0.0,-7.0,4.998,0.0,0.0,0.653,0.79,0.0,14.5,0.0,0.0,0.0,,0.0,0.0,15.75,-0.25,-1.5,60.8,59.0,0.0,0.0,0.0,0.0,60.8,60.8,60.8,60.8,59.0,60.8,60.8,62.6,0.0,0.0,58.1,60.35,31.55,29.3,0.0,7.927333333333333,0.0,62.6,2026-02-13 15:45:03-08:00
69.06,1.0,4.0,2026-02-13 23:45:35,37.08167,-121.59942,391.0,0.2,146.8,-12.6,0.0,,0.0,0.0,0.0,11.0,-0.4,325.4,0.0,103.0,0.0,-0.01,1.0,0.0,12.0,16.0,0.0,30.11,295.0,0.0,0.0,326.0,0.0,0.0,0.0,0.0,0.0,0.0,0.0,0.0,0.0,0.0,0.0,0.0,0.0,0.0,0.0,0.0,0.0,0.0,0.0,0.0,0.0,0.0,0.0,0.0,0.0,14.0,0.0,0.0,30.2,0.0,0.0,0.0,0.0,0.0,0.0,36.2,0.0,0.0,-0.5,1.2,0.5,0.0,0.0,0.0,0.0,16.0,16.0,16.0,16.0,15.0,16.0,16.0,17.0,0.0,0.0,-15.0,1.1,0.0,0.0,-7.0,4.998,0.0,0.0,0.653,0.79,0.0,14.5,0.0,0.0,0.0,,0.0,0.0,15.75,-0.25,-1.5,60.8,57.2,0.0,0.0,0.0,0.0,60.8,60.8,60.8,60.8,59.0,60.8,60.8,62.6,0.0,0.0,58.1,60.35,31.55,29.3,0.0,8.180333333333333,0.0,62.6,2026-02-13 15:45:03-08:00
70.06,1.0,4.0,2026-02-13 23:45:36,37.08167,-121.59942,389.0,0.1,146.8,-12.6,0.0,,0.0,0.0,0.0,11.1,-0.4,325.4,0.0,103.0,0.0,-0.01,1.0,0.0,4.0,16.0,0.0,30.11,295.0,0.0,0.0,326.0,0.0,0.0,0.0,0.0,0.0,0.0,0.0,0.0,0.0,0.0,0.0,0.0,0.0,0.0,0.0,0.0,0.0,0.0,0.0,0.0,0.0,0.0,0.0,0.0,0.0,14.0,0.0,0.0,30.2,0.0,0.0,0.0,0.0,0.0,0.0,36.2,0.0,0.0,-0.5,1.2,0.5,0.0,0.0,0.0,0.0,16.0,16.0,16.0,16.0,15.0,16.0,16.0,17.0,0.0,0.0,-15.0,1.1,0.0,0.0,-7.0,4.998,0.0,0.0,0.653,0.79,0.0,14.5,0.0,0.0,0.0,,0.0,0.0,15.75,-0.25,-1.5,60.8,57.2,0.0,0.0,0.0,0.0,60.8,60.8,60.8,60.8,59.0,60.8,60.8,62.6,0.0,0.0,58.1,60.35,31.55,29.3,0.0,8.433333333333334,0.0,62.6,2026-02-13 15:45:03-08:00
71.06,1.0,4.0,2026-02-13 23:45:37,37.08165,-121.59941,384.0,2.2,163.8,-12.6,0.0,,0.0,0.0,0.0,11.0,-0.4,325.4,0.0,103.0,0.0,-0.01,1.0,0.0,2.0,16.0,0.0,30.11,286.0,0.0,0.0,326.0,0.0,0.0,0.0,0.0,0.0,0.0,0.0,0.0,0.0,0.0,0.0,0.0,0.0,0.0,0.0,0.0,0.0,0.0,0.0,0.0,0.0,0.0,0.0,0.0,0.0,14.0,0.0,0.0,30.2,0.0,0.0,0.0,0.0,0.0,0.0,36.2,0.0,0.0,-0.5,1.2,0.5,0.0,0.0,0.0,0.0,16.0,16.0,16.0,16.0,15.0,16.0,16.0,16.0,0.0,0.0,-15.0,1.0,0.0,0.0,-7.0,4.998,0.0,0.0,0.653,0.79,0.0,14.5,0.0,0.0,0.0,,0.0,0.0,15.75,-0.25,-1.5,60.8,57.2,0.0,0.0,0.0,0.0,60.8,60.8,60.8,60.8,59.0,60.8,60.8,60.8,0.0,0.0,58.1,60.35,31.55,29.3,0.0,10.373,0.0,62.6,2026-02-13 15:45:03-08:00
72.06,1.0,4.0,2026-02-13 23:45:38,37.08166,-121.59941,384.0,0.4,283.2,-12.6,0.0,,0.0,0.0,0.0,11.1,-0.5,325.4,0.0,103.0,0.0,-0.01,1.0,0.0,25.0,16.0,0.0,30.11,286.0,0.0,0.0,326.0,0.0,0.0,0.0,0.0,0.0,0.0,0.0,0.0,0.0,0.0,0.0,0.0,0.0,0.0,0.0,0.0,0.0,0.0,0.0,0.0,0.0,0.0,0.0,0.0,0.0,14.0,0.0,0.0,30.2,0.0,0.0,0.0,0.0,0.0,0.0,36.2,0.0,0.0,-0.5,1.2,0.5,0.0,0.0,0.0,0.0,16.0,16.0,16.0,16.0,15.0,16.0,16.0,17.0,0.0,0.0,-15.0,1.0,0.0,0.0,-7.0,4.998,0.0,0.0,0.653,0.79,0.0,14.5,0.0,0.0,0.0,,0.0,0.0,15.75,-0.25,-1.5,60.8,57.2,0.0,0.0,0.0,0.0,60.8,60.8,60.8,60.8,59.0,60.8,60.8,62.6,0.0,0.0,58.1,60.35,31.55,29.3,0.0,12.565666666666665,0.0,62.6,2026-02-13 15:45:03-08:00
73.06,1.0,4.0,2026-02-13 23:45:39,37.08166,-121.59941,384.0,0.4,283.2,-12.6,0.0,,0.0,0.0,0.0,11.1,-0.5,325.4,0.0,103.0,0.0,-0.01,1.0,0.0,28.0,16.0,0.0,30.11,286.0,0.0,0.0,326.0,0.0,0.0,0.0,0.0,0.0,0.0,0.0,0.0,0.0,0.0,0.0,0.0,0.0,0.0,0.0,0.0,0.0,0.0,0.0,0.0,0.0,0.0,0.0,0.0,0.0,15.0,0.0,0.0,30.2,0.0,0.0,0.0,0.0,0.0,0.0,36.2,0.0,0.0,-0.5,1.2,0.5,0.0,0.0,0.0,0.0,15.0,16.0,16.0,16.0,15.0,16.0,16.0,17.0,0.0,0.0,-15.0,1.0,0.0,0.0,-7.0,4.998,0.0,0.0,0.653,0.79,0.0,14.5,0.0,0.0,0.0,,0.0,0.0,15.5,-0.5,-1.5,60.8,59.0,0.0,0.0,0.0,0.0,59.0,60.8,60.8,60.8,59.0,60.8,60.8,62.6,0.0,0.0,58.1,59.9,31.1,29.3,0.0,13.240333333333332,0.0,62.6,2026-02-13 15:45:03-08:00
74.06,1.0,4.0,2026-02-13 23:45:40,37.08166,-121.5994,383.0,0.5,230.4,-12.6,0.0,,0.0,0.0,0.0,11.1,-0.4,325.4,0.0,103.0,0.0,-0.01,1.0,0.0,8.0,16.0,0.0,30.11,296.0,0.0,0.0,326.0,0.0,0.0,0.0,0.0,0.0,0.0,0.0,0.0,0.0,0.0,0.0,0.0,0.0,0.0,0.0,0.0,0.0,0.0,0.0,0.0,0.0,0.0,0.0,0.0,0.0,14.0,0.0,0.0,30.2,0.0,0.0,0.0,0.0,0.0,0.0,36.2,0.0,0.0,-0.5,1.2,0.5,0.0,0.0,0.0,0.0,15.0,16.0,16.0,16.0,15.0,16.0,16.0,16.0,0.0,0.0,-15.0,1.0,0.0,0.0,-7.0,4.998,0.0,0.0,0.653,0.79,0.0,14.5,0.0,0.0,0.0,,0.0,0.0,15.5,-0.5,-1.5,60.8,57.2,0.0,0.0,0.0,0.0,59.0,60.8,60.8,60.8,59.0,60.8,60.8,60.8,0.0,0.0,58.1,59.9,31.1,29.3,0.0,13.999333333333333,0.0,62.6,2026-02-13 15:45:03-08:00
75.06,1.0,4.0,2026-02-13 23:45:41,37.08166,-121.5994,383.0,0.3,230.4,-12.6,0.0,,0.0,0.0,0.0,11.1,-0.5,325.4,0.0,103.0,0.0,-0.01,1.0,0.0,15.0,16.0,0.0,30.11,295.0,0.0,0.0,326.0,0.0,0.0,0.0,0.0,0.0,0.0,0.0,0.0,0.0,0.0,0.0,0.0,0.0,0.0,0.0,0.0,0.0,0.0,0.0,0.0,0.0,0.0,0.0,0.0,0.0,14.0,0.0,0.0,30.2,0.0,0.0,0.0,0.0,0.0,0.0,36.2,0.0,0.0,-0.5,1.2,0.5,0.0,0.0,0.0,0.0,16.0,16.0,16.0,16.0,15.0,16.0,16.0,16.0,0.0,0.0,-15.0,1.0,0.0,0.0,-7.0,4.998,0.0,0.0,0.653,0.79,0.0,14.5,0.0,0.0,0.0,,0.0,0.0,15.75,-0.25,-1.5,60.8,57.2,0.0,0.0,0.0,0.0,60.8,60.8,60.8,60.8,59.0,60.8,60.8,60.8,0.0,0.0,58.1,60.35,31.55,29.3,0.0,14.674,0.0,62.6,2026-02-13 15:45:03-08:00
76.06,1.0,4.0,2026-02-13 23:45:42,37.08166,-121.5994,382.0,0.1,230.4,-12.6,0.0,,0.0,0.0,0.0,11.1,-0.4,325.4,0.0,103.0,0.0,-0.01,1.0,0.0,41.0,16.0,0.0,30.11,295.0,0.0,0.0,326.0,0.0,0.0,0.0,0.0,0.0,0.0,0.0,0.0,0.0,0.0,0.0,0.0,0.0,0.0,0.0,0.0,0.0,0.0,0.0,0.0,0.0,0.0,0.0,0.0,0.0,14.0,0.0,0.0,30.2,0.0,0.0,0.0,0.0,0.0,0.0,36.2,0.0,0.0,-0.5,1.2,0.5,0.0,0.0,0.0,0.0,16.0,16.0,16.0,16.0,15.0,16.0,16.0,16.0,0.0,0.0,-15.0,1.0,0.0,0.0,-7.0,4.998,0.0,0.0,0.653,0.79,0.0,14.5,0.0,0.0,0.0,,0.0,0.0,15.75,-0.25,-1.5,60.8,57.2,0.0,0.0,0.0,0.0,60.8,60.8,60.8,60.8,59.0,60.8,60.8,60.8,0.0,0.0,58.1,60.35,31.55,29.3,0.0,15.011333333333333,0.0,62.6,2026-02-13 15:45:03-08:00
77.06,1.0,4.0,2026-02-13 23:45:43,37.08166,-121.5994,382.0,0.7,230.4,-12.6,0.0,,0.0,0.0,0.0,11.1,-0.4,325.5,0.0,103.0,0.0,-0.01,1.0,0.0,62.0,16.0,0.0,30.11,295.0,0.0,0.0,326.0,0.0,0.0,0.0,0.0,0.0,0.0,0.0,0.0,0.0,0.0,0.0,0.0,0.0,0.0,0.0,0.0,0.0,0.0,0.0,0.0,0.0,0.0,0.0,0.0,0.0,14.0,0.0,0.0,30.2,0.0,0.0,0.0,0.0,0.0,0.0,36.2,0.0,0.0,-0.5,1.2,0.5,0.0,0.0,0.0,0.0,15.0,16.0,16.0,16.0,15.0,16.0,16.0,16.0,0.0,0.0,-15.0,1.0,0.0,0.0,-7.0,4.998,0.0,0.0,0.653,0.79,0.0,14.5,0.0,0.0,0.0,,0.0,0.0,15.5,-0.5,-1.5,60.8,57.2,0.0,0.0,0.0,0.0,59.0,60.8,60.8,60.8,59.0,60.8,60.8,60.8,0.0,0.0,58.1,59.9,31.1,29.3,0.0,15.686,0.0,62.6,2026-02-13 15:45:03-08:00
78.06,1.0,4.0,2026-02-13 23:45:44,37.08166,-121.5994,382.0,0.2,230.4,-12.6,0.0,,0.0,0.0,0.0,11.1,-0.4,325.5,0.0,103.0,0.0,-0.01,1.0,0.0,59.0,16.0,0.0,30.11,286.0,0.0,0.0,326.0,0.0,0.0,0.0,0.0,0.0,0.0,0.0,0.0,0.0,0.0,0.0,0.0,0.0,0.0,0.0,0.0,0.0,0.0,0.0,0.0,0.0,0.0,0.0,0.0,0.0,14.0,0.0,0.0,30.2,0.0,0.0,0.0,0.0,0.0,0.0,36.2,0.0,0.0,-0.5,1.2,0.5,0.0,0.0,0.0,0.0,16.0,16.0,16.0,16.0,15.0,16.0,16.0,16.0,0.0,0.0,-15.0,1.0,0.0,0.0,-7.0,4.998,0.0,0.0,0.653,0.79,0.0,14.5,0.0,0.0,0.0,,0.0,0.0,15.75,-0.25,-1.5,60.8,57.2,0.0,0.0,0.0,0.0,60.8,60.8,60.8,60.8,59.0,60.8,60.8,60.8,0.0,0.0,58.1,60.35,31.55,29.3,0.0,16.445,0.0,62.6,2026-02-13 15:45:03-08:00
79.06,1.0,4.0,2026-02-13 23:45:45,37.08165,-121.5994,381.0,1.4,199.3,-12.6,0.0,,0.0,0.0,0.0,11.1,-0.4,325.5,0.0,103.0,0.0,-0.01,1.0,0.0,37.0,16.0,0.0,30.11,286.0,0.0,0.0,326.0,0.0,0.0,0.0,0.0,0.0,0.0,0.0,0.0,0.0,0.0,0.0,0.0,0.0,0.0,0.0,0.0,0.0,0.0,0.0,0.0,0.0,0.0,0.0,0.0,0.0,14.0,0.0,0.0,30.2,0.0,0.0,0.0,0.0,0.0,0.0,36.2,0.0,0.0,-0.5,1.2,0.5,0.0,0.0,0.0,0.0,16.0,16.0,16.0,16.0,15.0,16.0,16.0,16.0,0.0,0.0,-15.0,1.0,0.0,0.0,-7.0,4.998,0.0,0.0,0.653,0.79,0.0,14.5,0.0,0.0,0.0,,0.0,0.0,15.75,-0.25,-1.5,60.8,57.2,0.0,0.0,0.0,0.0,60.8,60.8,60.8,60.8,59.0,60.8,60.8,60.8,0.0,0.0,58.1,60.35,31.55,29.3,0.0,17.79433333333333,0.0,62.6,2026-02-13 15:45:03-08:00
80.06,1.0,4.0,2026-02-13 23:45:46,37.08165,-121.5994,380.0,0.2,127.3,-12.6,0.0,,0.0,0.0,0.0,11.1,-0.3,325.6,0.0,103.0,0.1,-0.01,1.0,0.0,39.0,16.0,0.0,30.11,286.0,0.0,0.0,326.0,0.0,0.0,0.0,0.0,0.0,0.0,0.0,0.0,0.0,0.0,0.0,0.0,0.0,0.0,0.0,0.0,0.0,0.0,0.0,0.0,0.0,0.0,0.0,0.0,0.0,14.0,0.0,0.0,30.2,0.0,0.0,0.0,0.0,0.0,0.0,36.2,0.0,0.0,-0.5,1.2,0.5,0.0,0.0,0.0,0.0,15.0,16.0,16.0,16.0,15.0,16.0,16.0,16.0,0.0,0.0,-15.0,1.0,0.0,0.0,-7.0,4.998,0.0,0.0,0.653,0.79,0.0,14.5,0.0,0.0,0.0,,0.0,0.0,15.5,-0.5,-1.5,60.8,57.2,0.0,0.0,0.0,0.0,59.0,60.8,60.8,60.8,59.0,60.8,60.8,60.8,0.0,0.0,58.1,59.9,31.1,29.3,0.0,19.143666666666665,0.0,62.6,2026-02-13 15:45:03-08:00
81.06,1.0,4.0,2026-02-13 23:45:47,37.08165,-121.5994,380.0,0.4,127.3,-12.6,0.0,,0.0,0.0,0.0,11.2,-0.3,325.6,0.0,103.0,0.0,-0.01,1.0,0.0,43.0,16.0,0.0,30.11,296.0,0.0,0.0,326.0,0.0,0.0,0.0,0.0,0.0,0.0,0.0,0.0,0.0,0.0,0.0,0.0,0.0,0.0,0.0,0.0,0.0,0.0,0.0,0.0,0.0,0.0,0.0,0.0,0.0,14.0,0.0,0.0,30.2,0.0,0.0,0.0,0.0,0.0,0.0,36.2,0.0,0.0,-0.5,1.2,0.5,0.0,0.0,0.0,0.0,15.0,16.0,16.0,16.0,15.0,16.0,16.0,16.0,0.0,0.0,-15.0,1.0,0.0,0.0,-7.0,4.998,0.0,0.0,0.653,0.79,0.0,14.5,0.0,0.0,0.0,,0.0,0.0,15.5,-0.5,-1.5,60.8,57.2,0.0,0.0,0.0,0.0,59.0,60.8,60.8,60.8,59.0,60.8,60.8,60.8,0.0,0.0,58.1,59.9,31.1,29.3,0.0,19.649666666666665,0.0,62.6,2026-02-13 15:45:03-08:00
82.06,1.0,4.0,2026-02-13 23:45:48,37.08165,-121.59939,379.0,0.0,127.3,-12.6,0.0,,0.0,0.0,0.0,11.1,-0.3,325.6,0.0,103.0,0.0,-0.01,1.0,0.0,-2.0,16.0,0.0,30.11,295.0,0.0,0.0,326.0,0.0,0.0,0.0,0.0,0.0,0.0,0.0,0.0,0.0,0.0,0.0,0.0,0.0,0.0,0.0,0.0,0.0,0.0,0.0,0.0,0.0,0.0,0.0,0.0,0.0,14.0,0.0,0.0,30.2,0.0,0.0,0.0,0.0,0.0,0.0,36.2,0.0,0.0,-0.5,1.2,0.5,0.0,0.0,0.0,0.0,16.0,16.0,16.0,16.0,15.0,16.0,16.0,16.0,0.0,0.0,-15.0,1.0,0.0,0.0,-7.0,4.998,0.0,0.0,0.653,0.79,0.0,14.5,0.0,0.0,0.0,,0.0,0.0,15.75,-0.25,-1.5,60.8,57.2,0.0,0.0,0.0,0.0,60.8,60.8,60.8,60.8,59.0,60.8,60.8,60.8,0.0,0.0,58.1,60.35,31.55,29.3,0.0,19.987,0.0,62.6,2026-02-13 15:45:03-08:00
83.06,1.0,4.0,2026-02-13 23:45:49,37.08165,-121.59939,379.0,0.1,127.3,-12.6,0.0,,0.0,0.0,0.0,11.1,-0.3,325.6,0.0,103.0,0.0,-0.01,1.0,0.0,2.0,16.0,0.0,30.11,295.0,0.0,0.0,326.0,0.0,0.0,0.0,0.0,0.0,0.0,0.0,0.0,0.0,0.0,0.0,0.0,0.0,0.0,0.0,0.0,0.0,0.0,0.0,0.0,0.0,0.0,0.0,0.0,0.0,14.0,0.0,0.0,30.2,0.0,0.0,0.0,0.0,0.0,0.0,36.2,0.0,0.0,-0.5,1.2,0.5,0.0,0.0,0.0,0.0,15.0,16.0,16.0,16.0,15.0,16.0,16.0,16.0,0.0,0.0,-15.0,1.0,0.0,0.0,-7.0,4.998,0.0,0.0,0.653,0.79,0.0,14.5,0.0,0.0,0.0,,0.0,0.0,15.5,-0.5,-1.5,60.8,57.2,0.0,0.0,0.0,0.0,59.0,60.8,60.8,60.8,59.0,60.8,60.8,60.8,0.0,0.0,58.1,59.9,31.1,29.3,0.0,20.07133333333333,0.0,62.6,2026-02-13 15:45:03-08:00
84.06,1.0,4.0,2026-02-13 23:45:50,37.08165,-121.59939,378.0,0.2,127.3,-12.6,0.0,,0.0,0.0,0.0,11.1,-0.3,325.7,0.0,103.0,0.0,-0.01,1.0,0.0,-13.0,16.0,0.0,30.11,295.0,0.0,0.0,326.0,0.0,0.0,0.0,0.0,0.0,0.0,0.0,0.0,0.0,0.0,0.0,0.0,0.0,0.0,0.0,0.0,0.0,0.0,0.0,0.0,0.0,0.0,0.0,0.0,0.0,14.0,0.0,0.0,30.2,0.0,0.0,0.0,0.0,0.0,0.0,36.2,0.0,0.0,-0.5,1.2,0.5,0.0,0.0,0.0,0.0,15.0,16.0,15.0,16.0,15.0,16.0,16.0,16.0,0.0,0.0,-15.0,0.0,0.0,0.0,-7.0,4.998,0.0,0.0,0.653,0.79,0.0,14.5,0.0,0.0,0.0,,0.0,0.0,15.25,-0.75,-1.5,60.8,57.2,0.0,0.0,0.0,0.0,59.0,60.8,59.0,60.8,59.0,60.8,60.8,60.8,0.0,0.0,58.1,59.45,30.65,29.3,0.0,20.324333333333332,0.0,62.6,2026-02-13 15:45:03-08:00
85.06,1.0,4.0,2026-02-13 23:45:51,37.08165,-121.59938,377.0,0.2,127.3,-12.6,0.0,,0.0,0.0,0.0,11.1,-0.3,325.6,0.0,103.0,0.0,-0.01,1.0,0.0,-18.0,16.0,0.0,30.11,296.0,0.0,0.0,326.0,0.0,0.0,0.0,0.0,0.0,0.0,0.0,0.0,0.0,0.0,0.0,0.0,0.0,0.0,0.0,0.0,0.0,0.0,0.0,0.0,0.0,0.0,0.0,0.0,0.0,14.0,0.0,0.0,30.2,0.0,0.0,0.0,0.0,0.0,0.0,36.2,0.0,0.0,-0.5,1.2,0.5,0.0,0.0,0.0,0.0,16.0,16.0,16.0,16.0,15.0,16.0,16.0,16.0,0.0,0.0,-15.0,0.0,0.0,0.0,-7.0,4.998,0.0,0.0,0.653,0.79,0.0,14.5,0.0,0.0,0.0,,0.0,0.0,15.75,-0.25,-1.5,60.8,57.2,0.0,0.0,0.0,0.0,60.8,60.8,60.8,60.8,59.0,60.8,60.8,60.8,0.0,0.0,58.1,60.35,31.55,29.3,0.0,20.661666666666665,0.0,62.6,2026-02-13 15:45:03-08:00
86.06,1.0,4.0,2026-02-13 23:45:52,37.08165,-121.59938,377.0,0.4,174.2,-12.6,0.0,,0.0,0.0,0.0,11.1,-0.3,325.6,0.0,103.0,0.0,-0.01,1.0,0.0,12.0,16.0,0.0,30.11,295.0,0.0,0.0,326.0,0.0,0.0,0.0,0.0,0.0,0.0,0.0,0.0,0.0,0.0,0.0,0.0,0.0,0.0,0.0,0.0,0.0,0.0,0.0,0.0,0.0,0.0,0.0,0.0,0.0,14.0,0.0,0.0,30.2,0.0,0.0,0.0,0.0,0.0,0.0,36.2,0.0,0.0,-0.5,1.2,0.5,0.0,0.0,0.0,0.0,16.0,16.0,16.0,16.0,15.0,16.0,16.0,16.0,0.0,0.0,-15.0,0.0,0.0,0.0,-7.0,4.998,0.0,0.0,0.653,0.79,0.0,14.5,0.0,0.0,0.0,,0.0,0.0,15.75,-0.25,-1.5,60.8,57.2,0.0,0.0,0.0,0.0,60.8,60.8,60.8,60.8,59.0,60.8,60.8,60.8,0.0,0.0,58.1,60.35,31.55,29.3,0.0,21.167666666666666,0.0,62.6,2026-02-13 15:45:03-08:00
87.06,1.0,4.0,2026-02-13 23:45:53,37.08165,-121.59938,376.0,0.1,174.2,-12.6,0.0,,0.0,0.0,0.0,11.1,-0.3,325.7,0.0,103.0,0.0,-0.01,1.0,0.0,-9.0,16.0,0.0,30.11,295.0,0.0,0.0,326.0,0.0,0.0,0.0,0.0,0.0,0.0,0.0,0.0,0.0,0.0,0.0,0.0,0.0,0.0,0.0,0.0,0.0,0.0,0.0,0.0,0.0,0.0,0.0,0.0,0.0,14.0,0.0,0.0,30.2,0.0,0.0,0.0,0.0,0.0,0.0,36.2,0.0,0.0,-0.5,1.2,0.5,0.0,0.0,0.0,0.0,15.0,16.0,16.0,16.0,15.0,16.0,16.0,16.0,0.0,0.0,-15.0,0.0,0.0,0.0,-7.0,4.998,0.0,0.0,0.653,0.79,0.0,14.5,0.0,0.0,0.0,,0.0,0.0,15.5,-0.5,-1.5,60.8,57.2,0.0,0.0,0.0,0.0,59.0,60.8,60.8,60.8,59.0,60.8,60.8,60.8,0.0,0.0,58.1,59.9,31.1,29.3,0.0,21.589333333333332,0.0,62.6,2026-02-13 15:45:03-08:00
88.06,1.0,4.0,2026-02-13 23:45:54,37.08165,-121.59938,376.0,0.1,174.2,-12.6,0.0,,0.0,0.0,0.0,11.1,-0.3,325.7,0.0,103.0,0.0,-0.01,1.0,0.0,-23.0,16.0,0.0,30.11,295.0,0.0,0.0,326.0,0.0,0.0,0.0,0.0,0.0,0.0,0.0,0.0,0.0,0.0,0.0,0.0,0.0,0.0,0.0,0.0,0.0,0.0,0.0,0.0,0.0,0.0,0.0,0.0,0.0,15.0,0.0,0.0,30.2,0.0,0.0,0.0,0.0,0.0,0.0,36.2,0.0,0.0,-0.5,1.2,0.5,0.0,0.0,0.0,0.0,15.0,16.0,16.0,16.0,15.0,16.0,16.0,16.0,0.0,0.0,-15.0,0.0,0.0,0.0,-7.0,4.998,0.0,0.0,0.653,0.79,0.0,14.5,0.0,0.0,0.0,,0.0,0.0,15.5,-0.5,-1.5,60.8,59.0,0.0,0.0,0.0,0.0,59.0,60.8,60.8,60.8,59.0,60.8,60.8,60.8,0.0,0.0,58.1,59.9,31.1,29.3,0.0,21.758,0.0,62.6,2026-02-13 15:45:03-08:00
89.06,1.0,4.0,2026-02-13 23:45:55,37.08165,-121.59938,376.0,0.1,174.2,-12.6,0.0,,0.0,0.0,0.0,11.1,-0.3,325.7,0.0,103.0,0.0,-0.01,1.0,0.0,-5.0,16.0,0.0,30.11,295.0,0.0,0.0,326.0,0.0,0.0,0.0,0.0,0.0,0.0,0.0,0.0,0.0,0.0,0.0,0.0,0.0,0.0,0.0,0.0,0.0,0.0,0.0,0.0,0.0,0.0,0.0,0.0,0.0,14.0,0.0,0.0,30.2,0.0,0.0,0.0,0.0,0.0,0.0,36.2,0.0,0.0,-0.5,1.2,0.5,0.0,0.0,0.0,0.0,15.0,16.0,16.0,16.0,15.0,16.0,16.0,16.0,0.0,0.0,-15.0,0.0,0.0,0.0,-7.0,4.998,0.0,0.0,0.653,0.79,0.0,14.5,0.0,0.0,0.0,,0.0,0.0,15.5,-0.5,-1.5,60.8,57.2,0.0,0.0,0.0,0.0,59.0,60.8,60.8,60.8,59.0,60.8,60.8,60.8,0.0,0.0,58.1,59.9,31.1,29.3,0.0,21.926666666666666,0.0,62.6,2026-02-13 15:45:03-08:00
90.06,1.0,4.0,2026-02-13 23:45:56,37.08165,-121.59937,375.0,0.1,124.2,-12.6,0.0,,0.0,0.0,0.0,11.1,-0.3,325.7,0.0,103.0,0.0,-0.01,1.0,0.0,-2.0,16.0,0.0,30.11,295.0,0.0,0.0,326.0,0.0,0.0,0.0,0.0,0.0,0.0,0.0,0.0,0.0,0.0,0.0,0.0,0.0,0.0,0.0,0.0,0.0,0.0,0.0,0.0,0.0,0.0,0.0,0.0,0.0,14.0,0.0,0.0,30.2,0.0,0.0,0.0,0.0,0.0,0.0,36.2,0.0,0.0,-0.5,1.2,0.5,0.0,0.0,0.0,0.0,15.0,16.0,15.0,16.0,15.0,16.0,16.0,16.0,0.0,0.0,-15.0,0.0,0.0,0.0,-7.0,4.998,0.0,0.0,0.653,0.79,0.0,14.5,0.0,0.0,0.0,,0.0,0.0,15.25,-0.75,-1.5,60.8,57.2,0.0,0.0,0.0,0.0,59.0,60.8,59.0,60.8,59.0,60.8,60.8,60.8,0.0,0.0,58.1,59.45,30.65,29.3,0.0,22.095333333333333,0.0,62.6,2026-02-13 15:45:03-08:00
91.06,1.0,4.0,2026-02-13 23:45:57,37.08165,-121.59937,375.0,0.2,124.2,-12.6,0.0,,0.0,0.0,0.0,11.1,-0.3,325.6,0.0,103.0,0.0,-0.01,1.0,0.0,-6.0,16.0,0.0,30.11,295.0,0.0,0.0,326.0,0.0,0.0,0.0,0.0,0.0,0.0,0.0,0.0,0.0,0.0,0.0,0.0,0.0,0.0,0.0,0.0,0.0,0.0,0.0,0.0,0.0,0.0,0.0,0.0,0.0,15.0,0.0,0.0,30.2,0.0,0.0,0.0,0.0,0.0,0.0,36.2,0.0,0.0,-0.5,1.2,0.5,0.0,0.0,0.0,0.0,16.0,16.0,16.0,16.0,15.0,16.0,16.0,16.0,0.0,0.0,-15.0,0.0,0.0,0.0,-7.0,4.998,0.0,0.0,0.653,0.79,0.0,14.5,0.0,0.0,0.0,,0.0,0.0,15.75,-0.25,-1.5,60.8,59.0,0.0,0.0,0.0,0.0,60.8,60.8,60.8,60.8,59.0,60.8,60.8,60.8,0.0,0.0,58.1,60.35,31.55,29.3,0.0,22.348333333333333,0.0,62.6,2026-02-13 15:45:03-08:00
92.06,1.0,4.0,2026-02-13 23:45:58,37.08165,-121.59937,375.0,0.0,124.2,-12.6,0.0,,0.0,0.0,0.0,11.1,-0.3,325.6,0.0,103.0,0.0,-0.01,1.0,0.0,7.0,16.0,0.0,30.11,295.0,0.0,0.0,326.0,0.0,0.0,0.0,0.0,0.0,0.0,0.0,0.0,0.0,0.0,0.0,0.0,0.0,0.0,0.0,0.0,0.0,0.0,0.0,0.0,0.0,0.0,0.0,0.0,0.0,14.0,0.0,0.0,30.2,0.0,0.0,0.0,0.0,0.0,0.0,36.2,0.0,0.0,-0.5,1.2,0.5,0.0,0.0,0.0,0.0,15.0,16.0,15.0,16.0,15.0,16.0,16.0,16.0,0.0,0.0,-15.0,0.0,0.0,0.0,-7.0,4.998,0.0,0.0,0.653,0.79,0.0,14.5,0.0,0.0,0.0,,0.0,0.0,15.25,-0.75,-1.5,60.8,57.2,0.0,0.0,0.0,0.0,59.0,60.8,59.0,60.8,59.0,60.8,60.8,60.8,0.0,0.0,58.1,59.45,30.65,29.3,0.0,22.517,0.0,62.6,2026-02-13 15:45:03-08:00
93.06,1.0,4.0,2026-02-13 23:45:59,37.08166,-121.59937,375.0,0.1,124.2,-12.6,0.0,,0.0,0.0,0.0,11.1,-0.3,325.6,0.0,103.0,0.0,-0.01,1.0,0.0,11.0,16.0,0.0,30.11,295.0,0.0,0.0,326.0,0.0,0.0,0.0,0.0,0.0,0.0,0.0,0.0,0.0,0.0,0.0,0.0,0.0,0.0,0.0,0.0,0.0,0.0,0.0,0.0,0.0,0.0,0.0,0.0,0.0,14.0,0.0,0.0,30.2,0.0,0.0,0.0,0.0,0.0,0.0,36.2,0.0,0.0,-0.5,1.2,0.5,0.0,0.0,0.0,0.0,16.0,16.0,16.0,17.0,16.0,16.0,16.0,17.0,0.0,0.0,-15.0,0.0,0.0,0.0,-7.0,4.998,0.0,0.0,0.653,0.79,0.0,14.5,0.0,0.0,0.0,,0.0,0.0,16.0,0.0,-1.5,60.8,57.2,0.0,0.0,0.0,0.0,60.8,60.8,60.8,62.6,60.8,60.8,60.8,62.6,0.0,0.0,58.1,60.8,32.0,29.3,0.0,22.601333333333333,0.0,62.6,2026-02-13 15:45:03-08:00
94.06,1.0,4.0,2026-02-13 23:46:00,37.08166,-121.59937,375.0,0.2,124.2,-12.6,0.0,,0.0,0.0,0.0,11.1,-0.4,325.6,0.0,103.0,0.0,-0.01,1.0,0.0,22.0,16.0,0.0,30.11,295.0,0.0,0.0,326.0,0.0,0.0,0.0,0.0,0.0,0.0,0.0,0.0,0.0,0.0,0.0,0.0,0.0,0.0,0.0,0.0,0.0,0.0,0.0,0.0,0.0,0.0,0.0,0.0,0.0,15.0,0.0,0.0,30.2,0.0,0.0,0.0,0.0,0.0,0.0,36.2,0.0,0.0,-0.5,1.2,0.5,0.0,0.0,0.0,0.0,15.0,16.0,15.0,16.0,15.0,16.0,16.0,16.0,0.0,0.0,-15.0,0.0,0.0,0.0,-7.0,4.998,0.0,0.0,0.653,0.79,0.0,14.5,0.0,0.0,0.0,,0.0,0.0,15.25,-0.75,-1.5,60.8,59.0,0.0,0.0,0.0,0.0,59.0,60.8,59.0,60.8,59.0,60.8,60.8,60.8,0.0,0.0,58.1,59.45,30.65,29.3,0.0,22.854333333333333,0.0,62.6,2026-02-13 15:45:03-08:00
95.06,1.0,4.0,2026-02-13 23:46:01,37.08166,-121.59937,375.0,0.1,124.2,-12.6,0.0,,0.0,0.0,0.0,11.1,-0.4,325.6,0.0,103.0,0.0,-0.01,1.0,0.0,3.0,16.0,0.0,30.11,296.0,0.0,0.0,326.0,0.0,0.0,0.0,0.0,0.0,0.0,0.0,0.0,0.0,0.0,0.0,0.0,0.0,0.0,0.0,0.0,0.0,0.0,0.0,0.0,0.0,0.0,0.0,0.0,0.0,15.0,0.0,0.0,30.2,0.0,0.0,0.0,0.0,0.0,0.0,36.2,0.0,0.0,-0.5,1.2,0.5,0.0,0.0,0.0,0.0,15.0,16.0,15.0,16.0,15.0,16.0,16.0,16.0,0.0,0.0,-15.0,0.0,0.0,0.0,-7.0,4.998,0.0,0.0,0.653,0.79,0.0,14.5,0.0,0.0,0.0,,0.0,0.0,15.25,-0.75,-1.5,60.8,59.0,0.0,0.0,0.0,0.0,59.0,60.8,59.0,60.8,59.0,60.8,60.8,60.8,0.0,0.0,58.1,59.45,30.65,29.3,0.0,23.107333333333333,0.0,62.6,2026-02-13 15:45:03-08:00
96.06,1.0,4.0,2026-02-13 23:46:02,37.08166,-121.59937,375.0,0.1,124.2,-12.6,0.0,,0.0,0.0,0.0,11.1,-0.3,325.5,0.0,103.0,0.0,-0.01,1.0,0.0,-17.0,16.0,0.0,30.11,295.0,0.0,0.0,326.0,0.0,0.0,0.0,0.0,0.0,0.0,0.0,0.0,0.0,0.0,0.0,0.0,0.0,0.0,0.0,0.0,0.0,0.0,0.0,0.0,0.0,0.0,0.0,0.0,0.0,15.0,0.0,0.0,30.2,0.0,0.0,0.0,0.0,0.0,0.0,36.2,0.0,0.0,-0.5,1.2,0.5,0.0,0.0,0.0,0.0,16.0,16.0,16.0,17.0,16.0,16.0,16.0,17.0,0.0,0.0,-15.0,0.0,0.0,0.0,-7.0,4.998,0.0,0.0,0.653,0.79,0.0,14.5,0.0,0.0,0.0,,0.0,0.0,16.0,0.0,-1.5,60.8,59.0,0.0,0.0,0.0,0.0,60.8,60.8,60.8,62.6,60.8,60.8,60.8,62.6,0.0,0.0,58.1,60.8,32.0,29.3,0.0,23.276,0.0,62.6,2026-02-13 15:45:03-08:00
97.06,1.0,4.0,2026-02-13 23:46:03,37.08166,-121.59935,374.0,0.1,124.2,-12.6,0.0,,0.0,0.0,0.0,11.1,-0.3,325.6,0.0,103.0,0.0,-0.01,1.0,0.0,-15.0,16.0,0.0,30.11,295.0,0.0,0.0,326.0,0.0,0.0,0.0,0.0,0.0,0.0,0.0,0.0,0.0,0.0,0.0,0.0,0.0,0.0,0.0,0.0,0.0,0.0,0.0,0.0,0.0,0.0,0.0,0.0,0.0,15.0,0.0,0.0,30.2,0.0,0.0,0.0,0.0,0.0,0.0,36.2,0.0,0.0,-0.5,1.2,0.5,0.0,0.0,0.0,0.0,16.0,16.0,16.0,17.0,16.0,16.0,16.0,17.0,0.0,0.0,-15.0,0.0,0.0,0.0,-7.0,4.998,0.0,0.0,0.653,0.79,0.0,14.5,0.0,0.0,0.0,,0.0,0.0,16.0,0.0,-1.5,60.8,59.0,0.0,0.0,0.0,0.0,60.8,60.8,60.8,62.6,60.8,60.8,60.8,62.6,0.0,0.0,58.1,60.8,32.0,29.3,0.0,23.444666666666667,0.0,62.6,2026-02-13 15:45:03-08:00
98.06,1.0,4.0,2026-02-13 23:46:04,37.08166,-121.59934,373.0,0.1,124.2,-12.6,0.0,,0.0,0.0,0.0,11.1,-0.4,325.6,0.0,103.0,0.0,-0.01,1.0,0.0,-41.0,16.0,0.0,30.11,295.0,0.0,0.0,326.0,0.0,0.0,0.0,0.0,0.0,0.0,0.0,0.0,0.0,0.0,0.0,0.0,0.0,0.0,0.0,0.0,0.0,0.0,0.0,0.0,0.0,0.0,0.0,0.0,0.0,14.0,0.0,0.0,30.2,0.0,0.0,0.0,0.0,0.0,0.0,36.2,0.0,0.0,-0.5,1.2,0.5,0.0,0.0,0.0,0.0,16.0,16.0,16.0,17.0,16.0,16.0,16.0,17.0,0.0,0.0,-15.0,0.0,0.0,0.0,-7.0,4.998,0.0,0.0,0.653,0.79,0.0,14.5,0.0,0.0,0.0,,0.0,0.0,16.0,0.0,-1.5,60.8,57.2,0.0,0.0,0.0,0.0,60.8,60.8,60.8,62.6,60.8,60.8,60.8,62.6,0.0,0.0,58.1,60.8,32.0,29.3,0.0,23.613333333333333,0.0,62.6,2026-02-13 15:45:03-08:00
99.06,1.0,4.0,2026-02-13 23:46:05,37.08167,-121.59933,372.0,0.1,124.2,-12.6,0.0,,0.0,0.0,0.0,11.1,-0.4,325.5,0.0,103.0,-0.0,-0.01,1.0,0.0,-57.0,16.0,0.0,30.11,296.0,0.0,0.0,326.0,0.0,0.0,0.0,0.0,0.0,0.0,0.0,0.0,0.0,0.0,0.0,0.0,0.0,0.0,0.0,0.0,0.0,0.0,0.0,0.0,0.0,0.0,0.0,0.0,0.0,15.0,0.0,0.0,30.2,0.0,0.0,0.0,0.0,0.0,0.0,36.2,0.0,0.0,-0.5,1.2,0.5,0.0,0.0,0.0,0.0,16.0,16.0,16.0,17.0,16.0,16.0,16.0,17.0,0.0,0.0,-15.0,0.0,0.0,0.0,-7.0,4.998,0.0,0.0,0.653,0.79,0.0,14.5,0.0,0.0,0.0,,0.0,0.0,16.0,0.0,-1.5,60.8,59.0,0.0,0.0,0.0,0.0,60.8,60.8,60.8,62.6,60.8,60.8,60.8,62.6,0.0,0.0,58.1,60.8,32.0,29.3,0.0,23.782,0.0,62.6,2026-02-13 15:45:03-08:00
100.06,1.0,4.0,2026-02-13 23:46:06,37.08167,-121.59933,371.0,0.1,124.2,-12.6,0.0,,0.0,0.0,0.0,11.2,-0.4,325.5,0.0,103.0,0.0,-0.01,1.0,0.0,-27.0,16.0,0.0,30.11,295.0,0.0,0.0,326.0,0.0,0.0,0.0,0.0,0.0,0.0,0.0,0.0,0.0,0.0,0.0,0.0,0.0,0.0,0.0,0.0,0.0,0.0,0.0,0.0,0.0,0.0,0.0,0.0,0.0,15.0,0.0,0.0,30.2,0.0,0.0,0.0,0.0,0.0,0.0,36.2,0.0,0.0,-0.5,1.2,0.5,0.0,0.0,0.0,0.0,16.0,16.0,16.0,17.0,16.0,16.0,16.0,17.0,0.0,0.0,-15.0,0.0,0.0,0.0,-7.0,4.998,0.0,0.0,0.653,0.79,0.0,14.5,0.0,0.0,0.0,,0.0,0.0,16.0,0.0,-1.5,60.8,59.0,0.0,0.0,0.0,0.0,60.8,60.8,60.8,62.6,60.8,60.8,60.8,62.6,0.0,0.0,58.1,60.8,32.0,29.3,0.0,23.950666666666667,0.0,62.6,2026-02-13 15:45:03-08:00
101.06,1.0,4.0,2026-02-13 23:46:07,37.08167,-121.59932,371.0,0.3,124.2,-12.6,0.0,,0.0,0.0,0.0,11.1,-0.4,325.5,0.0,103.0,0.0,-0.01,1.0,0.0,-48.0,16.0,0.0,30.11,295.0,0.0,0.0,326.0,0.0,0.0,0.0,0.0,0.0,0.0,0.0,0.0,0.0,0.0,0.0,0.0,0.0,0.0,0.0,0.0,0.0,0.0,0.0,0.0,0.0,0.0,0.0,0.0,0.0,14.0,506.0,506.0,30.2,0.0,0.0,0.0,0.0,0.0,0.0,36.2,0.0,0.0,-0.5,1.2,0.5,0.0,0.0,0.0,0.0,16.0,16.0,16.0,17.0,16.0,16.0,16.0,17.0,0.0,0.0,-15.0,0.0,0.0,0.0,-7.0,4.998,0.0,0.0,0.653,0.79,0.0,14.5,0.0,0.0,0.0,,0.0,506.0,16.0,0.0,-1.5,60.8,57.2,0.0,0.0,0.0,0.0,60.8,60.8,60.8,62.6,60.8,60.8,60.8,62.6,0.0,0.0,58.1,60.8,32.0,29.3,0.0,24.288,0.0,62.6,2026-02-13 15:45:03-08:00
102.06,1.0,4.0,2026-02-13 23:46:08,37.08167,-121.59932,371.0,0.1,124.2,-12.6,0.0,,0.0,0.0,0.0,11.2,-0.4,325.5,0.0,103.0,0.0,-0.01,1.0,0.0,-18.0,16.0,0.0,30.11,295.0,0.0,0.0,326.0,0.0,0.0,0.0,0.0,0.0,0.0,0.0,0.0,0.0,0.0,0.0,0.0,0.0,0.0,0.0,0.0,0.0,0.0,0.0,0.0,0.0,0.0,0.0,0.0,0.0,15.0,570.0,570.0,30.2,0.0,0.0,0.0,0.0,0.0,0.0,36.2,0.0,0.0,-0.5,1.2,0.5,0.0,0.0,0.0,0.0,16.0,16.0,16.0,17.0,16.0,16.0,16.0,17.0,0.0,0.0,-15.0,0.0,0.0,0.0,-7.0,4.998,0.0,0.0,0.653,0.79,0.0,14.5,0.0,0.0,0.0,,0.0,570.0,16.0,0.0,-1.5,60.8,59.0,0.0,0.0,0.0,0.0,60.8,60.8,60.8,62.6,60.8,60.8,60.8,62.6,0.0,0.0,58.1,60.8,32.0,29.3,0.0,24.625333333333334,0.0,62.6,2026-02-13 15:45:03-08:00
103.06,1.0,4.0,2026-02-13 23:46:09,37.08167,-121.59932,370.0,0.4,124.2,-12.6,0.0,,0.0,0.0,0.0,11.2,-0.4,325.6,0.0,103.0,0.0,-0.01,1.0,0.0,-26.0,16.0,0.0,30.11,294.0,0.0,0.0,326.0,0.0,0.0,0.0,0.0,0.0,0.0,0.0,0.0,0.0,0.0,0.0,0.0,0.0,0.0,0.0,0.0,0.0,0.0,0.0,0.0,0.0,0.0,0.0,0.0,0.0,14.0,688.0,688.0,30.2,0.0,0.0,0.0,0.0,0.0,0.0,36.2,0.0,0.0,-0.5,1.2,0.5,0.0,0.0,0.0,0.0,16.0,16.0,16.0,17.0,16.0,16.0,16.0,17.0,0.0,0.0,-15.0,0.0,0.0,0.0,-7.0,4.998,0.0,0.0,0.653,0.79,0.0,14.5,0.0,0.0,0.0,,0.0,688.0,16.0,0.0,-1.5,60.8,57.2,0.0,0.0,0.0,0.0,60.8,60.8,60.8,62.6,60.8,60.8,60.8,62.6,0.0,0.0,58.1,60.8,32.0,29.3,0.0,25.046999999999997,0.0,62.6,2026-02-13 15:45:03-08:00
104.06,1.0,4.0,2026-02-13 23:46:10,37.08167,-121.59932,371.0,0.2,124.2,-12.6,0.0,,0.0,0.0,0.0,11.1,-0.4,325.5,0.0,103.0,0.0,-0.01,1.0,0.0,-13.0,16.0,0.0,30.11,294.0,0.0,0.0,326.0,0.0,0.0,0.0,0.0,0.0,0.0,0.0,0.0,0.0,0.0,0.0,0.0,0.0,0.0,0.0,0.0,0.0,0.0,0.0,0.0,0.0,0.0,0.0,0.0,0.0,15.0,784.0,784.0,30.2,0.0,0.0,0.0,0.0,0.0,0.0,36.2,0.0,0.0,-0.5,1.2,0.5,0.0,0.0,0.0,0.0,16.0,16.0,16.0,17.0,16.0,16.0,16.0,17.0,0.0,0.0,-15.0,0.0,0.0,0.0,-7.0,4.998,0.0,0.0,0.653,0.79,0.0,14.5,0.0,0.0,0.0,,0.0,784.0,16.0,0.0,-1.5,60.8,59.0,0.0,0.0,0.0,0.0,60.8,60.8,60.8,62.6,60.8,60.8,60.8,62.6,0.0,0.0,58.1,60.8,32.0,29.3,0.0,25.552999999999997,0.0,62.6,2026-02-13 15:45:03-08:00
105.06,1.0,4.0,2026-02-13 23:46:11,37.08167,-121.5993,349.0,1.4,79.9,-12.6,0.0,,0.0,0.0,0.0,11.1,-0.3,325.6,0.0,103.0,0.0,-0.01,1.0,0.0,9.0,16.0,0.0,30.11,294.0,0.0,0.0,326.0,0.0,0.0,0.0,0.0,0.0,0.0,0.0,0.0,0.0,0.0,0.0,0.0,0.0,0.0,0.0,0.0,0.0,0.0,0.0,0.0,0.0,0.0,0.0,0.0,0.0,15.0,961.0,961.0,30.2,0.0,0.0,0.0,0.0,0.0,0.0,36.2,0.0,0.0,-0.5,1.2,0.5,0.0,0.0,0.0,0.0,16.0,16.0,16.0,17.0,16.0,16.0,16.0,17.0,0.0,0.0,-15.0,0.0,0.0,0.0,-7.0,4.998,0.0,0.0,0.653,0.79,0.0,14.5,0.0,0.0,0.0,,0.0,961.0,16.0,0.0,-1.5,60.8,59.0,0.0,0.0,0.0,0.0,60.8,60.8,60.8,62.6,60.8,60.8,60.8,62.6,0.0,0.0,58.1,60.8,32.0,29.3,0.0,26.90233333333333,0.0,62.6,2026-02-13 15:45:03-08:00
106.06,1.0,4.0,2026-02-13 23:46:12,37.08167,-121.5993,335.0,6.4,76.8,-12.6,0.0,,0.0,0.0,0.0,11.1,-0.4,325.6,0.0,103.0,0.0,-0.01,1.0,0.0,-4.0,16.0,0.0,30.11,295.0,0.0,0.0,326.0,0.0,0.0,0.0,0.0,0.0,0.0,0.0,0.0,0.0,0.0,0.0,0.0,0.0,0.0,0.0,0.0,0.0,0.0,0.0,0.0,0.0,0.0,0.0,0.0,0.0,15.0,939.0,939.0,30.2,0.0,0.0,0.0,0.0,0.0,0.0,36.2,0.0,0.0,-0.5,1.2,0.5,0.0,0.0,0.0,0.0,16.0,16.0,16.0,17.0,16.0,16.0,16.0,17.0,0.0,0.0,-15.0,0.0,0.0,0.0,-7.0,4.998,0.0,0.0,0.653,0.79,0.0,14.5,0.0,0.0,0.0,,0.0,939.0,16.0,0.0,-1.5,60.8,59.0,0.0,0.0,0.0,0.0,60.8,60.8,60.8,62.6,60.8,60.8,60.8,62.6,0.0,0.0,58.1,60.8,32.0,29.3,0.0,33.480333333333334,0.0,62.6,2026-02-13 15:45:03-08:00
110.06,1.0,4.0,2026-02-13 23:46:16,37.08166,-121.59922,310.0,1.2,259.0,-12.6,0.0,,0.0,0.0,0.0,10.5,-0.3,325.0,0.0,103.0,0.0,-0.01,1.0,0.0,48.0,16.0,0.0,30.11,294.0,0.0,0.0,326.0,0.0,0.0,0.0,0.0,0.0,0.0,0.0,0.0,0.0,0.0,0.0,0.0,0.0,0.0,0.0,0.0,0.0,0.0,0.0,0.0,0.0,0.0,0.0,0.0,0.0,15.0,1020.0,1020.0,30.2,0.0,0.0,0.0,0.0,0.0,0.0,36.2,0.0,0.0,-0.5,1.2,0.5,0.0,0.0,0.0,0.0,16.0,16.0,16.0,17.0,16.0,16.0,16.0,17.0,0.0,0.0,-15.0,0.0,0.0,0.0,-7.0,4.998,0.0,0.0,0.653,0.79,0.0,14.5,0.0,0.0,0.0,,0.0,1020.0,16.0,0.0,-1.5,60.8,59.0,0.0,0.0,0.0,0.0,60.8,60.8,60.8,62.6,60.8,60.8,60.8,62.6,0.0,0.0,58.1,60.8,32.0,29.3,0.0,59.117666666666665,0.0,62.6,2026-02-13 15:45:03-08:00
111.06,1.0,4.0,2026-02-13 23:46:17,37.08167,-121.59927,314.0,1.8,257.9,-12.6,0.0,,0.0,0.0,0.0,10.6,-0.3,325.1,0.0,103.0,0.0,-0.01,1.0,0.0,32.0,16.0,0.0,30.11,294.0,0.0,0.0,326.0,0.0,0.0,0.0,0.0,0.0,0.0,0.0,0.0,0.0,0.0,0.0,0.0,0.0,0.0,0.0,0.0,0.0,0.0,0.0,0.0,0.0,0.0,0.0,0.0,0.0,14.0,728.0,728.0,30.2,0.0,0.0,0.0,0.0,0.0,0.0,36.2,0.0,0.0,-0.5,1.2,0.5,0.0,0.0,0.0,0.0,16.0,16.0,16.0,17.0,16.0,16.0,16.0,17.0,0.0,0.0,-15.0,0.0,0.0,0.0,-7.0,4.998,0.0,0.0,0.653,0.79,0.0,14.5,0.0,0.0,0.0,,0.0,728.0,16.0,0.0,-1.5,60.8,57.2,0.0,0.0,0.0,0.0,60.8,60.8,60.8,62.6,60.8,60.8,60.8,62.6,0.0,0.0,58.1,60.8,32.0,29.3,0.0,61.64766666666666,0.0,62.6,2026-02-13 15:45:03-08:00
112.06,1.0,4.0,2026-02-13 23:46:18,37.08167,-121.5993,321.0,1.2,252.6,-12.6,0.0,,0.0,0.0,0.0,9.8,-0.3,324.9,0.0,103.0,0.0,-0.01,1.0,0.0,14.0,16.0,0.0,30.11,294.0,0.0,0.0,326.0,0.0,0.0,0.0,0.0,0.0,0.0,0.0,0.0,0.0,0.0,0.0,0.0,0.0,0.0,0.0,0.0,0.0,0.0,0.0,0.0,0.0,0.0,0.0,0.0,0.0,15.0,596.0,596.0,30.2,0.0,0.0,0.0,0.0,0.0,0.0,36.2,0.0,0.0,-0.5,1.2,0.5,0.0,0.0,0.0,0.0,16.0,16.0,16.0,17.0,16.0,16.0,16.0,17.0,0.0,0.0,-15.0,0.0,0.0,0.0,-7.0,4.998,0.0,0.0,0.653,0.79,0.0,14.5,0.0,0.0,0.0,,0.0,596.0,16.0,0.0,-1.5,60.8,59.0,0.0,0.0,0.0,0.0,60.8,60.8,60.8,62.6,60.8,60.8,60.8,62.6,0.0,0.0,58.1,60.8,32.0,29.3,0.0,64.17766666666667,0.0,62.6,2026-02-13 15:45:03-08:00
114.06,1.0,4.0,2026-02-13 23:46:20,37.0817,-121.5993,359.0,0.8,88.0,-12.6,0.0,,0.0,0.0,0.0,9.8,-0.3,324.4,0.0,103.0,0.0,-0.01,1.0,0.0,20.0,16.0,0.0,30.11,294.0,0.0,0.0,326.0,0.0,0.0,0.0,0.0,0.0,0.0,0.0,0.0,0.0,0.0,0.0,0.0,0.0,0.0,0.0,0.0,0.0,0.0,0.0,0.0,0.0,0.0,0.0,0.0,0.0,15.0,958.0,958.0,30.2,0.0,0.0,0.0,0.0,0.0,0.0,36.2,0.0,0.0,-0.5,1.2,0.5,0.0,0.0,0.0,0.0,16.0,16.0,16.0,17.0,16.0,16.0,16.0,17.0,0.0,0.0,-15.0,0.0,0.0,0.0,-7.0,4.998,0.0,0.0,0.653,0.79,0.0,14.5,0.0,0.0,0.0,,0.0,958.0,16.0,0.0,-1.5,60.8,59.0,0.0,0.0,0.0,0.0,60.8,60.8,60.8,62.6,60.8,60.8,60.8,62.6,0.0,0.0,58.1,60.8,32.0,29.3,0.0,67.55099999999999,0.0,62.6,2026-02-13 15:45:03-08:00
115.06,1.0,4.0,2026-02-13 23:46:21,37.0817,-121.59931,357.0,1.1,87.3,-12.6,0.0,,0.0,0.0,0.0,10.1,-0.3,324.5,0.0,103.0,0.0,-0.01,1.0,0.0,21.0,16.0,0.0,30.11,294.0,0.0,0.0,326.0,0.0,0.0,0.0,0.0,0.0,0.0,0.0,0.0,0.0,0.0,0.0,0.0,0.0,0.0,0.0,0.0,0.0,0.0,0.0,0.0,0.0,0.0,0.0,0.0,0.0,15.0,1889.0,1889.0,30.2,0.0,0.0,0.0,0.0,0.0,0.0,36.2,0.0,0.0,-0.5,1.2,0.5,0.0,0.0,0.0,0.0,16.0,16.0,16.0,17.0,16.0,16.0,16.0,17.0,0.0,0.0,-15.0,0.0,0.0,0.0,-7.0,4.998,0.0,0.0,0.653,0.79,0.0,14.5,0.0,0.0,0.0,,0.0,1889.0,16.0,0.0,-1.5,60.8,59.0,0.0,0.0,0.0,0.0,60.8,60.8,60.8,62.6,60.8,60.8,60.8,62.6,0.0,0.0,58.1,60.8,32.0,29.3,0.0,69.15333333333332,0.0,62.6,2026-02-13 15:45:03-08:00
117.06,1.0,4.0,2026-02-13 23:46:23,37.0817,-121.59936,384.0,0.9,242.3,-12.6,0.0,,0.0,0.0,0.0,10.4,-0.3,324.8,0.0,103.0,0.0,-0.01,1.0,0.0,-4.0,16.0,0.0,30.11,295.0,0.0,0.0,326.0,0.0,0.0,0.0,0.0,0.0,0.0,0.0,0.0,0.0,0.0,0.0,0.0,0.0,0.0,0.0,0.0,0.0,0.0,0.0,0.0,0.0,0.0,0.0,0.0,0.0,15.0,971.0,971.0,30.2,0.0,0.0,0.0,0.0,0.0,0.0,36.2,0.0,0.0,-0.5,1.2,0.5,0.0,0.0,0.0,0.0,16.0,16.0,16.0,17.0,16.0,16.0,16.0,17.0,0.0,0.0,-15.0,0.0,0.0,0.0,-7.0,4.998,0.0,0.0,0.653,0.79,0.0,14.5,0.0,0.0,0.0,,0.0,971.0,16.0,0.0,-1.5,60.8,59.0,0.0,0.0,0.0,0.0,60.8,60.8,60.8,62.6,60.8,60.8,60.8,62.6,0.0,0.0,58.1,60.8,32.0,29.3,0.0,72.52666666666666,0.0,62.6,2026-02-13 15:45:03-08:00
118.06,1.0,4.0,2026-02-13 23:46:24,37.0817,-121.59937,380.0,0.1,242.3,-12.6,0.0,,0.0,0.0,0.0,10.5,-0.3,324.9,0.0,103.0,-0.0,-0.01,1.0,0.0,35.0,16.0,0.0,30.11,294.0,0.0,0.0,326.0,0.0,0.0,0.0,0.0,0.0,0.0,0.0,0.0,0.0,0.0,0.0,0.0,0.0,0.0,0.0,0.0,0.0,0.0,0.0,0.0,0.0,0.0,0.0,0.0,0.0,15.0,1220.0,1220.0,30.2,0.0,0.0,0.0,0.0,0.0,0.0,36.2,0.0,0.0,-0.5,1.2,0.5,0.0,0.0,0.0,0.0,16.0,16.0,16.0,17.0,16.0,16.0,16.0,17.0,0.0,0.0,-15.0,0.0,0.0,0.0,-7.0,4.998,0.0,0.0,0.653,0.79,0.0,14.5,0.0,0.0,0.0,,0.0,1220.0,16.0,0.0,-1.5,60.8,59.0,0.0,0.0,0.0,0.0,60.8,60.8,60.8,62.6,60.8,60.8,60.8,62.6,0.0,0.0,58.1,60.8,32.0,29.3,0.0,73.36999999999999,0.0,62.6,2026-02-13 15:45:03-08:00
119.06,1.0,4.0,2026-02-13 23:46:25,37.0817,-121.59937,376.0,0.0,242.3,-12.6,0.0,,0.0,0.0,0.0,10.6,-0.4,325.0,0.0,103.0,-0.0,-0.01,1.0,0.0,19.0,16.0,0.0,30.11,294.0,0.0,0.0,326.0,0.0,0.0,0.0,0.0,0.0,0.0,0.0,0.0,0.0,0.0,0.0,0.0,0.0,0.0,0.0,0.0,0.0,0.0,0.0,0.0,0.0,0.0,0.0,0.0,0.0,15.0,1898.0,1898.0,30.2,0.0,0.0,0.0,0.0,0.0,0.0,36.2,0.0,0.0,-0.5,1.2,0.5,0.0,0.0,0.0,0.0,16.0,16.0,16.0,17.0,16.0,16.0,16.0,17.0,0.0,0.0,-15.0,0.0,0.0,0.0,-7.0,4.998,0.0,0.0,0.653,0.79,0.0,14.5,0.0,0.0,0.0,,0.0,1898.0,16.0,0.0,-1.5,60.8,59.0,0.0,0.0,0.0,0.0,60.8,60.8,60.8,62.6,60.8,60.8,60.8,62.6,0.0,0.0,58.1,60.8,32.0,29.3,0.0,73.45433333333332,0.0,62.6,2026-02-13 15:45:03-08:00
120.06,1.0,4.0,2026-02-13 23:46:26,37.0817,-121.59937,376.0,1.5,250.2,-12.6,0.0,,0.0,0.0,0.0,10.7,-0.3,325.1,0.0,103.0,0.0,-0.01,1.0,0.0,20.0,16.0,0.0,30.11,294.0,0.0,0.0,326.0,0.0,0.0,0.0,0.0,0.0,0.0,0.0,0.0,0.0,0.0,0.0,0.0,0.0,0.0,0.0,0.0,0.0,0.0,0.0,0.0,0.0,0.0,0.0,0.0,0.0,15.0,2327.0,2327.0,30.2,0.0,0.0,0.0,0.0,0.0,0.0,36.2,0.0,0.0,-0.5,1.2,0.5,0.0,0.0,0.0,0.0,16.0,16.0,16.0,17.0,16.0,16.0,16.0,17.0,0.0,0.0,-15.0,0.0,0.0,0.0,-7.0,4.998,0.0,0.0,0.653,0.79,0.0,14.5,0.0,0.0,0.0,,0.0,2327.0,16.0,0.0,-1.5,60.8,59.0,0.0,0.0,0.0,0.0,60.8,60.8,60.8,62.6,60.8,60.8,60.8,62.6,0.0,0.0,58.1,60.8,32.0,29.3,0.0,74.71933333333332,0.0,62.6,2026-02-13 15:45:03-08:00
121.06,1.0,4.0,2026-02-13 23:46:27,37.0817,-121.59937,376.0,0.4,254.4,-12.6,0.0,,0.0,0.0,0.0,10.8,-0.3,325.2,0.0,103.0,0.0,-0.01,1.0,0.0,32.0,16.0,0.0,30.11,294.0,0.0,0.0,326.0,0.0,0.0,0.0,0.0,0.0,0.0,0.0,0.0,0.0,0.0,0.0,0.0,0.0,0.0,0.0,0.0,0.0,0.0,0.0,0.0,0.0,0.0,0.0,0.0,0.0,15.0,1091.0,1091.0,30.2,0.0,0.0,0.0,0.0,0.0,0.0,36.2,0.0,0.0,-0.5,1.2,0.5,0.0,0.0,0.0,0.0,16.0,16.0,16.0,17.0,16.0,16.0,16.0,17.0,0.0,0.0,-15.0,0.0,0.0,0.0,-7.0,4.998,0.0,0.0,0.653,0.79,0.0,14.5,0.0,0.0,0.0,,0.0,1091.0,16.0,0.0,-1.5,60.8,59.0,0.0,0.0,0.0,0.0,60.8,60.8,60.8,62.6,60.8,60.8,60.8,62.6,0.0,0.0,58.1,60.8,32.0,29.3,0.0,76.32166666666666,0.0,62.6,2026-02-13 15:45:03-08:00
122.06,1.0,4.0,2026-02-13 23:46:28,37.0817,-121.59937,375.0,1.7,255.5,-12.6,0.0,,0.0,0.0,0.0,10.8,-0.3,325.3,0.0,103.0,0.0,-0.01,1.0,0.0,-4.0,16.0,0.0,30.11,294.0,0.0,0.0,326.0,0.0,0.0,0.0,0.0,0.0,0.0,0.0,0.0,0.0,0.0,0.0,0.0,0.0,0.0,0.0,0.0,0.0,0.0,0.0,0.0,0.0,0.0,0.0,0.0,0.0,15.0,1484.0,1484.0,30.2,0.0,0.0,0.0,0.0,0.0,0.0,36.2,0.0,0.0,-0.5,1.2,0.5,0.0,0.0,0.0,0.0,16.0,16.0,16.0,17.0,16.0,16.0,16.0,17.0,0.0,0.0,-15.0,0.0,0.0,0.0,-7.0,4.998,0.0,0.0,0.653,0.79,0.0,14.5,0.0,0.0,0.0,,0.0,1484.0,16.0,0.0,-1.5,60.8,59.0,0.0,0.0,0.0,0.0,60.8,60.8,60.8,62.6,60.8,60.8,60.8,62.6,0.0,0.0,58.1,60.8,32.0,29.3,0.0,78.09266666666666,0.0,62.6,2026-02-13 15:45:03-08:00
123.06,1.0,4.0,2026-02-13 23:46:29,37.08169,-121.59937,373.0,0.1,256.2,-12.6,0.0,,0.0,0.0,0.0,10.9,-0.3,325.4,0.0,103.0,0.0,-0.01,1.0,0.0,27.0,16.0,0.0,30.11,294.0,0.0,0.0,326.0,0.0,0.0,0.0,0.0,0.0,0.0,0.0,0.0,0.0,0.0,0.0,0.0,0.0,0.0,0.0,0.0,0.0,0.0,0.0,0.0,0.0,0.0,0.0,0.0,0.0,15.0,956.0,956.0,30.2,0.0,0.0,0.0,0.0,0.0,0.0,36.2,0.0,0.0,-0.5,1.2,0.5,0.0,0.0,0.0,0.0,16.0,16.0,16.0,17.0,16.0,16.0,16.0,17.0,0.0,0.0,-15.0,0.0,0.0,0.0,-7.0,4.998,0.0,0.0,0.653,0.79,0.0,14.5,0.0,0.0,0.0,,0.0,956.0,16.0,0.0,-1.5,60.8,59.0,0.0,0.0,0.0,0.0,60.8,60.8,60.8,62.6,60.8,60.8,60.8,62.6,0.0,0.0,58.1,60.8,32.0,29.3,0.0,79.61066666666666,0.0,62.6,2026-02-13 15:45:03-08:00
124.06,1.0,4.0,2026-02-13 23:46:30,37.08168,-121.59938,370.0,0.4,234.1,-12.6,0.0,,0.0,0.0,0.0,11.0,-0.3,325.5,0.0,103.0,0.0,-0.01,1.0,0.0,29.0,16.0,0.0,30.11,294.0,0.0,0.0,326.0,0.0,0.0,0.0,0.0,0.0,0.0,0.0,0.0,0.0,0.0,0.0,0.0,0.0,0.0,0.0,0.0,0.0,0.0,0.0,0.0,0.0,0.0,0.0,0.0,0.0,15.0,1074.0,1074.0,30.2,0.0,0.0,0.0,0.0,0.0,0.0,36.2,0.0,0.0,-0.5,1.2,0.5,0.0,0.0,0.0,0.0,16.0,16.0,16.0,17.0,16.0,16.0,16.0,17.0,0.0,0.0,-15.0,0.0,0.0,0.0,-7.0,4.998,0.0,0.0,0.653,0.79,0.0,14.5,0.0,0.0,0.0,,0.0,1074.0,16.0,0.0,-1.5,60.8,59.0,0.0,0.0,0.0,0.0,60.8,60.8,60.8,62.6,60.8,60.8,60.8,62.6,0.0,0.0,58.1,60.8,32.0,29.3,0.0,80.03233333333333,0.0,62.6,2026-02-13 15:45:03-08:00
126.06,1.0,4.0,2026-02-13 23:46:32,37.08151,-121.59944,302.0,3.3,341.2,-12.6,0.0,,0.0,0.0,0.0,10.4,-0.3,325.2,0.0,103.0,0.0,-0.01,1.0,0.0,52.0,16.0,0.0,30.11,294.0,0.0,0.0,326.0,0.0,0.0,0.0,0.0,0.0,0.0,0.0,0.0,0.0,0.0,0.0,0.0,0.0,0.0,0.0,0.0,0.0,0.0,0.0,0.0,0.0,0.0,0.0,0.0,0.0,15.0,703.0,703.0,30.2,0.0,0.0,0.0,0.0,0.0,0.0,36.2,0.0,0.0,-0.5,1.2,0.5,0.0,0.0,0.0,0.0,16.0,16.0,16.0,17.0,16.0,16.0,16.0,17.0,0.0,0.0,-15.0,0.0,0.0,0.0,-7.0,4.998,0.0,0.0,0.653,0.79,0.0,14.5,0.0,0.0,0.0,,0.0,703.0,16.0,0.0,-1.5,60.8,59.0,0.0,0.0,0.0,0.0,60.8,60.8,60.8,62.6,60.8,60.8,60.8,62.6,0.0,0.0,58.1,60.8,32.0,29.3,0.0,86.273,0.0,62.6,2026-02-13 15:45:03-08:00
129.06,1.0,4.0,2026-02-13 23:46:35,37.08152,-121.59947,335.0,2.8,356.7,-12.6,0.0,,0.0,0.0,0.0,9.2,-0.3,323.7,0.0,103.0,-0.0,-0.01,1.0,0.0,52.0,16.0,0.0,30.11,286.0,0.0,0.0,326.0,0.0,0.0,0.0,0.0,0.0,0.0,0.0,0.0,0.0,0.0,0.0,0.0,0.0,0.0,0.0,0.0,0.0,0.0,0.0,0.0,0.0,0.0,0.0,0.0,0.0,15.0,1206.0,1206.0,30.2,0.0,0.0,0.0,0.0,0.0,0.0,36.2,0.0,0.0,-0.5,1.2,0.5,0.0,0.0,0.0,0.0,16.0,16.0,16.0,17.0,16.0,16.0,16.0,17.0,0.0,0.0,-15.0,0.0,0.0,0.0,-7.0,4.998,0.0,0.0,0.653,0.79,0.0,14.5,0.0,0.0,0.0,,0.0,1206.0,16.0,0.0,-1.5,60.8,59.0,0.0,0.0,0.0,0.0,60.8,60.8,60.8,62.6,60.8,60.8,60.8,62.6,0.0,0.0,58.1,60.8,32.0,29.3,0.0,101.70599999999999,0.0,62.6,2026-02-13 15:45:03-08:00
130.06,1.0,4.0,2026-02-13 23:46:36,37.08151,-121.5995,322.0,0.8,352.4,-12.6,0.0,,0.0,0.0,0.0,9.6,-0.3,323.7,0.0,104.0,-0.0,-0.01,1.0,0.0,52.0,16.0,0.0,30.11,288.0,0.0,0.0,326.0,0.0,0.0,0.0,0.0,0.0,0.0,0.0,0.0,0.0,0.0,0.0,0.0,0.0,0.0,0.0,0.0,0.0,0.0,0.0,0.0,0.0,0.0,0.0,0.0,0.0,15.0,868.0,868.0,30.2,0.0,0.0,0.0,0.0,0.0,0.0,36.2,0.0,0.0,-0.5,1.2,0.5,0.0,0.0,0.0,0.0,16.0,16.0,16.0,17.0,16.0,16.0,16.0,17.0,0.0,0.0,-15.0,0.0,0.0,0.0,-7.0,4.998,0.0,0.0,0.653,0.79,0.0,14.5,0.0,0.0,0.0,,0.0,868.0,16.0,0.0,-1.5,60.8,59.0,0.0,0.0,0.0,0.0,60.8,60.8,60.8,62.6,60.8,60.8,60.8,62.6,0.0,0.0,58.1,60.8,32.0,29.3,0.0,104.74199999999999,0.0,62.6,2026-02-13 15:45:03-08:00
131.06,1.0,4.0,2026-02-13 23:46:37,37.0815,-121.59953,320.0,0.2,273.1,-12.6,0.0,,0.0,0.0,0.0,9.9,-0.3,324.0,0.0,105.0,0.0,-0.01,1.0,0.0,41.0,16.0,0.0,30.11,289.0,0.0,0.0,326.0,0.0,0.0,0.0,0.0,0.0,0.0,0.0,0.0,0.0,0.0,0.0,0.0,0.0,0.0,0.0,0.0,0.0,0.0,0.0,0.0,0.0,0.0,0.0,0.0,0.0,15.0,900.0,900.0,30.2,0.0,0.0,0.0,0.0,0.0,0.0,36.2,0.0,0.0,-0.5,1.2,0.5,0.0,0.0,0.0,0.0,16.0,16.0,16.0,17.0,16.0,16.0,16.0,17.0,0.0,0.0,-15.0,0.0,0.0,0.0,-7.0,4.998,0.0,0.0,0.653,0.79,0.0,14.5,0.0,0.0,0.0,,0.0,900.0,16.0,0.0,-1.5,60.8,59.0,0.0,0.0,0.0,0.0,60.8,60.8,60.8,62.6,60.8,60.8,60.8,62.6,0.0,0.0,58.1,60.8,32.0,29.3,0.0,105.58533333333332,0.0,62.6,2026-02-13 15:45:03-08:00
132.06,1.0,4.0,2026-02-13 23:46:38,37.08149,-121.59953,317.0,0.4,273.1,-12.6,0.0,,0.0,0.0,0.0,10.1,-0.3,324.2,0.0,105.0,0.0,-0.01,1.0,0.0,41.0,16.0,0.0,30.11,289.0,0.0,0.0,326.0,0.0,0.0,0.0,0.0,0.0,0.0,0.0,0.0,0.0,0.0,0.0,0.0,0.0,0.0,0.0,0.0,0.0,0.0,0.0,0.0,0.0,0.0,0.0,0.0,0.0,15.0,1035.0,1035.0,30.2,0.0,0.0,0.0,0.0,0.0,0.0,36.2,0.0,0.0,-0.5,1.2,0.5,0.0,0.0,0.0,0.0,16.0,16.0,16.0,17.0,16.0,16.0,16.0,17.0,0.0,0.0,-15.0,0.0,0.0,0.0,-7.0,4.998,0.0,0.0,0.653,0.79,0.0,14.5,0.0,0.0,0.0,,0.0,1035.0,16.0,0.0,-1.5,60.8,59.0,0.0,0.0,0.0,0.0,60.8,60.8,60.8,62.6,60.8,60.8,60.8,62.6,0.0,0.0,58.1,60.8,32.0,29.3,0.0,106.09133333333332,0.0,62.6,2026-02-13 15:45:03-08:00
