Session Time,GPS Fix Quality,Number of Satellites,GPS Date & Time,Latitude (deg),Longitude (deg),GPS Altitude (feet),Ground Speed (knots),Ground Track (deg),Mag Var (deg),Cross Track Error (NM),Destination Waypoint ID,Range to Destination (NM),Bearing to Destination (deg),System Time,Pitch (deg),Roll (deg),Magnetic Heading (deg),Indicated Airspeed (knots),Pressure Altitude (ft),Turn Rate (deg/s),Lateral Accel (g),Vertical Accel(g),Angle of Attack (%),Vertical Speed (ft/min),OAT (deg C),True Airspeed (knots),Barometer Setting (inHg),Density Altitude (ft),Wind Direction (deg),Wind Speed (knots),Heading Bug (deg),Altitude Bug (ft),Airspeed Bug (knots),Vertical Speed Bug (ft/min),Course (deg),CDI Source Type,CDI Source Port,CDI Scale (NM),CDI Deflection (%),Glideslope (%),AP Engaged,AP Roll Mode,AP Roll Force,AP Roll Position (steps),AP Roll Slip (bool),AP Pitch Force,AP Pitch Position (steps),AP Pitch Slip (bool),AP Yaw Force,AP Yaw Position,AP Yaw Slip (bool),Transponder Status,Transponder Reply (bool),Transponder Identing (bool),Transponder Code (octal),Oil Pressure (PSI),Oil Temp (deg C),RPM L,RPM R,Manifold Pressure (inHg),Fuel Flow 1 (gal/hr),Fuel Flow 2 (gal/hr),Total Fuel Flow (gal/hr),Fuel Pressure (PSI),Fuel Level L (gal),Fuel Level R (gal),Fuel Remaining (gal),Volts 1,Volts 2,Amps,Hobbs Time,Tach Time,Thermocouple 1 (deg C),Thermocouple 2 (deg C),Thermocouple 3 (deg C),Thermocouple 4 (deg C),CHT 4 (deg C),EGT 4 (deg C),CHT 3 (deg C),EGT 3 (deg C),CHT 2 (deg C),EGT 2 (deg C),CHT 1 (deg C),EGT 1 (deg C),Thermocouple 13 (deg C),Thermocouple 14 (deg C),ELEV POSITION (%),CO PPM PRESSURE (PSI),GP Input 3,FUEL PRESSURE (PSI),AILERN POSITION (%),CANOPY CONTACT (V),GP Input 7,GP Input 8,LEFT LEVEL (Sensor V),RIGHT LEVEL (Sensor V),OIL PRESSURE (PSI),OIL TEMPERATURE (deg C),GP Input 13,Contacts,Percent Power,EGT Leaning State,Unnamed: 103,RPM,AVG_CHT (deg C),CHT_Delta_T (deg C),OIL_Delta_T (deg C),OAT (deg F),Oil Temp (deg F),Thermocouple 1 (deg F),Thermocouple 2 (deg F),Thermocouple 3 (deg F),Thermocouple 4 (deg F),CHT 4 (deg F),EGT 4 (deg F),CHT 3 (deg F),EGT 3 (deg F),CHT 2 (deg F),EGT 2 (deg F),CHT 1 (deg F),EGT 1 (deg F),Thermocouple 13 (deg F),Thermocouple 14 (deg F),OIL TEMPERATURE (deg F),AVG_CHT (deg F),CHT_Delta_T (deg F),OIL_Delta_T (deg F),Fuel Flow Integral,Distance Traveled,MPG,Max CHT,Flight ID
4.06,1.0,10.0,2026-05-09 19:02:19,37.08171,-121.59966,421.0,0.0,234.1,-12.6,0.0,,0.0,0.0,0.0,10.6,-0.5,358.3,0.0,251.0,0.0,-0.01,1.0,0.0,-151.0,24.0,0.0,29.89,1393.0,0.0,0.0,147.0,0.0,100.0,-1000.0,0.0,0.0,0.0,0.0,0.0,0.0,0.0,0.0,0.0,0.0,0.0,0.0,0.0,0.0,0.0,0.0,0.0,0.0,0.0,0.0,0.0,0.0,0.0,0.0,0.0,0.0,0.0,0.0,0.0,0.0,0.0,0.0,38.5,0.0,0.0,-0.7,14.7,12.1,0.0,0.0,0.0,0.0,19.0,20.0,19.0,20.0,19.0,20.0,19.0,20.0,0.0,0.0,-27.0,254.5,0.0,0.0,3.0,4.998,0.0,0.0,0.653,0.858,0.0,17.6,0.0,0.0,0.0,,0.0,0.0,19.0,-5.0,-6.399999999999999,75.2,32.0,32.0,32.0,32.0,32.0,66.2,68.0,66.2,68.0,66.2,68.0,66.2,68.0,32.0,32.0,63.68,66.2,23.0,20.480000000000004,0.0,0.0,0.0,384.8,2026-05-09 12:02:19-07:00
5.06,1.0,9.0,2026-05-09 19:02:20,37.08172,-121.59965,428.0,0.2,234.1,-12.6,0.0,,0.0,0.0,0.0,10.6,-0.5,358.3,0.0,250.0,0.0,-0.01,1.0,99.0,-126.0,24.0,0.0,29.89,1393.0,0.0,0.0,147.0,0.0,0.0,0.0,0.0,0.0,0.0,0.0,0.0,0.0,0.0,0.0,0.0,0.0,0.0,0.0,0.0,0.0,0.0,0.0,0.0,0.0,0.0,0.0,0.0,0.0,18.0,0.0,0.0,30.0,0.0,0.0,0.0,0.0,0.0,0.0,38.5,0.0,0.0,-0.7,14.7,12.1,0.0,0.0,0.0,0.0,19.0,20.0,19.0,20.0,19.0,20.0,19.0,20.0,0.0,0.0,-27.0,254.5,0.0,0.0,3.0,4.998,0.0,0.0,0.653,0.858,0.0,17.5,0.0,0.0,0.0,,0.0,0.0,19.0,-5.0,-6.5,75.2,64.4,32.0,32.0,32.0,32.0,66.2,68.0,66.2,68.0,66.2,68.0,66.2,68.0,32.0,32.0,63.5,66.2,23.0,20.3,0.0,0.16866666666666666,0.0,384.8,2026-05-09 12:02:19-07:00
6.06,1.0,9.0,2026-05-09 19:02:21,37.08172,-121.59965,428.0,0.0,234.1,-12.6,0.0,,0.0,0.0,0.0,10.6,-0.5,358.3,0.0,248.0,0.0,-0.01,1.0,99.0,-141.0,24.0,0.0,29.89,1393.0,0.0,0.0,147.0,0.0,0.0,0.0,0.0,0.0,0.0,0.0,0.0,0.0,0.0,0.0,0.0,0.0,0.0,0.0,0.0,0.0,0.0,0.0,0.0,0.0,0.0,0.0,0.0,0.0,18.0,0.0,0.0,30.0,0.0,0.0,0.0,0.0,0.0,0.0,38.5,0.0,0.0,-0.7,14.7,12.1,0.0,0.0,0.0,0.0,19.0,20.0,19.0,20.0,19.0,20.0,19.0,20.0,0.0,0.0,-27.0,254.5,0.0,0.0,3.0,4.998,0.0,0.0,0.653,0.858,0.0,17.5,0.0,0.0,0.0,,0.0,0.0,19.0,-5.0,-6.5,75.2,64.4,32.0,32.0,32.0,32.0,66.2,68.0,66.2,68.0,66.2,68.0,66.2,68.0,32.0,32.0,63.5,66.2,23.0,20.3,0.0,0.3373333333333333,0.0,384.8,2026-05-09 12:02:19-07:00
7.06,1.0,9.0,2026-05-09 19:02:22,37.08172,-121.59965,428.0,0.0,234.1,-12.6,0.0,,0.0,0.0,0.0,10.6,-0.6,358.2,0.0,244.0,0.0,-0.01,1.0,99.0,-138.0,24.0,0.0,29.89,1391.0,0.0,0.0,147.0,0.0,0.0,0.0,0.0,0.0,0.0,0.0,0.0,0.0,0.0,0.0,0.0,0.0,0.0,0.0,0.0,0.0,0.0,0.0,0.0,0.0,0.0,0.0,0.0,0.0,18.0,0.0,0.0,30.0,0.0,0.0,0.0,0.0,0.0,0.0,38.5,0.0,0.0,-0.7,14.7,12.1,0.0,0.0,0.0,0.0,19.0,20.0,19.0,20.0,19.0,20.0,19.0,20.0,0.0,0.0,-27.0,254.5,0.0,0.0,3.0,4.998,0.0,0.0,0.653,0.858,0.0,17.5,0.0,0.0,0.0,,0.0,0.0,19.0,-5.0,-6.5,75.2,64.4,32.0,32.0,32.0,32.0,66.2,68.0,66.2,68.0,66.2,68.0,66.2,68.0,32.0,32.0,63.5,66.2,23.0,20.3,0.0,0.3373333333333333,0.0,384.8,2026-05-09 12:02:19-07:00
8.06,1.0,9.0,2026-05-09 19:02:23,37.08172,-121.59965,428.0,0.0,234.1,-12.6,0.0,,0.0,0.0,0.0,10.6,-0.5,358.2,0.0,243.0,0.0,-0.01,1.0,99.0,-121.0,24.0,0.0,29.89,1389.0,0.0,0.0,147.0,0.0,0.0,0.0,0.0,0.0,0.0,0.0,0.0,0.0,0.0,0.0,0.0,0.0,0.0,0.0,0.0,0.0,0.0,0.0,0.0,0.0,0.0,0.0,0.0,0.0,18.0,0.0,0.0,30.0,0.0,0.0,0.0,0.0,0.0,0.0,38.5,0.0,0.0,-0.7,14.7,12.1,0.0,0.0,0.0,0.0,19.0,20.0,19.0,20.0,19.0,20.0,19.0,21.0,0.0,0.0,-27.0,254.5,0.0,0.0,3.0,4.998,0.0,0.0,0.653,0.858,0.0,17.5,0.0,0.0,0.0,,0.0,0.0,19.0,-5.0,-6.5,75.2,64.4,32.0,32.0,32.0,32.0,66.2,68.0,66.2,68.0,66.2,68.0,66.2,69.8,32.0,32.0,63.5,66.2,23.0,20.3,0.0,0.3373333333333333,0.0,384.8,2026-05-09 12:02:19-07:00
9.06,1.0,9.0,2026-05-09 19:02:24,37.08172,-121.59965,429.0,0.0,234.1,-12.6,0.0,,0.0,0.0,0.0,10.6,-0.5,358.2,0.0,240.0,0.0,-0.01,1.0,99.0,-141.0,24.0,0.0,29.89,1386.0,0.0,0.0,147.0,0.0,0.0,0.0,0.0,0.0,0.0,0.0,0.0,0.0,0.0,0.0,0.0,0.0,0.0,0.0,0.0,0.0,0.0,0.0,0.0,0.0,0.0,0.0,0.0,0.0,18.0,0.0,0.0,30.0,0.0,0.0,0.0,0.0,0.0,0.0,38.5,0.0,0.0,-0.7,14.7,12.1,0.0,0.0,0.0,0.0,19.0,20.0,19.0,20.0,19.0,20.0,19.0,21.0,0.0,0.0,-27.0,254.5,0.0,0.0,3.0,4.998,0.0,0.0,0.654,0.858,0.0,17.5,0.0,0.0,0.0,,0.0,0.0,19.0,-5.0,-6.5,75.2,64.4,32.0,32.0,32.0,32.0,66.2,68.0,66.2,68.0,66.2,68.0,66.2,69.8,32.0,32.0,63.5,66.2,23.0,20.3,0.0,0.3373333333333333,0.0,384.8,2026-05-09 12:02:19-07:00
10.06,1.0,9.0,2026-05-09 19:02:25,37.08172,-121.59965,428.0,0.0,234.1,-12.6,0.0,,0.0,0.0,0.0,10.5,-0.6,358.2,0.0,238.0,0.0,-0.01,1.0,99.0,-116.0,24.0,0.0,29.89,1383.0,0.0,0.0,147.0,0.0,0.0,0.0,0.0,0.0,0.0,0.0,0.0,0.0,0.0,0.0,0.0,0.0,0.0,0.0,0.0,0.0,0.0,0.0,0.0,0.0,0.0,0.0,0.0,0.0,18.0,0.0,0.0,30.0,0.0,0.0,0.0,0.0,0.0,0.0,38.5,0.0,0.0,-0.7,14.7,12.1,0.0,0.0,0.0,0.0,19.0,20.0,19.0,20.0,19.0,20.0,19.0,21.0,0.0,0.0,-27.0,254.5,0.0,0.0,3.0,4.998,0.0,0.0,0.653,0.857,0.0,17.5,0.0,0.0,0.0,,0.0,0.0,19.0,-5.0,-6.5,75.2,64.4,32.0,32.0,32.0,32.0,66.2,68.0,66.2,68.0,66.2,68.0,66.2,69.8,32.0,32.0,63.5,66.2,23.0,20.3,0.0,0.3373333333333333,0.0,384.8,2026-05-09 12:02:19-07:00
11.06,1.0,9.0,2026-05-09 19:02:26,37.08171,-121.59964,428.0,0.1,234.1,-12.6,0.0,,0.0,0.0,0.0,10.6,-0.6,358.2,0.0,237.0,0.0,-0.01,1.0,99.0,-96.0,24.0,0.0,29.89,1383.0,0.0,0.0,147.0,0.0,0.0,0.0,0.0,0.0,0.0,0.0,0.0,0.0,0.0,0.0,0.0,0.0,0.0,0.0,0.0,0.0,0.0,0.0,0.0,0.0,0.0,0.0,0.0,0.0,18.0,0.0,0.0,30.0,0.0,0.0,0.0,0.0,0.0,0.0,38.5,0.0,0.0,-0.7,14.7,12.1,0.0,0.0,0.0,0.0,19.0,20.0,19.0,20.0,19.0,20.0,19.0,21.0,0.0,0.0,-28.0,254.4,0.0,0.0,3.0,4.998,0.0,0.0,0.653,0.858,0.0,17.5,0.0,0.0,0.0,,0.0,0.0,19.0,-5.0,-6.5,75.2,64.4,32.0,32.0,32.0,32.0,66.2,68.0,66.2,68.0,66.2,68.0,66.2,69.8,32.0,32.0,63.5,66.2,23.0,20.3,0.0,0.42166666666666663,0.0,384.8,2026-05-09 12:02:19-07:00
12.06,1.0,9.0,2026-05-09 19:02:27,37.08171,-121.59964,428.0,0.0,234.1,-12.6,0.0,,0.0,0.0,0.0,10.5,-0.6,358.1,0.0,237.0,0.0,-0.01,1.0,99.0,-57.0,24.0,0.0,29.89,1383.0,0.0,0.0,147.0,0.0,0.0,0.0,0.0,0.0,0.0,0.0,0.0,0.0,0.0,0.0,0.0,0.0,0.0,0.0,0.0,0.0,0.0,0.0,0.0,0.0,0.0,0.0,0.0,0.0,18.0,0.0,0.0,30.0,0.0,0.0,0.0,0.0,0.0,0.0,38.5,0.0,0.0,-0.7,14.7,12.1,0.0,0.0,0.0,0.0,19.0,20.0,19.0,20.0,19.0,20.0,19.0,21.0,0.0,0.0,-27.0,254.4,0.0,0.0,3.0,4.998,0.0,0.0,0.654,0.858,0.0,17.5,0.0,0.0,0.0,,0.0,0.0,19.0,-5.0,-6.5,75.2,64.4,32.0,32.0,32.0,32.0,66.2,68.0,66.2,68.0,66.2,68.0,66.2,69.8,32.0,32.0,63.5,66.2,23.0,20.3,0.0,0.506,0.0,384.8,2026-05-09 12:02:19-07:00
13.06,1.0,9.0,2026-05-09 19:02:28,37.08171,-121.59964,427.0,0.0,234.1,-12.6,0.0,,0.0,0.0,0.0,10.5,-0.5,358.2,0.0,237.0,0.0,-0.01,1.0,99.0,-35.0,24.0,0.0,29.89,1382.0,0.0,0.0,147.0,0.0,0.0,0.0,0.0,0.0,0.0,0.0,0.0,0.0,0.0,0.0,0.0,0.0,0.0,0.0,0.0,0.0,0.0,0.0,0.0,0.0,0.0,0.0,0.0,0.0,18.0,0.0,0.0,30.0,0.0,0.0,0.0,0.0,0.0,0.0,38.5,0.0,0.0,-0.7,14.7,12.1,0.0,0.0,0.0,0.0,19.0,20.0,19.0,20.0,19.0,20.0,19.0,20.0,0.0,0.0,-28.0,254.4,0.0,0.0,3.0,4.998,0.0,0.0,0.653,0.857,0.0,17.5,0.0,0.0,0.0,,0.0,0.0,19.0,-5.0,-6.5,75.2,64.4,32.0,32.0,32.0,32.0,66.2,68.0,66.2,68.0,66.2,68.0,66.2,68.0,32.0,32.0,63.5,66.2,23.0,20.3,0.0,0.506,0.0,384.8,2026-05-09 12:02:19-07:00
14.06,1.0,10.0,2026-05-09 19:02:29,37.0817,-121.59965,422.0,0.0,234.1,-12.6,0.0,,0.0,0.0,0.0,10.6,-0.5,358.2,0.0,236.0,0.0,-0.01,1.0,99.0,-45.0,24.0,0.0,29.89,1382.0,0.0,0.0,147.0,0.0,0.0,0.0,0.0,0.0,0.0,0.0,0.0,0.0,0.0,0.0,0.0,0.0,0.0,0.0,0.0,0.0,0.0,0.0,0.0,0.0,0.0,0.0,0.0,0.0,18.0,0.0,0.0,30.0,0.0,0.0,0.0,0.0,0.0,0.0,38.5,0.0,0.0,-0.7,14.7,12.1,0.0,0.0,0.0,0.0,19.0,20.0,19.0,20.0,19.0,20.0,19.0,21.0,0.0,0.0,-27.0,254.4,0.0,0.0,3.0,4.998,0.0,0.0,0.653,0.857,0.0,17.5,0.0,0.0,0.0,,0.0,0.0,19.0,-5.0,-6.5,75.2,64.4,32.0,32.0,32.0,32.0,66.2,68.0,66.2,68.0,66.2,68.0,66.2,69.8,32.0,32.0,63.5,66.2,23.0,20.3,0.0,0.506,0.0,384.8,2026-05-09 12:02:19-07:00
15.06,1.0,9.0,2026-05-09 19:02:30,37.08171,-121.59964,427.0,0.0,234.1,-12.6,0.0,,0.0,0.0,0.0,10.6,-0.5,358.2,0.0,235.0,0.1,-0.01,1.0,99.0,-48.0,24.0,0.0,29.89,1382.0,0.0,0.0,147.0,0.0,0.0,0.0,0.0,0.0,0.0,0.0,0.0,0.0,0.0,0.0,0.0,0.0,0.0,0.0,0.0,0.0,0.0,0.0,0.0,0.0,0.0,0.0,0.0,0.0,18.0,0.0,0.0,30.0,0.0,0.0,0.0,0.0,0.0,0.0,38.5,0.0,0.0,-0.7,14.7,12.1,0.0,0.0,0.0,0.0,19.0,20.0,19.0,20.0,19.0,20.0,19.0,20.0,0.0,0.0,-28.0,254.4,0.0,0.0,3.0,4.998,0.0,0.0,0.653,0.857,0.0,17.5,0.0,0.0,0.0,,0.0,0.0,19.0,-5.0,-6.5,75.2,64.4,32.0,32.0,32.0,32.0,66.2,68.0,66.2,68.0,66.2,68.0,66.2,68.0,32.0,32.0,63.5,66.2,23.0,20.3,0.0,0.506,0.0,384.8,2026-05-09 12:02:19-07:00
16.06,1.0,9.0,2026-05-09 19:02:31,37.08171,-121.59964,427.0,0.0,234.1,-12.6,0.0,,0.0,0.0,0.0,10.6,-0.5,358.2,0.0,232.0,0.0,-0.01,1.0,99.0,-94.0,24.0,0.0,29.89,1377.0,0.0,0.0,147.0,0.0,0.0,0.0,0.0,0.0,0.0,0.0,0.0,0.0,0.0,0.0,0.0,0.0,0.0,0.0,0.0,0.0,0.0,0.0,0.0,0.0,0.0,0.0,0.0,0.0,18.0,0.0,0.0,30.0,0.0,0.0,0.0,0.0,0.0,0.0,38.5,0.0,0.0,-0.7,14.7,12.1,0.0,0.0,0.0,0.0,19.0,20.0,19.0,20.0,19.0,20.0,19.0,21.0,0.0,0.0,-27.0,254.4,0.0,0.0,3.0,4.998,0.0,0.0,0.653,0.857,0.0,17.5,0.0,0.0,0.0,,0.0,0.0,19.0,-5.0,-6.5,75.2,64.4,32.0,32.0,32.0,32.0,66.2,68.0,66.2,68.0,66.2,68.0,66.2,69.8,32.0,32.0,63.5,66.2,23.0,20.3,0.0,0.506,0.0,384.8,2026-05-09 12:02:19-07:00
17.06,1.0,9.0,2026-05-09 19:02:32,37.08171,-121.59963,427.0,0.0,234.1,-12.6,0.0,,0.0,0.0,0.0,10.6,-0.6,358.2,0.0,230.0,0.0,-0.01,1.0,99.0,-106.0,24.0,0.0,29.89,1377.0,0.0,0.0,147.0,0.0,0.0,0.0,0.0,0.0,0.0,0.0,0.0,0.0,0.0,0.0,0.0,0.0,0.0,0.0,0.0,0.0,0.0,0.0,0.0,0.0,0.0,0.0,0.0,0.0,18.0,0.0,0.0,30.0,0.0,0.0,0.0,0.0,0.0,0.0,38.5,0.0,0.0,-0.7,14.7,12.1,0.0,0.0,0.0,0.0,19.0,20.0,19.0,20.0,19.0,20.0,19.0,20.0,0.0,0.0,-27.0,254.4,0.0,0.0,3.0,4.998,0.0,0.0,0.653,0.857,0.0,17.5,0.0,0.0,0.0,,0.0,0.0,19.0,-5.0,-6.5,75.2,64.4,32.0,32.0,32.0,32.0,66.2,68.0,66.2,68.0,66.2,68.0,66.2,68.0,32.0,32.0,63.5,66.2,23.0,20.3,0.0,0.506,0.0,384.8,2026-05-09 12:02:19-07:00
18.06,1.0,9.0,2026-05-09 19:02:33,37.0817,-121.59963,427.0,0.0,234.1,-12.6,0.0,,0.0,0.0,0.0,10.6,-0.6,358.2,0.0,229.0,0.0,-0.01,1.0,99.0,-86.0,24.0,0.0,29.89,1377.0,0.0,0.0,147.0,0.0,0.0,0.0,0.0,0.0,0.0,0.0,0.0,0.0,0.0,0.0,0.0,0.0,0.0,0.0,0.0,0.0,0.0,0.0,0.0,0.0,0.0,0.0,0.0,0.0,18.0,0.0,0.0,30.0,0.0,0.0,0.0,0.0,0.0,0.0,38.5,0.0,0.0,-0.7,14.7,12.1,0.0,0.0,0.0,0.0,19.0,20.0,19.0,20.0,19.0,20.0,19.0,20.0,0.0,0.0,-28.0,254.4,0.0,0.0,3.0,4.998,0.0,0.0,0.653,0.857,0.0,17.5,0.0,0.0,0.0,,0.0,0.0,19.0,-5.0,-6.5,75.2,64.4,32.0,32.0,32.0,32.0,66.2,68.0,66.2,68.0,66.2,68.0,66.2,68.0,32.0,32.0,63.5,66.2,23.0,20.3,0.0,0.506,0.0,384.8,2026-05-09 12:02:19-07:00
19.06,1.0,9.0,2026-05-09 19:02:34,37.0817,-121.59963,426.0,0.0,234.1,-12.6,0.0,,0.0,0.0,0.0,10.6,-0.5,358.2,0.0,229.0,0.0,-0.01,1.0,99.0,-48.0,24.0,0.0,29.89,1383.0,0.0,0.0,147.0,0.0,0.0,0.0,0.0,0.0,0.0,0.0,0.0,0.0,0.0,0.0,0.0,0.0,0.0,0.0,0.0,0.0,0.0,0.0,0.0,0.0,0.0,0.0,0.0,0.0,18.0,0.0,0.0,30.0,0.0,0.0,0.0,0.0,0.0,0.0,38.5,0.0,0.0,-0.7,14.7,12.1,0.0,0.0,0.0,0.0,19.0,20.0,19.0,20.0,19.0,20.0,19.0,20.0,0.0,0.0,-28.0,254.4,0.0,0.0,3.0,4.998,0.0,0.0,0.653,0.857,0.0,17.5,0.0,0.0,0.0,,0.0,0.0,19.0,-5.0,-6.5,75.2,64.4,32.0,32.0,32.0,32.0,66.2,68.0,66.2,68.0,66.2,68.0,66.2,68.0,32.0,32.0,63.5,66.2,23.0,20.3,0.0,0.506,0.0,384.8,2026-05-09 12:02:19-07:00
20.06,1.0,9.0,2026-05-09 19:02:35,37.0817,-121.59963,426.0,0.0,234.1,-12.6,0.0,,0.0,0.0,0.0,10.6,-0.6,358.2,0.0,229.0,0.0,-0.01,1.0,99.0,-21.0,24.0,0.0,29.89,1383.0,0.0,0.0,147.0,0.0,0.0,0.0,0.0,0.0,0.0,0.0,0.0,0.0,0.0,0.0,0.0,0.0,0.0,0.0,0.0,0.0,0.0,0.0,0.0,0.0,0.0,0.0,0.0,0.0,18.0,0.0,0.0,30.0,0.0,0.0,0.0,0.0,0.0,0.0,38.5,0.0,0.0,-0.7,14.7,12.1,0.0,0.0,0.0,0.0,19.0,20.0,19.0,20.0,19.0,20.0,19.0,20.0,0.0,0.0,-28.0,254.4,0.0,0.0,3.0,4.998,0.0,0.0,0.653,0.857,0.0,17.5,0.0,0.0,0.0,,0.0,0.0,19.0,-5.0,-6.5,75.2,64.4,32.0,32.0,32.0,32.0,66.2,68.0,66.2,68.0,66.2,68.0,66.2,68.0,32.0,32.0,63.5,66.2,23.0,20.3,0.0,0.506,0.0,384.8,2026-05-09 12:02:19-07:00
21.06,1.0,9.0,2026-05-09 19:02:36,37.0817,-121.59963,425.0,0.0,234.1,-12.6,0.0,,0.0,0.0,0.0,10.6,-0.6,358.2,0.0,229.0,0.0,-0.01,1.0,99.0,3.0,24.0,0.0,29.89,1383.0,0.0,0.0,147.0,0.0,0.0,0.0,0.0,0.0,0.0,0.0,0.0,0.0,0.0,0.0,0.0,0.0,0.0,0.0,0.0,0.0,0.0,0.0,0.0,0.0,0.0,0.0,0.0,0.0,18.0,0.0,0.0,30.0,0.0,0.0,0.0,0.0,0.0,0.0,38.5,0.0,0.0,-0.7,14.7,12.1,0.0,0.0,0.0,0.0,19.0,20.0,19.0,20.0,19.0,20.0,19.0,20.0,0.0,0.0,-28.0,254.4,0.0,0.0,3.0,4.998,0.0,0.0,0.653,0.857,0.0,17.5,0.0,0.0,0.0,,0.0,0.0,19.0,-5.0,-6.5,75.2,64.4,32.0,32.0,32.0,32.0,66.2,68.0,66.2,68.0,66.2,68.0,66.2,68.0,32.0,32.0,63.5,66.2,23.0,20.3,0.0,0.506,0.0,384.8,2026-05-09 12:02:19-07:00
22.06,1.0,9.0,2026-05-09 19:02:37,37.0817,-121.59963,424.0,0.0,234.1,-12.6,0.0,,0.0,0.0,0.0,10.6,-0.6,358.2,0.0,229.0,0.0,-0.01,1.0,99.0,-5.0,24.0,0.0,29.89,1383.0,0.0,0.0,147.0,0.0,0.0,0.0,0.0,0.0,0.0,0.0,0.0,0.0,0.0,0.0,0.0,0.0,0.0,0.0,0.0,0.0,0.0,0.0,0.0,0.0,0.0,0.0,0.0,0.0,18.0,0.0,0.0,30.0,0.0,0.0,0.0,0.0,0.0,0.0,38.5,0.0,0.0,-0.7,14.7,12.1,0.0,0.0,0.0,0.0,19.0,20.0,19.0,20.0,19.0,20.0,19.0,20.0,0.0,0.0,-28.0,254.4,0.0,0.0,3.0,4.998,0.0,0.0,0.653,0.857,0.0,17.5,0.0,0.0,0.0,,0.0,0.0,19.0,-5.0,-6.5,75.2,64.4,32.0,32.0,32.0,32.0,66.2,68.0,66.2,68.0,66.2,68.0,66.2,68.0,32.0,32.0,63.5,66.2,23.0,20.3,0.0,0.506,0.0,384.8,2026-05-09 12:02:19-07:00
23.06,1.0,9.0,2026-05-09 19:02:38,37.0817,-121.59963,423.0,0.1,234.1,-12.6,0.0,,0.0,0.0,0.0,10.6,-0.6,358.2,0.0,229.0,0.0,-0.01,1.0,99.0,-1.0,24.0,0.0,29.89,1383.0,0.0,0.0,147.0,0.0,0.0,0.0,0.0,0.0,0.0,0.0,0.0,0.0,0.0,0.0,0.0,0.0,0.0,0.0,0.0,0.0,0.0,0.0,0.0,0.0,0.0,0.0,0.0,0.0,18.0,0.0,0.0,30.0,0.0,0.0,0.0,0.0,0.0,0.0,38.5,0.0,0.0,-0.7,14.7,12.1,0.0,0.0,0.0,0.0,19.0,20.0,19.0,20.0,19.0,20.0,19.0,20.0,0.0,0.0,-28.0,254.4,0.0,0.0,3.0,4.998,0.0,0.0,0.653,0.857,0.0,17.5,0.0,0.0,0.0,,0.0,0.0,19.0,-5.0,-6.5,75.2,64.4,32.0,32.0,32.0,32.0,66.2,68.0,66.2,68.0,66.2,68.0,66.2,68.0,32.0,32.0,63.5,66.2,23.0,20.3,0.0,0.5903333333333333,0.0,384.8,2026-05-09 12:02:19-07:00
24.06,1.0,9.0,2026-05-09 19:02:39,37.0817,-121.59963,421.0,0.0,234.1,-12.6,0.0,,0.0,0.0,0.0,10.6,-0.6,358.2,0.0,229.0,0.1,-0.01,1.0,99.0,-21.0,24.0,0.0,29.89,1383.0,0.0,0.0,147.0,0.0,0.0,0.0,0.0,0.0,0.0,0.0,0.0,0.0,0.0,0.0,0.0,0.0,0.0,0.0,0.0,0.0,0.0,0.0,0.0,0.0,0.0,0.0,0.0,0.0,18.0,0.0,0.0,30.0,0.0,0.0,0.0,0.0,0.0,0.0,38.5,0.0,0.0,-0.7,14.7,12.1,0.0,0.0,0.0,0.0,19.0,20.0,19.0,20.0,19.0,20.0,19.0,20.0,0.0,0.0,-28.0,254.4,0.0,0.0,3.0,4.998,0.0,0.0,0.653,0.857,0.0,17.5,0.0,0.0,0.0,,0.0,0.0,19.0,-5.0,-6.5,75.2,64.4,32.0,32.0,32.0,32.0,66.2,68.0,66.2,68.0,66.2,68.0,66.2,68.0,32.0,32.0,63.5,66.2,23.0,20.3,0.0,0.6746666666666666,0.0,384.8,2026-05-09 12:02:19-07:00
25.06,1.0,9.0,2026-05-09 19:02:40,37.08169,-121.59963,420.0,0.1,234.1,-12.6,0.0,,0.0,0.0,0.0,10.6,-0.5,358.2,0.0,229.0,0.1,-0.01,1.0,99.0,33.0,24.0,0.0,29.89,1393.0,0.0,0.0,147.0,0.0,0.0,0.0,0.0,0.0,0.0,0.0,0.0,0.0,0.0,0.0,0.0,0.0,0.0,0.0,0.0,0.0,0.0,0.0,0.0,0.0,0.0,0.0,0.0,0.0,18.0,0.0,0.0,30.0,0.0,0.0,0.0,0.0,0.0,0.0,38.5,0.0,0.0,-0.7,14.7,12.1,0.0,0.0,0.0,0.0,19.0,20.0,19.0,21.0,19.0,20.0,19.0,21.0,0.0,0.0,-28.0,254.4,0.0,0.0,3.0,4.998,0.0,0.0,0.653,0.857,0.0,17.5,0.0,0.0,0.0,,0.0,0.0,19.0,-5.0,-6.5,75.2,64.4,32.0,32.0,32.0,32.0,66.2,68.0,66.2,69.8,66.2,68.0,66.2,69.8,32.0,32.0,63.5,66.2,23.0,20.3,0.0,0.759,0.0,384.8,2026-05-09 12:02:19-07:00
26.06,1.0,9.0,2026-05-09 19:02:41,37.08169,-121.59963,419.0,0.1,234.1,-12.6,0.0,,0.0,0.0,0.0,10.6,-0.5,358.2,0.0,229.0,0.0,-0.01,1.0,99.0,4.0,24.0,0.0,29.89,1393.0,0.0,0.0,147.0,0.0,0.0,0.0,0.0,0.0,0.0,0.0,0.0,0.0,0.0,0.0,0.0,0.0,0.0,0.0,0.0,0.0,0.0,0.0,0.0,0.0,0.0,0.0,0.0,0.0,18.0,0.0,0.0,30.0,0.0,0.0,0.0,0.0,0.0,0.0,38.5,0.0,0.0,-0.7,14.7,12.1,0.0,0.0,0.0,0.0,19.0,20.0,19.0,21.0,19.0,20.0,19.0,21.0,0.0,0.0,-28.0,254.4,0.0,0.0,3.0,4.998,0.0,0.0,0.653,0.857,0.0,17.5,0.0,0.0,0.0,,0.0,0.0,19.0,-5.0,-6.5,75.2,64.4,32.0,32.0,32.0,32.0,66.2,68.0,66.2,69.8,66.2,68.0,66.2,69.8,32.0,32.0,63.5,66.2,23.0,20.3,0.0,0.9276666666666666,0.0,384.8,2026-05-09 12:02:19-07:00
27.06,1.0,9.0,2026-05-09 19:02:42,37.08169,-121.59963,418.0,0.0,234.1,-12.6,0.0,,0.0,0.0,0.0,10.6,-0.5,358.2,0.0,229.0,0.0,-0.01,1.0,99.0,13.0,24.0,0.0,29.89,1393.0,0.0,0.0,147.0,0.0,0.0,0.0,0.0,0.0,0.0,0.0,0.0,0.0,0.0,0.0,0.0,0.0,0.0,0.0,0.0,0.0,0.0,0.0,0.0,0.0,0.0,0.0,0.0,0.0,18.0,0.0,0.0,30.0,0.0,0.0,0.0,0.0,0.0,0.0,38.5,0.0,0.0,-0.7,14.7,12.1,0.0,0.0,0.0,0.0,19.0,20.0,19.0,21.0,19.0,20.0,20.0,21.0,0.0,0.0,-28.0,254.4,0.0,0.0,3.0,4.998,0.0,0.0,0.653,0.857,0.0,17.5,0.0,0.0,0.0,,0.0,0.0,19.25,-4.75,-6.5,75.2,64.4,32.0,32.0,32.0,32.0,66.2,68.0,66.2,69.8,66.2,68.0,68.0,69.8,32.0,32.0,63.5,66.65,23.45,20.3,0.0,1.012,0.0,384.8,2026-05-09 12:02:19-07:00
28.06,1.0,9.0,2026-05-09 19:02:43,37.08169,-121.59963,417.0,0.0,234.1,-12.6,0.0,,0.0,0.0,0.0,10.6,-0.5,358.1,0.0,229.0,0.0,-0.01,1.0,99.0,-26.0,24.0,0.0,29.89,1394.0,0.0,0.0,147.0,0.0,0.0,0.0,0.0,0.0,0.0,0.0,0.0,0.0,0.0,0.0,0.0,0.0,0.0,0.0,0.0,0.0,0.0,0.0,0.0,0.0,0.0,0.0,0.0,0.0,18.0,0.0,0.0,30.0,0.0,0.0,0.0,0.0,0.0,0.0,38.5,0.0,0.0,-0.7,14.7,12.1,0.0,0.0,0.0,0.0,19.0,20.0,19.0,21.0,19.0,20.0,19.0,21.0,0.0,0.0,-28.0,254.4,0.0,0.0,3.0,4.998,0.0,0.0,0.653,0.857,0.0,17.5,0.0,0.0,0.0,,0.0,0.0,19.0,-5.0,-6.5,75.2,64.4,32.0,32.0,32.0,32.0,66.2,68.0,66.2,69.8,66.2,68.0,66.2,69.8,32.0,32.0,63.5,66.2,23.0,20.3,0.0,1.012,0.0,384.8,2026-05-09 12:02:19-07:00
29.06,1.0,9.0,2026-05-09 19:02:44,37.08168,-121.59963,417.0,0.0,234.1,-12.6,0.0,,0.0,0.0,0.0,10.6,-0.6,358.1,0.0,229.0,0.0,-0.01,1.0,99.0,-30.0,24.0,0.0,29.89,1394.0,0.0,0.0,147.0,0.0,0.0,0.0,0.0,0.0,0.0,0.0,0.0,0.0,0.0,0.0,0.0,0.0,0.0,0.0,0.0,0.0,0.0,0.0,0.0,0.0,0.0,0.0,0.0,0.0,18.0,0.0,0.0,30.0,0.0,0.0,0.0,0.0,0.0,0.0,38.5,0.0,0.0,-0.7,14.7,12.1,0.0,0.0,0.0,0.0,19.0,20.0,19.0,21.0,19.0,20.0,19.0,21.0,0.0,0.0,-28.0,254.4,0.0,0.0,3.0,4.998,0.0,0.0,0.653,0.857,0.0,17.5,0.0,0.0,0.0,,0.0,0.0,19.0,-5.0,-6.5,75.2,64.4,32.0,32.0,32.0,32.0,66.2,68.0,66.2,69.8,66.2,68.0,66.2,69.8,32.0,32.0,63.5,66.2,23.0,20.3,0.0,1.012,0.0,384.8,2026-05-09 12:02:19-07:00
30.06,1.0,10.0,2026-05-09 19:02:45,37.08177,-121.5995,484.0,0.0,234.1,-12.6,0.0,,0.0,0.0,0.0,10.6,-0.5,358.1,0.0,226.0,0.0,-0.01,1.0,99.0,-72.0,24.0,0.0,29.89,1394.0,0.0,0.0,147.0,0.0,0.0,0.0,0.0,0.0,0.0,0.0,0.0,0.0,0.0,0.0,0.0,0.0,0.0,0.0,0.0,0.0,0.0,0.0,0.0,0.0,0.0,0.0,0.0,0.0,18.0,0.0,0.0,30.0,0.0,0.0,0.0,0.0,0.0,0.0,38.5,0.0,0.0,-0.7,14.7,12.1,0.0,0.0,0.0,0.0,19.0,20.0,19.0,21.0,19.0,20.0,20.0,21.0,0.0,0.0,-27.0,254.4,0.0,0.0,3.0,4.998,0.0,0.0,0.653,0.857,0.0,17.5,0.0,0.0,0.0,,0.0,0.0,19.25,-4.75,-6.5,75.2,64.4,32.0,32.0,32.0,32.0,66.2,68.0,66.2,69.8,66.2,68.0,68.0,69.8,32.0,32.0,63.5,66.65,23.45,20.3,0.0,1.012,0.0,384.8,2026-05-09 12:02:19-07:00
31.06,1.0,10.0,2026-05-09 19:02:46,37.08177,-121.59951,482.0,0.1,234.1,-12.6,0.0,,0.0,0.0,0.0,10.6,-0.5,358.1,0.0,225.0,0.0,-0.01,1.0,99.0,-78.0,24.0,0.0,29.89,1398.0,0.0,0.0,147.0,0.0,0.0,0.0,0.0,0.0,0.0,0.0,0.0,0.0,0.0,0.0,0.0,0.0,0.0,0.0,0.0,0.0,0.0,0.0,0.0,0.0,0.0,0.0,0.0,0.0,18.0,0.0,0.0,30.0,0.0,0.0,0.0,0.0,0.0,0.0,38.5,0.0,0.0,-0.7,14.7,12.1,0.0,0.0,0.0,0.0,19.0,20.0,19.0,21.0,19.0,20.0,20.0,21.0,0.0,0.0,-27.0,254.4,0.0,0.0,3.0,4.998,0.0,0.0,0.653,0.857,0.0,17.5,0.0,0.0,0.0,,0.0,0.0,19.25,-4.75,-6.5,75.2,64.4,32.0,32.0,32.0,32.0,66.2,68.0,66.2,69.8,66.2,68.0,68.0,69.8,32.0,32.0,63.5,66.65,23.45,20.3,0.0,1.0963333333333334,0.0,384.8,2026-05-09 12:02:19-07:00
32.06,1.0,10.0,2026-05-09 19:02:47,37.08176,-121.59951,479.0,0.1,234.1,-12.6,0.0,,0.0,0.0,0.0,10.6,-0.6,358.1,0.0,222.0,0.0,-0.01,1.0,99.0,-104.0,24.0,0.0,29.89,1398.0,0.0,0.0,147.0,0.0,0.0,0.0,0.0,0.0,0.0,0.0,0.0,0.0,0.0,0.0,0.0,0.0,0.0,0.0,0.0,0.0,0.0,0.0,0.0,0.0,0.0,0.0,0.0,0.0,18.0,0.0,0.0,30.0,0.0,0.0,0.0,0.0,0.0,0.0,38.5,0.0,0.0,-0.7,14.7,12.1,0.0,0.0,0.0,0.0,19.0,20.0,19.0,21.0,19.0,20.0,20.0,21.0,0.0,0.0,-28.0,254.4,0.0,0.0,3.0,4.998,0.0,0.0,0.653,0.857,0.0,17.5,0.0,0.0,0.0,,0.0,0.0,19.25,-4.75,-6.5,75.2,64.4,32.0,32.0,32.0,32.0,66.2,68.0,66.2,69.8,66.2,68.0,68.0,69.8,32.0,32.0,63.5,66.65,23.45,20.3,0.0,1.2650000000000006,0.0,384.8,2026-05-09 12:02:19-07:00
33.06,1.0,10.0,2026-05-09 19:02:48,37.08176,-121.59951,478.0,0.0,234.1,-12.6,0.0,,0.0,0.0,0.0,10.6,-0.6,358.1,0.0,221.0,0.0,-0.01,1.0,99.0,-60.0,24.0,0.0,29.89,1398.0,0.0,0.0,147.0,0.0,0.0,0.0,0.0,0.0,0.0,0.0,0.0,0.0,0.0,0.0,0.0,0.0,0.0,0.0,0.0,0.0,0.0,0.0,0.0,0.0,0.0,0.0,0.0,0.0,18.0,0.0,0.0,30.0,0.0,0.0,0.0,0.0,0.0,0.0,38.5,0.0,0.0,-0.7,14.7,12.1,0.0,0.0,0.0,0.0,19.0,20.0,19.0,21.0,19.0,20.0,20.0,21.0,0.0,0.0,-28.0,254.4,0.0,0.0,3.0,4.998,0.0,0.0,0.653,0.857,0.0,17.5,0.0,0.0,0.0,,0.0,0.0,19.25,-4.75,-6.5,75.2,64.4,32.0,32.0,32.0,32.0,66.2,68.0,66.2,69.8,66.2,68.0,68.0,69.8,32.0,32.0,63.5,66.65,23.45,20.3,0.0,1.349333333333334,0.0,384.8,2026-05-09 12:02:19-07:00
34.06,1.0,10.0,2026-05-09 19:02:49,37.08176,-121.59952,475.0,0.0,234.1,-12.6,0.0,,0.0,0.0,0.0,10.6,-0.6,358.1,0.0,219.0,0.0,-0.01,1.0,99.0,-108.0,24.0,0.0,29.89,1391.0,0.0,0.0,147.0,0.0,0.0,0.0,0.0,0.0,0.0,0.0,0.0,0.0,0.0,0.0,0.0,0.0,0.0,0.0,0.0,0.0,0.0,0.0,0.0,0.0,0.0,0.0,0.0,0.0,18.0,0.0,0.0,30.0,0.0,0.0,0.0,0.0,0.0,0.0,38.5,0.0,0.0,-0.7,14.7,12.1,0.0,0.0,0.0,0.0,19.0,20.0,19.0,20.0,19.0,20.0,20.0,21.0,0.0,0.0,-28.0,254.4,0.0,0.0,3.0,4.998,0.0,0.0,0.653,0.857,0.0,17.5,0.0,0.0,0.0,,0.0,0.0,19.25,-4.75,-6.5,75.2,64.4,32.0,32.0,32.0,32.0,66.2,68.0,66.2,68.0,66.2,68.0,68.0,69.8,32.0,32.0,63.5,66.65,23.45,20.3,0.0,1.349333333333334,0.0,384.8,2026-05-09 12:02:19-07:00
35.06,1.0,10.0,2026-05-09 19:02:50,37.08176,-121.59952,473.0,0.0,234.1,-12.6,0.0,,0.0,0.0,0.0,10.6,-0.6,358.1,0.0,217.0,0.0,-0.01,1.0,99.0,-115.0,25.0,0.0,29.89,1391.0,0.0,0.0,147.0,0.0,0.0,0.0,0.0,0.0,0.0,0.0,0.0,0.0,0.0,0.0,0.0,0.0,0.0,0.0,0.0,0.0,0.0,0.0,0.0,0.0,0.0,0.0,0.0,0.0,18.0,0.0,0.0,30.0,0.0,0.0,0.0,0.0,0.0,0.0,38.5,0.0,0.0,-0.7,14.7,12.1,0.0,0.0,0.0,0.0,19.0,20.0,19.0,21.0,19.0,20.0,20.0,21.0,0.0,0.0,-28.0,254.4,0.0,0.0,3.0,4.998,0.0,0.0,0.654,0.857,0.0,17.5,0.0,0.0,0.0,,0.0,0.0,19.25,-5.75,-7.5,77.0,64.4,32.0,32.0,32.0,32.0,66.2,68.0,66.2,69.8,66.2,68.0,68.0,69.8,32.0,32.0,63.5,66.65,21.65,18.5,0.0,1.349333333333334,0.0,384.8,2026-05-09 12:02:19-07:00
36.06,1.0,10.0,2026-05-09 19:02:51,37.08175,-121.59953,471.0,0.0,234.1,-12.6,0.0,,0.0,0.0,0.0,10.6,-0.6,358.1,0.0,215.0,0.1,-0.01,1.0,99.0,-109.0,25.0,0.0,29.89,1391.0,0.0,0.0,147.0,0.0,0.0,0.0,0.0,0.0,0.0,0.0,0.0,0.0,0.0,0.0,0.0,0.0,0.0,0.0,0.0,0.0,0.0,0.0,0.0,0.0,0.0,0.0,0.0,0.0,18.0,0.0,0.0,30.0,0.0,0.0,0.0,0.0,0.0,0.0,38.5,0.0,0.0,-0.7,14.7,12.1,0.0,0.0,0.0,0.0,19.0,20.0,19.0,21.0,19.0,20.0,20.0,21.0,0.0,0.0,-28.0,254.4,0.0,0.0,3.0,4.998,0.0,0.0,0.653,0.857,0.0,17.5,0.0,0.0,0.0,,0.0,0.0,19.25,-5.75,-7.5,77.0,64.4,32.0,32.0,32.0,32.0,66.2,68.0,66.2,69.8,66.2,68.0,68.0,69.8,32.0,32.0,63.5,66.65,21.65,18.5,0.0,1.349333333333334,0.0,384.8,2026-05-09 12:02:19-07:00
37.06,1.0,10.0,2026-05-09 19:02:52,37.08175,-121.59953,467.0,0.0,234.1,-12.6,0.0,,0.0,0.0,0.0,10.6,-0.6,358.1,0.0,213.0,0.0,-0.01,1.0,99.0,-111.0,25.0,0.0,29.89,1394.0,0.0,0.0,147.0,0.0,0.0,0.0,0.0,0.0,0.0,0.0,0.0,0.0,0.0,0.0,0.0,0.0,0.0,0.0,0.0,0.0,0.0,0.0,0.0,0.0,0.0,0.0,0.0,0.0,18.0,0.0,0.0,30.0,0.0,0.0,0.0,0.0,0.0,0.0,38.5,0.0,0.0,-0.7,14.7,12.1,0.0,0.0,0.0,0.0,19.0,20.0,19.0,20.0,19.0,20.0,20.0,21.0,0.0,0.0,-28.0,254.4,0.0,0.0,3.0,4.998,0.0,0.0,0.653,0.857,0.0,17.5,0.0,0.0,0.0,,0.0,0.0,19.25,-5.75,-7.5,77.0,64.4,32.0,32.0,32.0,32.0,66.2,68.0,66.2,68.0,66.2,68.0,68.0,69.8,32.0,32.0,63.5,66.65,21.65,18.5,0.0,1.349333333333334,0.0,384.8,2026-05-09 12:02:19-07:00
38.06,1.0,10.0,2026-05-09 19:02:53,37.08175,-121.59953,464.0,0.0,234.1,-12.6,0.0,,0.0,0.0,0.0,10.7,-0.6,358.1,0.0,211.0,0.0,-0.01,1.0,99.0,-127.0,25.0,0.0,29.89,1394.0,0.0,0.0,147.0,0.0,0.0,0.0,0.0,0.0,0.0,0.0,0.0,0.0,0.0,0.0,0.0,0.0,0.0,0.0,0.0,0.0,0.0,0.0,0.0,0.0,0.0,0.0,0.0,0.0,18.0,0.0,0.0,30.0,0.0,0.0,0.0,0.0,0.0,0.0,38.5,0.0,0.0,-0.7,14.7,12.1,0.0,0.0,0.0,0.0,19.0,20.0,19.0,20.0,19.0,20.0,20.0,21.0,0.0,0.0,-28.0,254.4,0.0,0.0,3.0,4.998,0.0,0.0,0.653,0.857,0.0,17.5,0.0,0.0,0.0,,0.0,0.0,19.25,-5.75,-7.5,77.0,64.4,32.0,32.0,32.0,32.0,66.2,68.0,66.2,68.0,66.2,68.0,68.0,69.8,32.0,32.0,63.5,66.65,21.65,18.5,0.0,1.349333333333334,0.0,384.8,2026-05-09 12:02:19-07:00
39.06,1.0,10.0,2026-05-09 19:02:54,37.08174,-121.59954,461.0,0.0,234.1,-12.6,0.0,,0.0,0.0,0.0,10.6,-0.6,358.1,0.0,209.0,0.0,-0.01,1.0,99.0,-115.0,25.0,0.0,29.89,1394.0,0.0,0.0,147.0,0.0,0.0,0.0,0.0,0.0,0.0,0.0,0.0,0.0,0.0,0.0,0.0,0.0,0.0,0.0,0.0,0.0,0.0,0.0,0.0,0.0,0.0,0.0,0.0,0.0,18.0,0.0,0.0,30.0,0.0,0.0,0.0,0.0,0.0,0.0,38.5,0.0,0.0,-0.7,14.7,12.1,0.0,0.0,0.0,0.0,19.0,20.0,19.0,20.0,19.0,20.0,20.0,21.0,0.0,0.0,-28.0,254.4,0.0,0.0,3.0,4.998,0.0,0.0,0.653,0.856,0.0,17.5,0.0,0.0,0.0,,0.0,0.0,19.25,-5.75,-7.5,77.0,64.4,32.0,32.0,32.0,32.0,66.2,68.0,66.2,68.0,66.2,68.0,68.0,69.8,32.0,32.0,63.5,66.65,21.65,18.5,0.0,1.349333333333334,0.0,384.8,2026-05-09 12:02:19-07:00
40.06,1.0,10.0,2026-05-09 19:02:55,37.08174,-121.59955,458.0,0.0,234.1,-12.6,0.0,,0.0,0.0,0.0,10.7,-0.6,358.0,0.0,208.0,0.0,-0.01,1.0,99.0,-99.0,25.0,0.0,29.89,1387.0,0.0,0.0,147.0,0.0,0.0,0.0,0.0,0.0,0.0,0.0,0.0,0.0,0.0,0.0,0.0,0.0,0.0,0.0,0.0,0.0,0.0,0.0,0.0,0.0,0.0,0.0,0.0,0.0,18.0,0.0,0.0,30.0,0.0,0.0,0.0,0.0,0.0,0.0,38.5,0.0,0.0,-0.7,14.7,12.1,0.0,0.0,0.0,0.0,19.0,21.0,19.0,21.0,19.0,21.0,20.0,21.0,0.0,0.0,-28.0,254.4,0.0,0.0,3.0,4.998,0.0,0.0,0.653,0.856,0.0,17.5,0.0,0.0,0.0,,0.0,0.0,19.25,-5.75,-7.5,77.0,64.4,32.0,32.0,32.0,32.0,66.2,69.8,66.2,69.8,66.2,69.8,68.0,69.8,32.0,32.0,63.5,66.65,21.65,18.5,0.0,1.349333333333334,0.0,384.8,2026-05-09 12:02:19-07:00
41.06,1.0,10.0,2026-05-09 19:02:56,37.08174,-121.59955,456.0,0.0,234.1,-12.6,0.0,,0.0,0.0,0.0,10.7,-0.7,358.0,0.0,207.0,0.0,-0.01,1.0,99.0,-88.0,25.0,0.0,29.89,1387.0,0.0,0.0,147.0,0.0,0.0,0.0,0.0,0.0,0.0,0.0,0.0,0.0,0.0,0.0,0.0,0.0,0.0,0.0,0.0,0.0,0.0,0.0,0.0,0.0,0.0,0.0,0.0,0.0,18.0,0.0,0.0,30.0,0.0,0.0,0.0,0.0,0.0,0.0,38.5,0.0,0.0,-0.7,14.7,12.1,0.0,0.0,0.0,0.0,19.0,21.0,19.0,21.0,19.0,21.0,20.0,21.0,0.0,0.0,-29.0,254.4,0.0,0.0,3.0,4.998,0.0,0.0,0.653,0.856,0.0,17.5,0.0,0.0,0.0,,0.0,0.0,19.25,-5.75,-7.5,77.0,64.4,32.0,32.0,32.0,32.0,66.2,69.8,66.2,69.8,66.2,69.8,68.0,69.8,32.0,32.0,63.5,66.65,21.65,18.5,0.0,1.349333333333334,0.0,384.8,2026-05-09 12:02:19-07:00
42.06,1.0,10.0,2026-05-09 19:02:57,37.08173,-121.59956,453.0,0.0,234.1,-12.6,0.0,,0.0,0.0,0.0,10.6,-0.6,358.0,0.0,206.0,0.1,-0.01,1.0,99.0,-52.0,25.0,0.0,29.89,1387.0,0.0,0.0,147.0,0.0,0.0,0.0,0.0,0.0,0.0,0.0,0.0,0.0,0.0,0.0,0.0,0.0,0.0,0.0,0.0,0.0,0.0,0.0,0.0,0.0,0.0,0.0,0.0,0.0,18.0,0.0,0.0,30.0,0.0,0.0,0.0,0.0,0.0,0.0,38.5,0.0,0.0,-0.7,14.7,12.1,0.0,0.0,0.0,0.0,19.0,20.0,19.0,21.0,19.0,21.0,20.0,21.0,0.0,0.0,-29.0,233.3,0.0,0.0,3.0,4.998,0.0,0.0,0.653,0.856,0.0,17.5,0.0,0.0,0.0,,0.0,0.0,19.25,-5.75,-7.5,77.0,64.4,32.0,32.0,32.0,32.0,66.2,68.0,66.2,69.8,66.2,69.8,68.0,69.8,32.0,32.0,63.5,66.65,21.65,18.5,0.0,1.349333333333334,0.0,384.8,2026-05-09 12:02:19-07:00
43.06,1.0,10.0,2026-05-09 19:02:58,37.08173,-121.59956,451.0,0.0,234.1,-12.6,0.0,,0.0,0.0,0.0,10.7,-0.7,358.0,0.0,206.0,0.0,-0.01,1.0,99.0,-26.0,25.0,0.0,29.89,1395.0,0.0,0.0,147.0,0.0,0.0,0.0,0.0,0.0,0.0,0.0,0.0,0.0,0.0,0.0,0.0,0.0,0.0,0.0,0.0,0.0,0.0,0.0,0.0,0.0,0.0,0.0,0.0,0.0,18.0,0.0,0.0,30.0,0.0,0.0,0.0,0.0,0.0,0.0,38.5,0.0,0.0,-0.7,14.7,12.1,0.0,0.0,0.0,0.0,19.0,20.0,19.0,21.0,19.0,21.0,20.0,21.0,0.0,0.0,-29.0,181.6,0.0,0.0,3.0,4.998,0.0,0.0,0.654,0.856,0.0,17.5,0.0,0.0,0.0,,0.0,0.0,19.25,-5.75,-7.5,77.0,64.4,32.0,32.0,32.0,32.0,66.2,68.0,66.2,69.8,66.2,69.8,68.0,69.8,32.0,32.0,63.5,66.65,21.65,18.5,0.0,1.349333333333334,0.0,384.8,2026-05-09 12:02:19-07:00
44.06,1.0,10.0,2026-05-09 19:02:59,37.08173,-121.59956,449.0,0.0,234.1,-12.6,0.0,,0.0,0.0,0.0,10.7,-0.7,358.0,0.0,206.0,0.0,-0.01,1.0,99.0,-9.0,25.0,0.0,29.89,1395.0,0.0,0.0,147.0,0.0,0.0,0.0,0.0,0.0,0.0,0.0,0.0,0.0,0.0,0.0,0.0,0.0,0.0,0.0,0.0,0.0,0.0,0.0,0.0,0.0,0.0,0.0,0.0,0.0,18.0,0.0,0.0,30.0,0.0,0.0,0.0,0.0,0.0,0.0,38.5,0.0,0.0,-0.7,14.7,12.1,0.0,0.0,0.0,0.0,19.0,20.0,19.0,21.0,19.0,21.0,20.0,21.0,0.0,0.0,-29.0,141.4,0.0,0.0,3.0,4.998,0.0,0.0,0.654,0.856,0.0,17.5,0.0,0.0,0.0,,0.0,0.0,19.25,-5.75,-7.5,77.0,64.4,32.0,32.0,32.0,32.0,66.2,68.0,66.2,69.8,66.2,69.8,68.0,69.8,32.0,32.0,63.5,66.65,21.65,18.5,0.0,1.349333333333334,0.0,384.8,2026-05-09 12:02:19-07:00
45.06,1.0,10.0,2026-05-09 19:03:00,37.08173,-121.59956,447.0,0.0,234.1,-12.6,0.0,,0.0,0.0,0.0,10.6,-0.7,358.0,0.0,206.0,0.0,-0.01,1.0,99.0,4.0,25.0,0.0,29.89,1395.0,0.0,0.0,147.0,0.0,0.0,0.0,0.0,0.0,0.0,0.0,0.0,0.0,0.0,0.0,0.0,0.0,0.0,0.0,0.0,0.0,0.0,0.0,0.0,0.0,0.0,0.0,0.0,0.0,18.0,0.0,0.0,30.0,0.0,0.0,0.0,0.0,0.0,0.0,38.5,0.0,0.0,-0.7,14.7,12.1,0.0,0.0,0.0,0.0,19.0,20.0,19.0,21.0,19.0,21.0,20.0,21.0,0.0,0.0,-29.0,110.1,0.0,0.0,3.0,4.998,0.0,0.0,0.653,0.856,0.0,17.5,0.0,0.0,0.0,,0.0,0.0,19.25,-5.75,-7.5,77.0,64.4,32.0,32.0,32.0,32.0,66.2,68.0,66.2,69.8,66.2,69.8,68.0,69.8,32.0,32.0,63.5,66.65,21.65,18.5,0.0,1.349333333333334,0.0,384.8,2026-05-09 12:02:19-07:00
46.06,1.0,10.0,2026-05-09 19:03:01,37.08173,-121.59957,445.0,0.0,234.1,-12.6,0.0,,0.0,0.0,0.0,10.7,-0.7,358.0,0.0,206.0,0.0,-0.01,1.0,99.0,-5.0,25.0,0.0,29.89,1396.0,0.0,0.0,147.0,0.0,0.0,0.0,0.0,0.0,0.0,0.0,0.0,0.0,0.0,0.0,0.0,0.0,0.0,0.0,0.0,0.0,0.0,0.0,0.0,0.0,0.0,0.0,0.0,0.0,18.0,0.0,0.0,30.0,0.0,0.0,0.0,0.0,0.0,0.0,38.5,0.0,0.0,-0.7,14.7,12.1,0.0,0.0,0.0,0.0,19.0,20.0,19.0,21.0,19.0,21.0,20.0,21.0,0.0,0.0,-29.0,85.8,0.0,0.0,3.0,4.998,0.0,0.0,0.653,0.857,0.0,17.5,0.0,0.0,0.0,,0.0,0.0,19.25,-5.75,-7.5,77.0,64.4,32.0,32.0,32.0,32.0,66.2,68.0,66.2,69.8,66.2,69.8,68.0,69.8,32.0,32.0,63.5,66.65,21.65,18.5,0.0,1.349333333333334,0.0,384.8,2026-05-09 12:02:19-07:00
47.06,1.0,10.0,2026-05-09 19:03:02,37.08172,-121.59957,443.0,0.0,234.1,-12.6,0.0,,0.0,0.0,0.0,10.7,-0.6,358.0,0.0,206.0,0.0,-0.01,1.0,99.0,-18.0,25.0,0.0,29.89,1396.0,0.0,0.0,147.0,0.0,0.0,0.0,0.0,0.0,0.0,0.0,0.0,0.0,0.0,0.0,0.0,0.0,0.0,0.0,0.0,0.0,0.0,0.0,0.0,0.0,0.0,0.0,0.0,0.0,18.0,0.0,0.0,30.0,0.0,0.0,0.0,0.0,0.0,0.0,38.5,0.0,0.0,-0.7,14.7,12.1,0.0,0.0,0.0,0.0,19.0,20.0,19.0,21.0,19.0,21.0,20.0,21.0,0.0,0.0,-29.0,66.9,0.0,0.0,3.0,4.998,0.0,0.0,0.653,0.856,0.0,17.5,0.0,0.0,0.0,,0.0,0.0,19.25,-5.75,-7.5,77.0,64.4,32.0,32.0,32.0,32.0,66.2,68.0,66.2,69.8,66.2,69.8,68.0,69.8,32.0,32.0,63.5,66.65,21.65,18.5,0.0,1.349333333333334,0.0,384.8,2026-05-09 12:02:19-07:00
48.06,1.0,10.0,2026-05-09 19:03:03,37.08168,-121.59963,410.0,0.0,234.1,-12.6,0.0,,0.0,0.0,0.0,10.6,-0.6,358.1,0.0,205.0,0.0,-0.01,1.0,99.0,-42.0,25.0,0.0,29.89,1396.0,0.0,0.0,147.0,0.0,0.0,0.0,0.0,0.0,0.0,0.0,0.0,0.0,0.0,0.0,0.0,0.0,0.0,0.0,0.0,0.0,0.0,0.0,0.0,0.0,0.0,0.0,0.0,0.0,18.0,0.0,0.0,30.0,0.0,0.0,0.0,0.0,0.0,0.0,38.5,0.0,0.0,-0.7,14.7,12.1,0.0,0.0,0.0,0.0,19.0,20.0,19.0,21.0,19.0,21.0,20.0,21.0,0.0,0.0,-29.0,52.2,0.0,0.0,3.0,4.998,0.0,0.0,0.653,0.856,0.0,17.5,0.0,0.0,0.0,,0.0,0.0,19.25,-5.75,-7.5,77.0,64.4,32.0,32.0,32.0,32.0,66.2,68.0,66.2,69.8,66.2,69.8,68.0,69.8,32.0,32.0,63.5,66.65,21.65,18.5,0.0,1.349333333333334,0.0,384.8,2026-05-09 12:02:19-07:00
49.06,1.0,10.0,2026-05-09 19:03:04,37.08168,-121.59964,408.0,0.0,234.1,-12.6,0.0,,0.0,0.0,0.0,10.6,-0.5,358.1,0.0,204.0,0.0,-0.01,1.0,99.0,-21.0,25.0,0.0,29.89,1403.0,0.0,0.0,147.0,0.0,0.0,0.0,0.0,0.0,0.0,0.0,0.0,0.0,0.0,0.0,0.0,0.0,0.0,0.0,0.0,0.0,0.0,0.0,0.0,0.0,0.0,0.0,0.0,0.0,18.0,0.0,0.0,30.0,0.0,0.0,0.0,0.0,0.0,0.0,38.5,0.0,0.0,-0.7,14.7,12.1,0.0,0.0,0.0,0.0,19.0,20.0,19.0,21.0,19.0,21.0,20.0,21.0,0.0,0.0,-29.0,40.8,0.0,0.0,3.0,4.998,0.0,0.0,0.653,0.856,0.0,17.5,0.0,0.0,0.0,,0.0,0.0,19.25,-5.75,-7.5,77.0,64.4,32.0,32.0,32.0,32.0,66.2,68.0,66.2,69.8,66.2,69.8,68.0,69.8,32.0,32.0,63.5,66.65,21.65,18.5,0.0,1.349333333333334,0.0,384.8,2026-05-09 12:02:19-07:00
50.06,1.0,10.0,2026-05-09 19:03:05,37.08168,-121.59964,407.0,0.0,234.1,-12.6,0.0,,0.0,0.0,0.0,10.7,-0.6,358.1,0.0,204.0,0.0,-0.01,1.0,99.0,-12.0,25.0,0.0,29.89,1403.0,0.0,0.0,147.0,0.0,0.0,0.0,0.0,0.0,0.0,0.0,0.0,0.0,0.0,0.0,0.0,0.0,0.0,0.0,0.0,0.0,0.0,0.0,0.0,0.0,0.0,0.0,0.0,0.0,18.0,0.0,0.0,30.0,0.0,0.0,0.0,0.0,0.0,0.0,38.5,0.0,0.0,-0.7,14.7,12.1,0.0,0.0,0.0,0.0,19.0,20.0,19.0,21.0,19.0,21.0,20.0,21.0,0.0,0.0,-29.0,31.9,0.0,0.0,3.0,4.998,0.0,0.0,0.653,0.856,0.0,17.5,0.0,0.0,0.0,,0.0,0.0,19.25,-5.75,-7.5,77.0,64.4,32.0,32.0,32.0,32.0,66.2,68.0,66.2,69.8,66.2,69.8,68.0,69.8,32.0,32.0,63.5,66.65,21.65,18.5,0.0,1.349333333333334,0.0,384.8,2026-05-09 12:02:19-07:00
51.06,1.0,10.0,2026-05-09 19:03:06,37.08168,-121.59964,406.0,0.0,234.1,-12.6,0.0,,0.0,0.0,0.0,10.7,-0.6,358.1,0.0,204.0,0.0,-0.01,1.0,99.0,12.0,25.0,0.0,29.89,1403.0,0.0,0.0,147.0,0.0,0.0,0.0,0.0,0.0,0.0,0.0,0.0,0.0,0.0,0.0,0.0,0.0,0.0,0.0,0.0,0.0,0.0,0.0,0.0,0.0,0.0,0.0,0.0,0.0,18.0,0.0,0.0,30.0,0.0,0.0,0.0,0.0,0.0,0.0,38.5,0.0,0.0,-0.7,14.7,12.1,0.0,0.0,0.0,0.0,19.0,20.0,19.0,21.0,19.0,21.0,20.0,21.0,0.0,0.0,-29.0,25.0,0.0,0.0,3.0,4.998,0.0,0.0,0.653,0.856,0.0,17.5,0.0,0.0,0.0,,0.0,0.0,19.25,-5.75,-7.5,77.0,64.4,32.0,32.0,32.0,32.0,66.2,68.0,66.2,69.8,66.2,69.8,68.0,69.8,32.0,32.0,63.5,66.65,21.65,18.5,0.0,1.349333333333334,0.0,384.8,2026-05-09 12:02:19-07:00
52.06,1.0,10.0,2026-05-09 19:03:07,37.08168,-121.59964,406.0,0.0,234.1,-12.6,0.0,,0.0,0.0,0.0,10.7,-0.6,358.1,0.0,204.0,0.0,-0.01,1.0,99.0,22.0,25.0,0.0,29.89,1404.0,0.0,0.0,147.0,0.0,0.0,0.0,0.0,0.0,0.0,0.0,0.0,0.0,0.0,0.0,0.0,0.0,0.0,0.0,0.0,0.0,0.0,0.0,0.0,0.0,0.0,0.0,0.0,0.0,18.0,0.0,0.0,30.0,0.0,0.0,0.0,0.0,0.0,0.0,38.5,0.0,0.0,-0.7,14.7,12.1,0.0,0.0,0.0,0.0,19.0,20.0,19.0,21.0,19.0,21.0,20.0,21.0,0.0,0.0,-28.0,19.7,0.0,0.0,3.0,4.998,0.0,0.0,0.653,0.856,0.0,17.5,0.0,0.0,0.0,,0.0,0.0,19.25,-5.75,-7.5,77.0,64.4,32.0,32.0,32.0,32.0,66.2,68.0,66.2,69.8,66.2,69.8,68.0,69.8,32.0,32.0,63.5,66.65,21.65,18.5,0.0,1.349333333333334,0.0,384.8,2026-05-09 12:02:19-07:00
53.06,1.0,10.0,2026-05-09 19:03:08,37.08168,-121.59965,405.0,0.0,234.1,-12.6,0.0,,0.0,0.0,0.0,10.7,-0.7,358.1,0.0,204.0,0.0,-0.01,1.0,99.0,35.0,25.0,0.0,29.89,1404.0,0.0,0.0,147.0,0.0,0.0,0.0,0.0,0.0,0.0,0.0,0.0,0.0,0.0,0.0,0.0,0.0,0.0,0.0,0.0,0.0,0.0,0.0,0.0,0.0,0.0,0.0,0.0,0.0,18.0,0.0,0.0,30.0,0.0,0.0,0.0,0.0,0.0,0.0,38.5,0.0,0.0,-0.7,14.7,12.1,0.0,0.0,0.0,0.0,19.0,20.0,19.0,21.0,19.0,21.0,20.0,21.0,0.0,0.0,-28.0,15.5,0.0,0.0,3.0,4.998,0.0,0.0,0.653,0.856,0.0,17.5,0.0,0.0,0.0,,0.0,0.0,19.25,-5.75,-7.5,77.0,64.4,32.0,32.0,32.0,32.0,66.2,68.0,66.2,69.8,66.2,69.8,68.0,69.8,32.0,32.0,63.5,66.65,21.65,18.5,0.0,1.349333333333334,0.0,384.8,2026-05-09 12:02:19-07:00
54.06,1.0,10.0,2026-05-09 19:03:09,37.08168,-121.59965,404.0,0.0,234.1,-12.6,0.0,,0.0,0.0,0.0,10.7,-0.6,358.1,0.0,204.0,0.0,-0.01,1.0,99.0,41.0,25.0,0.0,29.89,1405.0,0.0,0.0,147.0,0.0,0.0,0.0,0.0,0.0,0.0,0.0,0.0,0.0,0.0,0.0,0.0,0.0,0.0,0.0,0.0,0.0,0.0,0.0,0.0,0.0,0.0,0.0,0.0,0.0,18.0,0.0,0.0,30.0,0.0,0.0,0.0,0.0,0.0,0.0,38.5,0.0,0.0,-0.7,14.7,12.1,0.0,0.0,0.0,0.0,19.0,20.0,19.0,21.0,19.0,21.0,20.0,21.0,0.0,0.0,-28.0,12.3,0.0,0.0,3.0,4.998,0.0,0.0,0.653,0.856,0.0,17.5,0.0,0.0,0.0,,0.0,0.0,19.25,-5.75,-7.5,77.0,64.4,32.0,32.0,32.0,32.0,66.2,68.0,66.2,69.8,66.2,69.8,68.0,69.8,32.0,32.0,63.5,66.65,21.65,18.5,0.0,1.349333333333334,0.0,384.8,2026-05-09 12:02:19-07:00
55.06,1.0,10.0,2026-05-09 19:03:10,37.08168,-121.59965,403.0,0.0,234.1,-12.6,0.0,,0.0,0.0,0.0,10.6,-0.6,358.1,0.0,204.0,0.0,-0.01,1.0,99.0,28.0,25.0,0.0,29.89,1405.0,0.0,0.0,147.0,0.0,0.0,0.0,0.0,0.0,0.0,0.0,0.0,0.0,0.0,0.0,0.0,0.0,0.0,0.0,0.0,0.0,0.0,0.0,0.0,0.0,0.0,0.0,0.0,0.0,18.0,0.0,0.0,30.0,0.0,0.0,0.0,0.0,0.0,0.0,38.5,0.0,0.0,-0.7,14.7,12.1,0.0,0.0,0.0,0.0,19.0,21.0,19.0,21.0,20.0,21.0,20.0,21.0,0.0,0.0,-28.0,9.7,0.0,0.0,3.0,4.998,0.0,0.0,0.653,0.856,0.0,17.5,0.0,0.0,0.0,,0.0,0.0,19.5,-5.5,-7.5,77.0,64.4,32.0,32.0,32.0,32.0,66.2,69.8,66.2,69.8,68.0,69.8,68.0,69.8,32.0,32.0,63.5,67.1,22.1,18.5,0.0,1.349333333333334,0.0,384.8,2026-05-09 12:02:19-07:00
56.06,1.0,10.0,2026-05-09 19:03:11,37.08168,-121.59965,403.0,0.0,234.1,-12.6,0.0,,0.0,0.0,0.0,10.6,-0.6,358.1,0.0,204.0,0.0,-0.01,1.0,99.0,15.0,25.0,0.0,29.89,1405.0,0.0,0.0,147.0,0.0,0.0,0.0,0.0,0.0,0.0,0.0,0.0,0.0,0.0,0.0,0.0,0.0,0.0,0.0,0.0,0.0,0.0,0.0,0.0,0.0,0.0,0.0,0.0,0.0,18.0,0.0,0.0,30.0,0.0,0.0,0.0,0.0,0.0,0.0,38.5,0.0,0.0,-0.7,14.7,12.1,0.0,0.0,0.0,0.0,19.0,21.0,19.0,21.0,20.0,21.0,20.0,21.0,0.0,0.0,-28.0,7.8,0.0,0.0,3.0,4.998,0.0,0.0,0.653,0.856,0.0,17.6,0.0,0.0,0.0,,0.0,0.0,19.5,-5.5,-7.399999999999999,77.0,64.4,32.0,32.0,32.0,32.0,66.2,69.8,66.2,69.8,68.0,69.8,68.0,69.8,32.0,32.0,63.68,67.1,22.1,18.68,0.0,1.349333333333334,0.0,384.8,2026-05-09 12:02:19-07:00
57.06,1.0,10.0,2026-05-09 19:03:12,37.08168,-121.59965,402.0,0.0,234.1,-12.6,0.0,,0.0,0.0,0.0,10.6,-0.6,358.1,0.0,204.0,0.0,-0.01,1.0,99.0,38.0,25.0,0.0,29.89,1414.0,0.0,0.0,147.0,0.0,0.0,0.0,0.0,0.0,0.0,0.0,0.0,0.0,0.0,0.0,0.0,0.0,0.0,0.0,0.0,0.0,0.0,0.0,0.0,0.0,0.0,0.0,0.0,0.0,18.0,0.0,0.0,30.0,0.0,0.0,0.0,0.0,0.0,0.0,38.5,0.0,0.0,-0.7,14.7,12.1,0.0,0.0,0.0,0.0,19.0,21.0,19.0,21.0,20.0,21.0,20.0,21.0,0.0,0.0,-28.0,6.3,0.0,0.0,3.0,4.998,0.0,0.0,0.653,0.856,0.0,17.6,0.0,0.0,0.0,,0.0,0.0,19.5,-5.5,-7.399999999999999,77.0,64.4,32.0,32.0,32.0,32.0,66.2,69.8,66.2,69.8,68.0,69.8,68.0,69.8,32.0,32.0,63.68,67.1,22.1,18.68,0.0,1.349333333333334,0.0,384.8,2026-05-09 12:02:19-07:00
58.06,1.0,10.0,2026-05-09 19:03:13,37.08168,-121.59966,401.0,0.0,234.1,-12.6,0.0,,0.0,0.0,0.0,10.6,-0.6,358.1,0.0,204.0,0.0,-0.01,1.0,99.0,18.0,25.0,0.0,29.89,1415.0,0.0,0.0,147.0,0.0,0.0,0.0,0.0,0.0,0.0,0.0,0.0,0.0,0.0,0.0,0.0,0.0,0.0,0.0,0.0,0.0,0.0,0.0,0.0,0.0,0.0,0.0,0.0,0.0,18.0,0.0,0.0,30.0,0.0,0.0,0.0,0.0,0.0,0.0,38.5,0.0,0.0,-0.7,14.7,12.1,0.0,0.0,0.0,0.0,19.0,21.0,19.0,21.0,20.0,21.0,20.0,21.0,0.0,0.0,-27.0,5.1,0.0,0.0,3.0,4.998,0.0,0.0,0.653,0.856,0.0,17.5,0.0,0.0,0.0,,0.0,0.0,19.5,-5.5,-7.5,77.0,64.4,32.0,32.0,32.0,32.0,66.2,69.8,66.2,69.8,68.0,69.8,68.0,69.8,32.0,32.0,63.5,67.1,22.1,18.5,0.0,1.349333333333334,0.0,384.8,2026-05-09 12:02:19-07:00
59.06,1.0,10.0,2026-05-09 19:03:14,37.08168,-121.59966,401.0,0.0,234.1,-12.6,0.0,,0.0,0.0,0.0,10.6,-0.6,358.1,0.0,204.0,0.0,-0.01,1.0,99.0,-15.0,25.0,0.0,29.89,1415.0,0.0,0.0,147.0,0.0,0.0,0.0,0.0,0.0,0.0,0.0,0.0,0.0,0.0,0.0,0.0,0.0,0.0,0.0,0.0,0.0,0.0,0.0,0.0,0.0,0.0,0.0,0.0,0.0,18.0,0.0,0.0,30.0,0.0,0.0,0.0,0.0,0.0,0.0,38.5,0.0,0.0,-0.7,14.7,12.1,0.0,0.0,0.0,0.0,19.0,21.0,19.0,21.0,19.0,21.0,20.0,21.0,0.0,0.0,-27.0,4.2,0.0,0.0,3.0,4.998,0.0,0.0,0.653,0.856,0.0,17.6,0.0,0.0,0.0,,0.0,0.0,19.25,-5.75,-7.399999999999999,77.0,64.4,32.0,32.0,32.0,32.0,66.2,69.8,66.2,69.8,66.2,69.8,68.0,69.8,32.0,32.0,63.68,66.65,21.65,18.68,0.0,1.349333333333334,0.0,384.8,2026-05-09 12:02:19-07:00
60.06,1.0,10.0,2026-05-09 19:03:15,37.08168,-121.59966,400.0,0.0,234.1,-12.6,0.0,,0.0,0.0,0.0,10.7,-0.6,358.1,0.0,204.0,0.0,-0.01,1.0,99.0,-20.0,25.0,0.0,29.89,1415.0,0.0,0.0,147.0,0.0,0.0,0.0,0.0,0.0,0.0,0.0,0.0,0.0,0.0,0.0,0.0,0.0,0.0,0.0,0.0,0.0,0.0,0.0,0.0,0.0,0.0,0.0,0.0,0.0,18.0,0.0,0.0,30.0,0.0,0.0,0.0,0.0,0.0,0.0,38.5,0.0,0.0,-0.7,14.7,12.1,0.0,0.0,0.0,0.0,19.0,21.0,19.0,21.0,19.0,21.0,20.0,21.0,0.0,0.0,-27.0,3.5,0.0,0.0,3.0,4.998,0.0,0.0,0.653,0.856,0.0,17.6,0.0,0.0,0.0,,0.0,0.0,19.25,-5.75,-7.399999999999999,77.0,64.4,32.0,32.0,32.0,32.0,66.2,69.8,66.2,69.8,66.2,69.8,68.0,69.8,32.0,32.0,63.68,66.65,21.65,18.68,0.0,1.349333333333334,0.0,384.8,2026-05-09 12:02:19-07:00
61.06,1.0,10.0,2026-05-09 19:03:16,37.08168,-121.59966,400.0,0.0,234.1,-12.6,0.0,,0.0,0.0,0.0,10.7,-0.6,358.1,0.0,204.0,0.0,-0.01,1.0,99.0,-12.0,25.0,0.0,29.89,1425.0,0.0,0.0,147.0,0.0,0.0,0.0,0.0,0.0,0.0,0.0,0.0,0.0,0.0,0.0,0.0,0.0,0.0,0.0,0.0,0.0,0.0,0.0,0.0,0.0,0.0,0.0,0.0,0.0,18.0,0.0,0.0,30.0,0.0,0.0,0.0,0.0,0.0,0.0,38.5,0.0,0.0,-0.7,14.7,12.1,0.0,0.0,0.0,0.0,19.0,21.0,19.0,21.0,19.0,21.0,20.0,21.0,0.0,0.0,-26.0,2.9,0.0,0.0,3.0,4.998,0.0,0.0,0.653,0.856,0.0,17.6,0.0,0.0,0.0,,0.0,0.0,19.25,-5.75,-7.399999999999999,77.0,64.4,32.0,32.0,32.0,32.0,66.2,69.8,66.2,69.8,66.2,69.8,68.0,69.8,32.0,32.0,63.68,66.65,21.65,18.68,0.0,1.349333333333334,0.0,384.8,2026-05-09 12:02:19-07:00
62.06,1.0,10.0,2026-05-09 19:03:17,37.08168,-121.59966,400.0,0.0,234.1,-12.6,0.0,,0.0,0.0,0.0,10.7,-0.6,358.1,0.0,204.0,0.0,-0.01,1.0,99.0,-22.0,25.0,0.0,29.89,1425.0,0.0,0.0,147.0,0.0,0.0,0.0,0.0,0.0,0.0,0.0,0.0,0.0,0.0,0.0,0.0,0.0,0.0,0.0,0.0,0.0,0.0,0.0,0.0,0.0,0.0,0.0,0.0,0.0,18.0,0.0,0.0,30.0,0.0,0.0,0.0,0.0,0.0,0.0,38.5,0.0,0.0,-0.7,14.7,12.1,0.0,0.0,0.0,0.0,19.0,21.0,19.0,21.0,19.0,21.0,20.0,21.0,0.0,0.0,-26.0,2.5,0.0,0.0,3.0,4.998,0.0,0.0,0.653,0.856,0.0,17.6,0.0,0.0,0.0,,0.0,0.0,19.25,-5.75,-7.399999999999999,77.0,64.4,32.0,32.0,32.0,32.0,66.2,69.8,66.2,69.8,66.2,69.8,68.0,69.8,32.0,32.0,63.68,66.65,21.65,18.68,0.0,1.349333333333334,0.0,384.8,2026-05-09 12:02:19-07:00
63.06,1.0,10.0,2026-05-09 19:03:18,37.08168,-121.59966,399.0,0.0,234.1,-12.6,0.0,,0.0,0.0,0.0,10.7,-0.6,358.1,0.0,202.0,0.0,-0.01,1.0,99.0,-84.0,25.0,0.0,29.89,1425.0,0.0,0.0,147.0,0.0,0.0,0.0,0.0,0.0,0.0,0.0,0.0,0.0,0.0,0.0,0.0,0.0,0.0,0.0,0.0,0.0,0.0,0.0,0.0,0.0,0.0,0.0,0.0,0.0,18.0,0.0,0.0,30.0,0.0,0.0,0.0,0.0,0.0,0.0,38.5,0.0,0.0,-0.7,14.7,12.1,0.0,0.0,0.0,0.0,19.0,21.0,19.0,21.0,19.0,21.0,20.0,21.0,0.0,0.0,-25.0,2.2,0.0,0.0,3.0,4.998,0.0,0.0,0.653,0.856,0.0,17.6,0.0,0.0,0.0,,0.0,0.0,19.25,-5.75,-7.399999999999999,77.0,64.4,32.0,32.0,32.0,32.0,66.2,69.8,66.2,69.8,66.2,69.8,68.0,69.8,32.0,32.0,63.68,66.65,21.65,18.68,0.0,1.349333333333334,0.0,384.8,2026-05-09 12:02:19-07:00
64.06,1.0,10.0,2026-05-09 19:03:19,37.08168,-121.59967,393.0,0.0,234.1,-12.6,0.0,,0.0,0.0,0.0,10.7,-0.6,358.2,0.0,201.0,0.0,-0.01,1.0,99.0,-48.0,25.0,0.0,29.89,1422.0,0.0,0.0,147.0,0.0,0.0,0.0,0.0,0.0,0.0,0.0,0.0,0.0,0.0,0.0,0.0,0.0,0.0,0.0,0.0,0.0,0.0,0.0,0.0,0.0,0.0,0.0,0.0,0.0,18.0,0.0,0.0,30.0,0.0,0.0,0.0,0.0,0.0,0.0,38.5,0.0,0.0,-0.7,14.7,12.1,0.0,0.0,0.0,0.0,19.0,21.0,19.0,21.0,19.0,21.0,20.0,21.0,0.0,0.0,-26.0,1.9,0.0,0.0,3.0,4.998,0.0,0.0,0.653,0.854,0.0,17.6,0.0,0.0,0.0,,0.0,0.0,19.25,-5.75,-7.399999999999999,77.0,64.4,32.0,32.0,32.0,32.0,66.2,69.8,66.2,69.8,66.2,69.8,68.0,69.8,32.0,32.0,63.68,66.65,21.65,18.68,0.0,1.349333333333334,0.0,384.8,2026-05-09 12:02:19-07:00
65.06,1.0,10.0,2026-05-09 19:03:20,37.08169,-121.59967,393.0,0.0,234.1,-12.6,0.0,,0.0,0.0,0.0,10.7,-0.6,358.1,0.0,199.0,0.0,-0.01,1.0,99.0,-85.0,25.0,0.0,29.89,1422.0,0.0,0.0,147.0,0.0,0.0,0.0,0.0,0.0,0.0,0.0,0.0,0.0,0.0,0.0,0.0,0.0,0.0,0.0,0.0,0.0,0.0,0.0,0.0,0.0,0.0,0.0,0.0,0.0,18.0,0.0,0.0,30.0,0.0,0.0,0.0,0.0,0.0,0.0,38.5,0.0,0.0,-0.7,14.7,12.1,0.0,0.0,0.0,0.0,19.0,21.0,19.0,21.0,19.0,21.0,20.0,21.0,0.0,0.0,-26.0,1.7,0.0,0.0,3.0,4.998,0.0,0.0,0.653,0.856,0.0,17.6,0.0,0.0,0.0,,0.0,0.0,19.25,-5.75,-7.399999999999999,77.0,64.4,32.0,32.0,32.0,32.0,66.2,69.8,66.2,69.8,66.2,69.8,68.0,69.8,32.0,32.0,63.68,66.65,21.65,18.68,0.0,1.349333333333334,0.0,384.8,2026-05-09 12:02:19-07:00
66.06,1.0,10.0,2026-05-09 19:03:21,37.08169,-121.59968,393.0,0.0,234.1,-12.6,0.0,,0.0,0.0,0.0,10.7,-0.6,358.1,0.0,196.0,0.0,-0.01,1.0,99.0,-129.0,25.0,0.0,29.89,1422.0,0.0,0.0,147.0,0.0,0.0,0.0,0.0,0.0,0.0,0.0,0.0,0.0,0.0,0.0,0.0,0.0,0.0,0.0,0.0,0.0,0.0,0.0,0.0,0.0,0.0,0.0,0.0,0.0,18.0,0.0,0.0,30.0,0.0,0.0,0.0,0.0,0.0,0.0,38.5,0.0,0.0,-0.7,14.7,12.1,0.0,0.0,0.0,0.0,19.0,21.0,19.0,21.0,19.0,21.0,20.0,21.0,0.0,0.0,-26.0,1.5,0.0,0.0,3.0,4.998,0.0,0.0,0.653,0.856,0.0,17.6,0.0,0.0,0.0,,0.0,0.0,19.25,-5.75,-7.399999999999999,77.0,64.4,32.0,32.0,32.0,32.0,66.2,69.8,66.2,69.8,66.2,69.8,68.0,69.8,32.0,32.0,63.68,66.65,21.65,18.68,0.0,1.349333333333334,0.0,384.8,2026-05-09 12:02:19-07:00
67.06,1.0,10.0,2026-05-09 19:03:22,37.08169,-121.59968,393.0,0.0,234.1,-12.6,0.0,,0.0,0.0,0.0,10.7,-0.5,358.2,0.0,194.0,0.0,-0.01,1.0,99.0,-92.0,25.0,0.0,29.89,1422.0,0.0,0.0,147.0,0.0,0.0,0.0,0.0,0.0,0.0,0.0,0.0,0.0,0.0,0.0,0.0,0.0,0.0,0.0,0.0,0.0,0.0,0.0,0.0,0.0,0.0,0.0,0.0,0.0,18.0,0.0,0.0,30.0,0.0,0.0,0.0,0.0,0.0,0.0,38.5,0.0,0.0,-0.7,14.7,12.1,0.0,0.0,0.0,0.0,19.0,21.0,19.0,21.0,20.0,21.0,20.0,21.0,0.0,0.0,-27.0,1.4,0.0,0.0,3.0,4.998,0.0,0.0,0.653,0.854,0.0,17.6,0.0,0.0,0.0,,0.0,0.0,19.5,-5.5,-7.399999999999999,77.0,64.4,32.0,32.0,32.0,32.0,66.2,69.8,66.2,69.8,68.0,69.8,68.0,69.8,32.0,32.0,63.68,67.1,22.1,18.68,0.0,1.349333333333334,0.0,384.8,2026-05-09 12:02:19-07:00
68.06,1.0,10.0,2026-05-09 19:03:23,37.08169,-121.59968,393.0,0.0,234.1,-12.6,0.0,,0.0,0.0,0.0,10.7,-0.5,358.2,0.0,194.0,0.0,-0.01,1.0,99.0,-82.0,25.0,0.0,29.89,1422.0,0.0,0.0,147.0,0.0,0.0,0.0,0.0,0.0,0.0,0.0,0.0,0.0,0.0,0.0,0.0,0.0,0.0,0.0,0.0,0.0,0.0,0.0,0.0,0.0,0.0,0.0,0.0,0.0,18.0,0.0,0.0,30.0,0.0,0.0,0.0,0.0,0.0,0.0,38.5,0.0,0.0,-0.7,14.7,12.1,0.0,0.0,0.0,0.0,19.0,21.0,19.0,21.0,20.0,21.0,20.0,21.0,0.0,0.0,-28.0,1.3,0.0,0.0,3.0,4.998,0.0,0.0,0.653,0.854,0.0,17.6,0.0,0.0,0.0,,0.0,0.0,19.5,-5.5,-7.399999999999999,77.0,64.4,32.0,32.0,32.0,32.0,66.2,69.8,66.2,69.8,68.0,69.8,68.0,69.8,32.0,32.0,63.68,67.1,22.1,18.68,0.0,1.349333333333334,0.0,384.8,2026-05-09 12:02:19-07:00
69.06,1.0,10.0,2026-05-09 19:03:24,37.08169,-121.59968,393.0,0.0,234.1,-12.6,0.0,,0.0,0.0,0.0,10.7,-0.5,358.3,0.0,193.0,0.1,-0.01,1.0,99.0,-58.0,25.0,0.0,29.89,1422.0,0.0,0.0,147.0,0.0,0.0,0.0,0.0,0.0,0.0,0.0,0.0,0.0,0.0,0.0,0.0,0.0,0.0,0.0,0.0,0.0,0.0,0.0,0.0,0.0,0.0,0.0,0.0,0.0,18.0,0.0,0.0,30.0,0.0,0.0,0.0,0.0,0.0,0.0,38.5,0.0,0.0,-0.7,14.7,12.1,0.0,0.0,0.0,0.0,19.0,21.0,19.0,21.0,20.0,21.0,20.0,21.0,0.0,0.0,-28.0,1.2,0.0,0.0,3.0,4.998,0.0,0.0,0.653,0.854,0.0,17.6,0.0,0.0,0.0,,0.0,0.0,19.5,-5.5,-7.399999999999999,77.0,64.4,32.0,32.0,32.0,32.0,66.2,69.8,66.2,69.8,68.0,69.8,68.0,69.8,32.0,32.0,63.68,67.1,22.1,18.68,0.0,1.349333333333334,0.0,384.8,2026-05-09 12:02:19-07:00
70.06,1.0,10.0,2026-05-09 19:03:25,37.08169,-121.59968,393.0,0.0,234.1,-12.6,0.0,,0.0,0.0,0.0,10.7,-0.5,358.3,0.0,193.0,0.0,-0.01,1.0,99.0,-15.0,25.0,0.0,29.89,1421.0,0.0,0.0,147.0,0.0,0.0,0.0,0.0,0.0,0.0,0.0,0.0,0.0,0.0,0.0,0.0,0.0,0.0,0.0,0.0,0.0,0.0,0.0,0.0,0.0,0.0,0.0,0.0,0.0,18.0,0.0,0.0,30.0,0.0,0.0,0.0,0.0,0.0,0.0,38.5,0.0,0.0,-0.7,14.7,12.1,0.0,0.0,0.0,0.0,19.0,21.0,19.0,21.0,20.0,21.0,20.0,21.0,0.0,0.0,-28.0,1.2,0.0,0.0,3.0,4.998,0.0,0.0,0.653,0.854,0.0,17.6,0.0,0.0,0.0,,0.0,0.0,19.5,-5.5,-7.399999999999999,77.0,64.4,32.0,32.0,32.0,32.0,66.2,69.8,66.2,69.8,68.0,69.8,68.0,69.8,32.0,32.0,63.68,67.1,22.1,18.68,0.0,1.349333333333334,0.0,384.8,2026-05-09 12:02:19-07:00
71.06,1.0,10.0,2026-05-09 19:03:26,37.08169,-121.59968,393.0,0.0,234.1,-12.6,0.0,,0.0,0.0,0.0,10.7,-0.6,358.2,0.0,193.0,0.0,-0.01,1.0,99.0,17.0,25.0,0.0,29.89,1422.0,0.0,0.0,147.0,0.0,0.0,0.0,0.0,0.0,0.0,0.0,0.0,0.0,0.0,0.0,0.0,0.0,0.0,0.0,0.0,0.0,0.0,0.0,0.0,0.0,0.0,0.0,0.0,0.0,18.0,0.0,0.0,30.0,0.0,0.0,0.0,0.0,0.0,0.0,38.5,0.0,0.0,-0.7,14.7,12.1,0.0,0.0,0.0,0.0,19.0,21.0,19.0,21.0,20.0,21.0,20.0,21.0,0.0,0.0,-28.0,1.1,0.0,0.0,3.0,4.998,0.0,0.0,0.653,0.854,0.0,17.6,0.0,0.0,0.0,,0.0,0.0,19.5,-5.5,-7.399999999999999,77.0,64.4,32.0,32.0,32.0,32.0,66.2,69.8,66.2,69.8,68.0,69.8,68.0,69.8,32.0,32.0,63.68,67.1,22.1,18.68,0.0,1.349333333333334,0.0,384.8,2026-05-09 12:02:19-07:00
72.06,1.0,10.0,2026-05-09 19:03:27,37.08169,-121.59968,394.0,0.0,234.1,-12.6,0.0,,0.0,0.0,0.0,10.7,-0.6,358.2,0.0,193.0,0.0,-0.01,1.0,99.0,17.0,25.0,0.0,29.89,1422.0,0.0,0.0,147.0,0.0,0.0,0.0,0.0,0.0,0.0,0.0,0.0,0.0,0.0,0.0,0.0,0.0,0.0,0.0,0.0,0.0,0.0,0.0,0.0,0.0,0.0,0.0,0.0,0.0,18.0,0.0,0.0,30.0,0.0,0.0,0.0,0.0,0.0,0.0,38.5,0.0,0.0,-0.7,14.7,12.1,0.0,0.0,0.0,0.0,19.0,21.0,19.0,21.0,20.0,21.0,20.0,21.0,0.0,0.0,-28.0,1.1,0.0,0.0,3.0,4.998,0.0,0.0,0.653,0.854,0.0,17.6,0.0,0.0,0.0,,0.0,0.0,19.5,-5.5,-7.399999999999999,77.0,64.4,32.0,32.0,32.0,32.0,66.2,69.8,66.2,69.8,68.0,69.8,68.0,69.8,32.0,32.0,63.68,67.1,22.1,18.68,0.0,1.349333333333334,0.0,384.8,2026-05-09 12:02:19-07:00
73.06,1.0,10.0,2026-05-09 19:03:28,37.08169,-121.59968,394.0,0.0,234.1,-12.6,0.0,,0.0,0.0,0.0,10.7,-0.6,358.2,0.0,193.0,0.0,-0.01,1.0,99.0,33.0,25.0,0.0,29.89,1422.0,0.0,0.0,147.0,0.0,0.0,0.0,0.0,0.0,0.0,0.0,0.0,0.0,0.0,0.0,0.0,0.0,0.0,0.0,0.0,0.0,0.0,0.0,0.0,0.0,0.0,0.0,0.0,0.0,18.0,0.0,0.0,30.0,0.0,0.0,0.0,0.0,0.0,0.0,38.5,0.0,0.0,-0.7,14.7,12.1,0.0,0.0,0.0,0.0,19.0,21.0,19.0,21.0,20.0,21.0,20.0,21.0,0.0,0.0,-28.0,1.1,0.0,0.0,3.0,4.998,0.0,0.0,0.653,0.854,0.0,17.6,0.0,0.0,0.0,,0.0,0.0,19.5,-5.5,-7.399999999999999,77.0,64.4,32.0,32.0,32.0,32.0,66.2,69.8,66.2,69.8,68.0,69.8,68.0,69.8,32.0,32.0,63.68,67.1,22.1,18.68,0.0,1.349333333333334,0.0,384.8,2026-05-09 12:02:19-07:00
74.06,1.0,10.0,2026-05-09 19:03:29,37.08169,-121.59968,394.0,0.0,234.1,-12.6,0.0,,0.0,0.0,0.0,10.7,-0.6,358.2,0.0,193.0,0.0,-0.01,1.0,99.0,38.0,25.0,0.0,29.89,1431.0,0.0,0.0,147.0,0.0,0.0,0.0,0.0,0.0,0.0,0.0,0.0,0.0,0.0,0.0,0.0,0.0,0.0,0.0,0.0,0.0,0.0,0.0,0.0,0.0,0.0,0.0,0.0,0.0,18.0,0.0,0.0,30.0,0.0,0.0,0.0,0.0,0.0,0.0,38.5,0.0,0.0,-0.7,14.7,12.1,0.0,0.0,0.0,0.0,19.0,21.0,19.0,21.0,20.0,21.0,20.0,21.0,0.0,0.0,-28.0,1.0,0.0,0.0,3.0,4.998,0.0,0.0,0.653,0.854,0.0,17.6,0.0,0.0,0.0,,0.0,0.0,19.5,-5.5,-7.399999999999999,77.0,64.4,32.0,32.0,32.0,32.0,66.2,69.8,66.2,69.8,68.0,69.8,68.0,69.8,32.0,32.0,63.68,67.1,22.1,18.68,0.0,1.349333333333334,0.0,384.8,2026-05-09 12:02:19-07:00
75.06,1.0,10.0,2026-05-09 19:03:30,37.08169,-121.59968,394.0,0.0,234.1,-12.6,0.0,,0.0,0.0,0.0,10.6,-0.6,358.2,0.0,193.0,0.0,-0.01,1.0,99.0,1.0,25.0,0.0,29.89,1431.0,0.0,0.0,147.0,0.0,0.0,0.0,0.0,0.0,0.0,0.0,0.0,0.0,0.0,0.0,0.0,0.0,0.0,0.0,0.0,0.0,0.0,0.0,0.0,0.0,0.0,0.0,0.0,0.0,18.0,0.0,0.0,30.0,0.0,0.0,0.0,0.0,0.0,0.0,38.5,0.0,0.0,-0.7,14.7,12.1,0.0,0.0,0.0,0.0,19.0,21.0,19.0,21.0,20.0,21.0,20.0,21.0,0.0,0.0,-29.0,1.0,0.0,0.0,3.0,4.998,0.0,0.0,0.653,0.854,0.0,17.6,0.0,0.0,0.0,,0.0,0.0,19.5,-5.5,-7.399999999999999,77.0,64.4,32.0,32.0,32.0,32.0,66.2,69.8,66.2,69.8,68.0,69.8,68.0,69.8,32.0,32.0,63.68,67.1,22.1,18.68,0.0,1.349333333333334,0.0,384.8,2026-05-09 12:02:19-07:00
76.06,1.0,10.0,2026-05-09 19:03:31,37.08169,-121.59968,394.0,0.0,234.1,-12.6,0.0,,0.0,0.0,0.0,10.6,-0.6,358.2,0.0,193.0,0.0,-0.01,1.0,99.0,-24.0,25.0,0.0,29.89,1431.0,0.0,0.0,147.0,0.0,0.0,0.0,0.0,0.0,0.0,0.0,0.0,0.0,0.0,0.0,0.0,0.0,0.0,0.0,0.0,0.0,0.0,0.0,0.0,0.0,0.0,0.0,0.0,0.0,18.0,0.0,0.0,30.0,0.0,0.0,0.0,0.0,0.0,0.0,38.5,0.0,0.0,-0.7,14.7,12.1,0.0,0.0,0.0,0.0,19.0,21.0,19.0,21.0,20.0,21.0,20.0,21.0,0.0,0.0,-29.0,1.0,0.0,0.0,3.0,4.998,0.0,0.0,0.653,0.854,0.0,17.6,0.0,0.0,0.0,,0.0,0.0,19.5,-5.5,-7.399999999999999,77.0,64.4,32.0,32.0,32.0,32.0,66.2,69.8,66.2,69.8,68.0,69.8,68.0,69.8,32.0,32.0,63.68,67.1,22.1,18.68,0.0,1.349333333333334,0.0,384.8,2026-05-09 12:02:19-07:00
77.06,1.0,10.0,2026-05-09 19:03:32,37.08169,-121.59968,394.0,0.0,234.1,-12.6,0.0,,0.0,0.0,0.0,10.6,-0.6,358.2,0.0,193.0,0.0,-0.01,1.0,99.0,-10.0,25.0,0.0,29.89,1431.0,0.0,0.0,147.0,0.0,0.0,0.0,0.0,0.0,0.0,0.0,0.0,0.0,0.0,0.0,0.0,0.0,0.0,0.0,0.0,0.0,0.0,0.0,0.0,0.0,0.0,0.0,0.0,0.0,18.0,0.0,0.0,30.0,0.0,0.0,0.0,0.0,0.0,0.0,38.5,0.0,0.0,-0.7,14.7,12.1,0.0,0.0,0.0,0.0,19.0,21.0,19.0,21.0,20.0,21.0,20.0,21.0,0.0,0.0,-29.0,1.0,0.0,0.0,3.0,4.998,0.0,0.0,0.653,0.854,0.0,17.6,0.0,0.0,0.0,,0.0,0.0,19.5,-5.5,-7.399999999999999,77.0,64.4,32.0,32.0,32.0,32.0,66.2,69.8,66.2,69.8,68.0,69.8,68.0,69.8,32.0,32.0,63.68,67.1,22.1,18.68,0.0,1.349333333333334,0.0,384.8,2026-05-09 12:02:19-07:00
78.06,1.0,10.0,2026-05-09 19:03:33,37.08169,-121.59968,394.0,0.0,234.1,-12.6,0.0,,0.0,0.0,0.0,10.6,-0.6,358.2,0.0,193.0,0.0,-0.01,1.0,99.0,11.0,25.0,0.0,29.89,1432.0,0.0,0.0,147.0,0.0,0.0,0.0,0.0,0.0,0.0,0.0,0.0,0.0,0.0,0.0,0.0,0.0,0.0,0.0,0.0,0.0,0.0,0.0,0.0,0.0,0.0,0.0,0.0,0.0,18.0,0.0,0.0,30.0,0.0,0.0,0.0,0.0,0.0,0.0,38.5,0.0,0.0,-0.7,14.7,12.1,0.0,0.0,0.0,0.0,20.0,21.0,20.0,21.0,20.0,21.0,20.0,21.0,0.0,0.0,-30.0,1.0,0.0,0.0,3.0,4.998,0.0,0.0,0.653,0.854,0.0,17.6,0.0,0.0,0.0,,0.0,0.0,20.0,-5.0,-7.399999999999999,77.0,64.4,32.0,32.0,32.0,32.0,68.0,69.8,68.0,69.8,68.0,69.8,68.0,69.8,32.0,32.0,63.68,68.0,23.0,18.68,0.0,1.349333333333334,0.0,384.8,2026-05-09 12:02:19-07:00
79.06,1.0,10.0,2026-05-09 19:03:34,37.08168,-121.59968,395.0,0.0,234.1,-12.6,0.0,,0.0,0.0,0.0,10.6,-0.5,358.2,0.0,193.0,0.0,-0.01,1.0,99.0,25.0,25.0,0.0,29.89,1432.0,0.0,0.0,147.0,0.0,0.0,0.0,0.0,0.0,0.0,0.0,0.0,0.0,0.0,0.0,0.0,0.0,0.0,0.0,0.0,0.0,0.0,0.0,0.0,0.0,0.0,0.0,0.0,0.0,18.0,0.0,0.0,30.0,0.0,0.0,0.0,0.0,0.0,0.0,38.5,0.0,0.0,-0.7,14.7,12.1,0.0,0.0,0.0,0.0,20.0,21.0,20.0,21.0,20.0,21.0,20.0,21.0,0.0,0.0,-30.0,1.0,0.0,0.0,3.0,4.998,0.0,0.0,0.653,0.854,0.0,17.6,0.0,0.0,0.0,,0.0,0.0,20.0,-5.0,-7.399999999999999,77.0,64.4,32.0,32.0,32.0,32.0,68.0,69.8,68.0,69.8,68.0,69.8,68.0,69.8,32.0,32.0,63.68,68.0,23.0,18.68,0.0,1.349333333333334,0.0,384.8,2026-05-09 12:02:19-07:00
80.06,1.0,10.0,2026-05-09 19:03:35,37.08168,-121.59968,395.0,0.0,234.1,-12.6,0.0,,0.0,0.0,0.0,10.6,-0.5,358.2,0.0,193.0,0.0,-0.01,1.0,99.0,61.0,25.0,0.0,29.89,1432.0,0.0,0.0,147.0,0.0,0.0,0.0,0.0,0.0,0.0,0.0,0.0,0.0,0.0,0.0,0.0,0.0,0.0,0.0,0.0,0.0,0.0,0.0,0.0,0.0,0.0,0.0,0.0,0.0,18.0,0.0,0.0,30.0,0.0,0.0,0.0,0.0,0.0,0.0,38.5,0.0,0.0,-0.7,14.7,12.1,0.0,0.0,0.0,0.0,20.0,21.0,20.0,21.0,20.0,21.0,20.0,21.0,0.0,0.0,-31.0,1.0,0.0,0.0,3.0,4.998,0.0,0.0,0.653,0.854,0.0,17.6,0.0,0.0,0.0,,0.0,0.0,20.0,-5.0,-7.399999999999999,77.0,64.4,32.0,32.0,32.0,32.0,68.0,69.8,68.0,69.8,68.0,69.8,68.0,69.8,32.0,32.0,63.68,68.0,23.0,18.68,0.0,1.349333333333334,0.0,384.8,2026-05-09 12:02:19-07:00
81.06,1.0,10.0,2026-05-09 19:03:36,37.08168,-121.59968,395.0,0.0,234.1,-12.6,0.0,,0.0,0.0,0.0,10.6,-0.5,358.2,0.0,193.0,0.0,-0.01,1.0,99.0,68.0,25.0,0.0,29.89,1441.0,0.0,0.0,147.0,0.0,0.0,0.0,0.0,0.0,0.0,0.0,0.0,0.0,0.0,0.0,0.0,0.0,0.0,0.0,0.0,0.0,0.0,0.0,0.0,0.0,0.0,0.0,0.0,0.0,18.0,0.0,0.0,30.0,0.0,0.0,0.0,0.0,0.0,0.0,38.5,0.0,0.0,-0.7,14.7,12.1,0.0,0.0,0.0,0.0,20.0,21.0,20.0,21.0,20.0,21.0,20.0,21.0,0.0,0.0,-33.0,1.0,0.0,0.0,3.0,4.998,0.0,0.0,0.653,0.854,0.0,17.6,0.0,0.0,0.0,,0.0,0.0,20.0,-5.0,-7.399999999999999,77.0,64.4,32.0,32.0,32.0,32.0,68.0,69.8,68.0,69.8,68.0,69.8,68.0,69.8,32.0,32.0,63.68,68.0,23.0,18.68,0.0,1.349333333333334,0.0,384.8,2026-05-09 12:02:19-07:00
82.06,1.0,10.0,2026-05-09 19:03:37,37.08168,-121.59968,395.0,0.0,234.1,-12.6,0.0,,0.0,0.0,0.0,10.6,-0.5,358.2,0.0,193.0,0.0,-0.01,1.0,99.0,68.0,25.0,0.0,29.89,1441.0,0.0,0.0,147.0,0.0,0.0,0.0,0.0,0.0,0.0,0.0,0.0,0.0,0.0,0.0,0.0,0.0,0.0,0.0,0.0,0.0,0.0,0.0,0.0,0.0,0.0,0.0,0.0,0.0,18.0,0.0,0.0,30.0,0.0,0.0,0.0,0.0,0.0,0.0,38.5,0.0,0.0,-0.7,14.7,12.1,0.0,0.0,0.0,0.0,19.0,21.0,20.0,21.0,20.0,21.0,20.0,21.0,0.0,0.0,-33.0,1.0,0.0,0.0,3.0,4.998,0.0,0.0,0.653,0.854,0.0,17.6,0.0,0.0,0.0,,0.0,0.0,19.75,-5.25,-7.399999999999999,77.0,64.4,32.0,32.0,32.0,32.0,66.2,69.8,68.0,69.8,68.0,69.8,68.0,69.8,32.0,32.0,63.68,67.55,22.55,18.68,0.0,1.349333333333334,0.0,384.8,2026-05-09 12:02:19-07:00
83.06,1.0,10.0,2026-05-09 19:03:38,37.08168,-121.59968,395.0,0.0,234.1,-12.6,0.0,,0.0,0.0,0.0,10.6,-0.5,358.3,0.0,193.0,0.0,-0.01,1.0,99.0,85.0,25.0,0.0,29.89,1441.0,0.0,0.0,147.0,0.0,0.0,0.0,0.0,0.0,0.0,0.0,0.0,0.0,0.0,0.0,0.0,0.0,0.0,0.0,0.0,0.0,0.0,0.0,0.0,0.0,0.0,0.0,0.0,0.0,18.0,0.0,0.0,30.0,0.0,0.0,0.0,0.0,0.0,0.0,38.5,0.0,0.0,-0.7,14.7,12.1,0.0,0.0,0.0,0.0,20.0,21.0,20.0,21.0,20.0,21.0,20.0,21.0,0.0,0.0,-33.0,1.0,0.0,0.0,3.0,4.998,0.0,0.0,0.653,0.854,0.0,17.6,0.0,0.0,0.0,,0.0,0.0,20.0,-5.0,-7.399999999999999,77.0,64.4,32.0,32.0,32.0,32.0,68.0,69.8,68.0,69.8,68.0,69.8,68.0,69.8,32.0,32.0,63.68,68.0,23.0,18.68,0.0,1.349333333333334,0.0,384.8,2026-05-09 12:02:19-07:00
84.06,1.0,10.0,2026-05-09 19:03:39,37.08168,-121.59968,395.0,0.0,234.1,-12.6,0.0,,0.0,0.0,0.0,10.6,-0.5,358.3,0.0,194.0,0.1,-0.01,1.0,99.0,72.0,25.0,0.0,29.89,1441.0,0.0,0.0,147.0,0.0,0.0,0.0,0.0,0.0,0.0,0.0,0.0,0.0,0.0,0.0,0.0,0.0,0.0,0.0,0.0,0.0,0.0,0.0,0.0,0.0,0.0,0.0,0.0,0.0,18.0,0.0,0.0,30.0,0.0,0.0,0.0,0.0,0.0,0.0,38.5,0.0,0.0,-0.7,14.7,12.1,0.0,0.0,0.0,0.0,19.0,21.0,20.0,21.0,20.0,21.0,20.0,21.0,0.0,0.0,-33.0,1.0,0.0,0.0,3.0,4.998,0.0,0.0,0.653,0.854,0.0,17.6,0.0,0.0,0.0,,0.0,0.0,19.75,-5.25,-7.399999999999999,77.0,64.4,32.0,32.0,32.0,32.0,66.2,69.8,68.0,69.8,68.0,69.8,68.0,69.8,32.0,32.0,63.68,67.55,22.55,18.68,0.0,1.349333333333334,0.0,384.8,2026-05-09 12:02:19-07:00
85.06,1.0,10.0,2026-05-09 19:03:40,37.08168,-121.59968,395.0,0.0,234.1,-12.6,0.0,,0.0,0.0,0.0,10.7,-0.5,358.3,0.0,194.0,0.1,-0.01,1.0,99.0,60.0,25.0,0.0,29.89,1444.0,0.0,0.0,147.0,0.0,0.0,0.0,0.0,0.0,0.0,0.0,0.0,0.0,0.0,0.0,0.0,0.0,0.0,0.0,0.0,0.0,0.0,0.0,0.0,0.0,0.0,0.0,0.0,0.0,18.0,0.0,0.0,30.0,0.0,0.0,0.0,0.0,0.0,0.0,38.5,0.0,0.0,-0.7,14.7,12.1,0.0,0.0,0.0,0.0,19.0,21.0,20.0,21.0,20.0,21.0,20.0,21.0,0.0,0.0,-34.0,1.0,0.0,0.0,3.0,4.998,0.0,0.0,0.653,0.854,0.0,17.6,0.0,0.0,0.0,,0.0,0.0,19.75,-5.25,-7.399999999999999,77.0,64.4,32.0,32.0,32.0,32.0,66.2,69.8,68.0,69.8,68.0,69.8,68.0,69.8,32.0,32.0,63.68,67.55,22.55,18.68,0.0,1.349333333333334,0.0,384.8,2026-05-09 12:02:19-07:00
86.06,1.0,10.0,2026-05-09 19:03:41,37.08168,-121.59968,395.0,0.0,234.1,-12.6,0.0,,0.0,0.0,0.0,10.6,-0.5,358.3,0.0,194.0,0.0,-0.01,1.0,99.0,28.0,25.0,0.0,29.89,1444.0,0.0,0.0,147.0,0.0,0.0,0.0,0.0,0.0,0.0,0.0,0.0,0.0,0.0,0.0,0.0,0.0,0.0,0.0,0.0,0.0,0.0,0.0,0.0,0.0,0.0,0.0,0.0,0.0,18.0,0.0,0.0,30.0,0.0,0.0,0.0,9.7,0.0,0.0,38.5,0.0,0.0,-0.7,14.7,12.1,0.0,0.0,0.0,0.0,19.0,21.0,20.0,21.0,20.0,21.0,20.0,21.0,0.0,0.0,-34.0,1.0,0.0,9.7,3.0,4.998,0.0,0.0,0.653,0.854,0.0,17.6,0.0,0.0,0.0,,0.0,0.0,19.75,-5.25,-7.399999999999999,77.0,64.4,32.0,32.0,32.0,32.0,66.2,69.8,68.0,69.8,68.0,69.8,68.0,69.8,32.0,32.0,63.68,67.55,22.55,18.68,0.0,1.349333333333334,0.0,384.8,2026-05-09 12:02:19-07:00
87.06,1.0,10.0,2026-05-09 19:03:42,37.08168,-121.59968,395.0,0.0,234.1,-12.6,0.0,,0.0,0.0,0.0,10.6,-0.5,358.3,0.0,194.0,0.0,-0.01,1.0,99.0,36.0,25.0,0.0,29.89,1444.0,0.0,0.0,147.0,0.0,0.0,0.0,0.0,0.0,0.0,0.0,0.0,0.0,0.0,0.0,0.0,0.0,0.0,0.0,0.0,0.0,0.0,0.0,0.0,0.0,0.0,0.0,0.0,0.0,18.0,0.0,0.0,30.0,0.0,0.0,0.0,28.8,0.0,0.0,38.5,0.0,0.0,-0.6,14.7,12.1,0.0,0.0,0.0,0.0,19.0,21.0,20.0,21.0,20.0,21.0,20.0,21.0,0.0,0.0,-33.0,0.0,0.0,28.8,3.0,4.998,0.0,0.0,0.653,0.854,0.0,17.6,0.0,0.0,0.0,,0.0,0.0,19.75,-5.25,-7.399999999999999,77.0,64.4,32.0,32.0,32.0,32.0,66.2,69.8,68.0,69.8,68.0,69.8,68.0,69.8,32.0,32.0,63.68,67.55,22.55,18.68,0.0,1.349333333333334,0.0,384.8,2026-05-09 12:02:19-07:00
88.06,1.0,10.0,2026-05-09 19:03:43,37.08168,-121.59968,395.0,0.0,234.1,-12.6,0.0,,0.0,0.0,0.0,10.7,-0.5,358.3,0.0,196.0,0.0,-0.01,1.0,99.0,48.0,25.0,0.0,29.89,1446.0,0.0,0.0,147.0,0.0,0.0,0.0,0.0,0.0,0.0,0.0,0.0,0.0,0.0,0.0,0.0,0.0,0.0,0.0,0.0,0.0,0.0,0.0,0.0,0.0,0.0,0.0,0.0,0.0,18.0,0.0,0.0,30.0,0.9,0.0,0.9,30.5,0.0,0.0,38.5,0.0,0.0,-0.6,14.7,12.1,0.0,0.0,0.0,0.0,19.0,21.0,20.0,21.0,20.0,21.0,20.0,22.0,0.0,0.0,-33.0,0.0,0.0,30.5,3.0,4.998,0.0,0.0,0.653,0.854,0.0,17.6,0.0,0.0,0.0,,0.0,0.0,19.75,-5.25,-7.399999999999999,77.0,64.4,32.0,32.0,32.0,32.0,66.2,69.8,68.0,69.8,68.0,69.8,68.0,71.6,32.0,32.0,63.68,67.55,22.55,18.68,0.000125,1.349333333333334,0.0,384.8,2026-05-09 12:02:19-07:00
