Session Time,GPS Fix Quality,Number of Satellites,GPS Date & Time,Latitude (deg),Longitude (deg),GPS Altitude (feet),Ground Speed (knots),Ground Track (deg),Mag Var (deg),Cross Track Error (NM),Destination Waypoint ID,Range to Destination (NM),Bearing to Destination (deg),System Time,Pitch (deg),Roll (deg),Magnetic Heading (deg),Indicated Airspeed (knots),Pressure Altitude (ft),Turn Rate (deg/s),Lateral Accel (g),Vertical Accel(g),Angle of Attack (%),Vertical Speed (ft/min),OAT (deg C),True Airspeed (knots),Barometer Setting (inHg),Density Altitude (ft),Wind Direction (deg),Wind Speed (knots),Heading Bug (deg),Altitude Bug (ft),Airspeed Bug (knots),Vertical Speed Bug (ft/min),Course (deg),CDI Source Type,CDI Source Port,CDI Scale (NM),CDI Deflection (%),Glideslope (%),AP Engaged,AP Roll Mode,AP Roll Force,AP Roll Position (steps),AP Roll Slip (bool),AP Pitch Force,AP Pitch Position (steps),AP Pitch Slip (bool),AP Yaw Force,AP Yaw Position,AP Yaw Slip (bool),Transponder Status,Transponder Reply (bool),Transponder Identing (bool),Transponder Code (octal),Oil Pressure (PSI),Oil Temp (deg C),RPM L,RPM R,Manifold Pressure (inHg),Fuel Flow 1 (gal/hr),Fuel Flow 2 (gal/hr),Total Fuel Flow (gal/hr),Fuel Pressure (PSI),Fuel Level L (gal),Fuel Level R (gal),Fuel Remaining (gal),Volts 1,Volts 2,Amps,Hobbs Time,Tach Time,Thermocouple 1 (deg C),Thermocouple 2 (deg C),Thermocouple 3 (deg C),Thermocouple 4 (deg C),CHT 4 (deg C),EGT 4 (deg C),CHT 3 (deg C),EGT 3 (deg C),CHT 2 (deg C),EGT 2 (deg C),CHT 1 (deg C),EGT 1 (deg C),Thermocouple 13 (deg C),Thermocouple 14 (deg C),ELEV POSITION (%),CO PPM PRESSURE (PSI),GP Input 3,FUEL PRESSURE (PSI),AILERN POSITION (%),CANOPY CONTACT (V),GP Input 7,GP Input 8,LEFT LEVEL (Sensor V),RIGHT LEVEL (Sensor V),OIL PRESSURE (PSI),OIL TEMPERATURE (deg C),GP Input 13,Contacts,Percent Power,EGT Leaning State,Unnamed: 103,OAT (deg F),Oil Temp (deg F),Thermocouple 1 (deg F),Thermocouple 2 (deg F),Thermocouple 3 (deg F),Thermocouple 4 (deg F),CHT 4 (deg F),EGT 4 (deg F),CHT 3 (deg F),EGT 3 (deg F),CHT 2 (deg F),EGT 2 (deg F),CHT 1 (deg F),EGT 1 (deg F),Thermocouple 13 (deg F),Thermocouple 14 (deg F),OIL TEMPERATURE (deg F),RPM,AVG_CHT,CHT_Delta_T,OIL_Delta_T,Fuel Flow Integral,Distance Traveled,MPG,Max CHT,Engine Run,Flight ID
3.06,1,9,2026-05-27 21:09:49,37.08158,-121.59973,417.0,0.0,150.3,-12.6,0.0,,0.0,0.0,0.0,10.5,-0.7,9.0,0.0,408.0,0.0,-0.01,1.0,0.0,-50.0,30,0.0,29.89,2301.0,0.0,0.0,320,0.0,100.0,-800.0,0.0,0,0,0.0,0.0,0.0,0.0,0.0,0.0,0.0,0.0,0.0,0.0,0.0,0.0,0.0,0.0,0.0,0.0,0.0,0.0,0.0,0.0,0.0,0.0,0.0,0.0,0.0,0.0,0.0,0.0,0.0,30.1,0.0,0.0,-0.4,15.8,13.1,0.0,0.0,0.0,0.0,23.0,25.0,23.0,25.0,23.0,25.0,23.0,25.0,0.0,0.0,5.0,254.3,0.0,0.3,1.0,4.998,0.0,0.0,0.653,0.879,0.0,20.9,0.0,0.0,0.0,,0.0,86.0,0.0,0.0,0.0,0.0,0.0,73.4,77.0,73.4,77.0,73.4,77.0,73.4,77.0,0.0,0.0,69.62,0.0,73.4,-12.599999999999994,-16.379999999999995,0.0,0.0,0.0,395.6,True,2026-05-27 14:09:49-07:00
4.06,1,9,2026-05-27 21:09:50,37.08158,-121.59972,374.0,0.0,150.3,-12.6,0.0,,0.0,0.0,0.0,10.5,-0.8,9.0,0.0,407.0,0.1,-0.01,1.0,0.0,-63.0,30,0.0,29.89,2301.0,0.0,0.0,320,0.0,100.0,-800.0,0.0,0,0,0.0,0.0,0.0,0.0,0.0,0.0,0.0,0.0,0.0,0.0,0.0,0.0,0.0,0.0,0.0,0.0,0.0,0.0,0.0,0.0,0.0,0.0,0.0,0.0,0.0,0.0,0.0,0.0,0.0,30.1,0.0,0.0,-0.5,15.8,13.1,0.0,0.0,0.0,0.0,23.0,25.0,23.0,25.0,23.0,25.0,23.0,25.0,0.0,0.0,5.0,254.3,0.0,0.3,1.0,4.998,0.0,0.0,0.653,0.879,0.0,20.9,0.0,0.0,0.0,,0.0,86.0,0.0,0.0,0.0,0.0,0.0,73.4,77.0,73.4,77.0,73.4,77.0,73.4,77.0,0.0,0.0,69.62,0.0,73.4,-12.599999999999994,-16.379999999999995,0.0,0.0,0.0,395.6,True,2026-05-27 14:09:49-07:00
5.06,1,9,2026-05-27 21:09:51,37.08157,-121.59972,377.0,0.1,150.3,-12.6,0.0,,0.0,0.0,0.0,10.6,-0.7,9.0,0.0,404.0,0.1,-0.01,1.0,99.0,-99.0,30,0.0,29.89,2301.0,0.0,0.0,320,0.0,0.0,0.0,0.0,0,0,0.0,0.0,0.0,0.0,0.0,0.0,0.0,0.0,0.0,0.0,0.0,0.0,0.0,0.0,0.0,0.0,0.0,0.0,0.0,21.0,0.0,0.0,29.8,0.0,0.0,0.0,0.3,0.0,0.0,30.1,0.0,0.0,-0.5,15.8,13.1,0.0,0.0,0.0,0.0,23.0,25.0,23.0,25.0,23.0,25.0,23.0,25.0,0.0,0.0,5.0,254.3,0.0,0.3,1.0,4.998,0.0,0.0,0.653,0.88,0.0,20.9,0.0,0.0,0.0,,0.0,86.0,69.8,0.0,0.0,0.0,0.0,73.4,77.0,73.4,77.0,73.4,77.0,73.4,77.0,0.0,0.0,69.62,0.0,73.4,-12.599999999999994,-16.379999999999995,0.0,0.08433333333333333,0.0,395.6,True,2026-05-27 14:09:49-07:00
6.06,1,9,2026-05-27 21:09:52,37.08157,-121.59972,381.0,0.0,150.3,-12.6,0.0,,0.0,0.0,0.0,10.6,-0.7,9.0,0.0,404.0,0.1,-0.01,1.0,99.0,-85.0,30,0.0,29.89,2301.0,0.0,0.0,320,0.0,0.0,0.0,0.0,0,0,0.0,0.0,0.0,0.0,0.0,0.0,0.0,0.0,0.0,0.0,0.0,0.0,0.0,0.0,0.0,0.0,0.0,0.0,0.0,21.0,0.0,0.0,29.8,0.0,0.0,0.0,0.3,0.0,0.0,30.1,0.0,0.0,-0.5,15.8,13.1,0.0,0.0,0.0,0.0,23.0,25.0,23.0,25.0,23.0,25.0,23.0,25.0,0.0,0.0,5.0,254.3,0.0,0.3,1.0,4.998,0.0,0.0,0.654,0.879,0.0,20.8,0.0,0.0,0.0,,0.0,86.0,69.8,0.0,0.0,0.0,0.0,73.4,77.0,73.4,77.0,73.4,77.0,73.4,77.0,0.0,0.0,69.44,0.0,73.4,-12.599999999999994,-16.560000000000002,0.0,0.16866666666666666,0.0,395.6,True,2026-05-27 14:09:49-07:00
7.06,1,9,2026-05-27 21:09:53,37.08157,-121.59973,386.0,0.1,150.3,-12.6,0.0,,0.0,0.0,0.0,10.6,-0.8,9.0,0.0,403.0,0.0,-0.01,1.0,99.0,-66.0,30,0.0,29.89,2306.0,0.0,0.0,320,0.0,0.0,0.0,0.0,0,0,0.0,0.0,0.0,0.0,0.0,0.0,0.0,0.0,0.0,0.0,0.0,0.0,0.0,0.0,0.0,0.0,0.0,0.0,0.0,21.0,0.0,0.0,29.8,0.0,0.0,0.0,0.3,0.0,0.0,30.1,0.0,0.0,-0.5,15.8,13.1,0.0,0.0,0.0,0.0,23.0,25.0,23.0,25.0,23.0,25.0,23.0,25.0,0.0,0.0,5.0,254.3,0.0,0.3,1.0,4.998,0.0,0.0,0.653,0.88,0.0,20.8,0.0,0.0,0.0,,0.0,86.0,69.8,0.0,0.0,0.0,0.0,73.4,77.0,73.4,77.0,73.4,77.0,73.4,77.0,0.0,0.0,69.44,0.0,73.4,-12.599999999999994,-16.560000000000002,0.0,0.253,0.0,395.6,True,2026-05-27 14:09:49-07:00
8.06,1,9,2026-05-27 21:09:54,37.08157,-121.59973,390.0,0.0,150.3,-12.6,0.0,,0.0,0.0,0.0,10.6,-0.8,8.9,0.0,403.0,0.0,-0.01,1.0,99.0,-30.0,30,0.0,29.89,2306.0,0.0,0.0,320,0.0,0.0,0.0,0.0,0,0,0.0,0.0,0.0,0.0,0.0,0.0,0.0,0.0,0.0,0.0,0.0,0.0,0.0,0.0,0.0,0.0,0.0,0.0,0.0,21.0,0.0,0.0,29.8,0.0,0.0,0.0,0.3,0.0,0.0,30.1,0.0,0.0,-0.5,15.8,13.1,0.0,0.0,0.0,0.0,23.0,25.0,23.0,25.0,23.0,25.0,24.0,25.0,0.0,0.0,5.0,254.3,0.0,0.3,1.0,4.998,0.0,0.0,0.654,0.88,0.0,20.8,0.0,0.0,0.0,,0.0,86.0,69.8,0.0,0.0,0.0,0.0,73.4,77.0,73.4,77.0,73.4,77.0,75.2,77.0,0.0,0.0,69.44,0.0,73.85000000000001,-12.149999999999991,-16.560000000000002,0.0,0.3373333333333334,0.0,395.6,True,2026-05-27 14:09:49-07:00
9.06,1,9,2026-05-27 21:09:55,37.08157,-121.59974,392.0,0.0,150.3,-12.6,0.0,,0.0,0.0,0.0,10.6,-0.8,8.9,0.0,403.0,0.1,-0.01,1.0,99.0,-5.0,30,0.0,29.89,2306.0,0.0,0.0,320,0.0,0.0,0.0,0.0,0,0,0.0,0.0,0.0,0.0,0.0,0.0,0.0,0.0,0.0,0.0,0.0,0.0,0.0,0.0,0.0,0.0,0.0,0.0,0.0,21.0,0.0,0.0,29.8,0.0,0.0,0.0,0.3,0.0,0.0,30.1,0.0,0.0,-0.5,15.8,13.1,0.0,0.0,0.0,0.0,23.0,25.0,23.0,25.0,23.0,25.0,24.0,25.0,0.0,0.0,5.0,254.3,0.0,0.3,1.0,4.998,0.0,0.0,0.654,0.879,0.0,20.8,0.0,0.0,0.0,,0.0,86.0,69.8,0.0,0.0,0.0,0.0,73.4,77.0,73.4,77.0,73.4,77.0,75.2,77.0,0.0,0.0,69.44,0.0,73.85000000000001,-12.149999999999991,-16.560000000000002,0.0,0.3373333333333334,0.0,395.6,True,2026-05-27 14:09:49-07:00
10.06,1,9,2026-05-27 21:09:56,37.08157,-121.59974,396.0,0.1,150.3,-12.6,0.0,,0.0,0.0,0.0,10.6,-0.8,8.9,0.0,403.0,0.1,-0.01,1.0,99.0,0.0,30,0.0,29.89,2305.0,0.0,0.0,320,0.0,0.0,0.0,0.0,0,0,0.0,0.0,0.0,0.0,0.0,0.0,0.0,0.0,0.0,0.0,0.0,0.0,0.0,0.0,0.0,0.0,0.0,0.0,0.0,21.0,0.0,0.0,29.8,0.0,0.0,0.0,0.3,0.0,0.0,30.1,0.0,0.0,-0.4,15.8,13.1,0.0,0.0,0.0,0.0,23.0,25.0,23.0,25.0,23.0,25.0,24.0,25.0,0.0,0.0,5.0,254.3,0.0,0.3,1.0,4.998,0.0,0.0,0.653,0.88,0.0,20.8,0.0,0.0,0.0,,0.0,86.0,69.8,0.0,0.0,0.0,0.0,73.4,77.0,73.4,77.0,73.4,77.0,75.2,77.0,0.0,0.0,69.44,0.0,73.85000000000001,-12.149999999999991,-16.560000000000002,0.0,0.42166666666666675,0.0,395.6,True,2026-05-27 14:09:49-07:00
11.06,1,9,2026-05-27 21:09:57,37.08157,-121.59975,400.0,0.0,150.3,-12.6,0.0,,0.0,0.0,0.0,10.5,-0.8,8.9,0.0,403.0,0.1,-0.01,1.0,99.0,-6.0,30,0.0,29.89,2305.0,0.0,0.0,320,0.0,0.0,0.0,0.0,0,0,0.0,0.0,0.0,0.0,0.0,0.0,0.0,0.0,0.0,0.0,0.0,0.0,0.0,0.0,0.0,0.0,0.0,0.0,0.0,21.0,0.0,0.0,29.8,0.0,0.0,0.0,0.3,0.0,0.0,30.1,0.0,0.0,-0.4,15.8,13.1,0.0,0.0,0.0,0.0,23.0,25.0,23.0,25.0,23.0,25.0,24.0,25.0,0.0,0.0,5.0,254.3,0.0,0.3,1.0,4.998,0.0,0.0,0.653,0.881,0.0,20.8,0.0,0.0,0.0,,0.0,86.0,69.8,0.0,0.0,0.0,0.0,73.4,77.0,73.4,77.0,73.4,77.0,75.2,77.0,0.0,0.0,69.44,0.0,73.85000000000001,-12.149999999999991,-16.560000000000002,0.0,0.506,0.0,395.6,True,2026-05-27 14:09:49-07:00
12.06,1,9,2026-05-27 21:09:58,37.08156,-121.59975,404.0,0.0,150.3,-12.6,0.0,,0.0,0.0,0.0,10.6,-0.9,8.8,0.0,403.0,0.0,-0.01,1.0,99.0,-8.0,30,0.0,29.89,2306.0,0.0,0.0,320,0.0,0.0,0.0,0.0,0,0,0.0,0.0,0.0,0.0,0.0,0.0,0.0,0.0,0.0,0.0,0.0,0.0,0.0,0.0,0.0,0.0,0.0,0.0,0.0,21.0,0.0,0.0,29.8,0.0,0.0,0.0,0.3,0.0,0.0,30.1,0.0,0.0,-0.4,15.8,13.1,0.0,0.0,0.0,0.0,23.0,25.0,23.0,25.0,23.0,25.0,24.0,25.0,0.0,0.0,5.0,254.3,0.0,0.3,1.0,4.998,0.0,0.0,0.654,0.881,0.0,20.8,0.0,0.0,0.0,,0.0,86.0,69.8,0.0,0.0,0.0,0.0,73.4,77.0,73.4,77.0,73.4,77.0,75.2,77.0,0.0,0.0,69.44,0.0,73.85000000000001,-12.149999999999991,-16.560000000000002,0.0,0.506,0.0,395.6,True,2026-05-27 14:09:49-07:00
13.06,1,9,2026-05-27 21:09:59,37.08156,-121.59975,408.0,0.1,150.3,-12.6,0.0,,0.0,0.0,0.0,10.5,-0.8,8.8,0.0,402.0,0.1,-0.01,1.0,99.0,-55.0,30,0.0,29.89,2306.0,0.0,0.0,320,0.0,0.0,0.0,0.0,0,0,0.0,0.0,0.0,0.0,0.0,0.0,0.0,0.0,0.0,0.0,0.0,0.0,0.0,0.0,0.0,0.0,0.0,0.0,0.0,21.0,0.0,0.0,29.8,0.0,0.0,0.0,0.3,0.0,0.0,30.1,0.0,0.0,-0.4,15.8,13.1,0.0,0.0,0.0,0.0,23.0,25.0,23.0,25.0,23.0,25.0,24.0,25.0,0.0,0.0,5.0,254.3,0.0,0.3,1.0,4.998,0.0,0.0,0.653,0.879,0.0,20.7,0.0,0.0,0.0,,0.0,86.0,69.8,0.0,0.0,0.0,0.0,73.4,77.0,73.4,77.0,73.4,77.0,75.2,77.0,0.0,0.0,69.25999999999999,0.0,73.85000000000001,-12.149999999999991,-16.74000000000001,0.0,0.5903333333333334,0.0,395.6,True,2026-05-27 14:09:49-07:00
14.06,1,9,2026-05-27 21:10:00,37.08156,-121.59976,411.0,0.0,150.3,-12.6,0.0,,0.0,0.0,0.0,10.5,-0.9,8.7,0.0,399.0,0.0,-0.01,1.0,99.0,-74.0,30,0.0,29.89,2306.0,0.0,0.0,320,0.0,0.0,0.0,0.0,0,0,0.0,0.0,0.0,0.0,0.0,0.0,0.0,0.0,0.0,0.0,0.0,0.0,0.0,0.0,0.0,0.0,0.0,0.0,0.0,21.0,0.0,0.0,29.8,0.0,0.0,0.0,0.2,0.0,0.0,30.1,0.0,0.0,-0.4,15.8,13.1,0.0,0.0,0.0,0.0,23.0,25.0,23.0,25.0,23.0,25.0,24.0,25.0,0.0,0.0,5.0,254.3,0.0,0.2,1.0,4.998,0.0,0.0,0.653,0.88,0.0,20.7,0.0,0.0,0.0,,0.0,86.0,69.8,0.0,0.0,0.0,0.0,73.4,77.0,73.4,77.0,73.4,77.0,75.2,77.0,0.0,0.0,69.25999999999999,0.0,73.85000000000001,-12.149999999999991,-16.74000000000001,0.0,0.6746666666666667,0.0,395.6,True,2026-05-27 14:09:49-07:00
15.06,1,9,2026-05-27 21:10:01,37.08156,-121.59976,415.0,0.0,150.3,-12.6,0.0,,0.0,0.0,0.0,10.5,-0.8,8.8,0.0,398.0,0.1,-0.01,1.0,99.0,-87.0,30,0.0,29.89,2311.0,0.0,0.0,320,0.0,0.0,0.0,0.0,0,0,0.0,0.0,0.0,0.0,0.0,0.0,0.0,0.0,0.0,0.0,0.0,0.0,0.0,0.0,0.0,0.0,0.0,0.0,0.0,21.0,0.0,0.0,29.8,0.0,0.0,0.0,0.0,0.0,0.0,30.1,0.0,0.0,-0.4,15.8,13.1,0.0,0.0,0.0,0.0,23.0,25.0,23.0,25.0,23.0,25.0,24.0,25.0,0.0,0.0,5.0,254.3,0.0,0.0,1.0,4.998,0.0,0.0,0.653,0.879,0.0,20.7,0.0,0.0,0.0,,0.0,86.0,69.8,0.0,0.0,0.0,0.0,73.4,77.0,73.4,77.0,73.4,77.0,75.2,77.0,0.0,0.0,69.25999999999999,0.0,73.85000000000001,-12.149999999999991,-16.74000000000001,0.0,0.6746666666666667,0.0,395.6,True,2026-05-27 14:09:49-07:00
16.06,1,9,2026-05-27 21:10:02,37.08156,-121.59977,419.0,0.0,150.3,-12.6,0.0,,0.0,0.0,0.0,10.5,-0.9,8.8,0.0,397.0,0.1,-0.02,1.0,99.0,-80.0,30,0.0,29.89,2311.0,0.0,0.0,320,0.0,0.0,0.0,0.0,0,0,0.0,0.0,0.0,0.0,0.0,0.0,0.0,0.0,0.0,0.0,0.0,0.0,0.0,0.0,0.0,0.0,0.0,0.0,0.0,21.0,0.0,0.0,29.8,0.0,0.0,0.0,0.0,0.0,0.0,30.1,0.0,0.0,-0.4,15.8,13.1,0.0,0.0,0.0,0.0,23.0,25.0,23.0,25.0,23.0,25.0,24.0,25.0,0.0,0.0,5.0,254.3,0.0,0.0,1.0,4.998,0.0,0.0,0.653,0.879,0.0,20.7,0.0,0.0,0.0,,0.0,86.0,69.8,0.0,0.0,0.0,0.0,73.4,77.0,73.4,77.0,73.4,77.0,75.2,77.0,0.0,0.0,69.25999999999999,0.0,73.85000000000001,-12.149999999999991,-16.74000000000001,0.0,0.6746666666666667,0.0,395.6,True,2026-05-27 14:09:49-07:00
17.06,1,9,2026-05-27 21:10:03,37.08156,-121.59977,423.0,0.0,150.3,-12.6,0.0,,0.0,0.0,0.0,10.5,-0.8,8.9,0.0,395.0,0.1,-0.01,1.0,99.0,-99.0,30,0.0,29.89,2311.0,0.0,0.0,320,0.0,0.0,0.0,0.0,0,0,0.0,0.0,0.0,0.0,0.0,0.0,0.0,0.0,0.0,0.0,0.0,0.0,0.0,0.0,0.0,0.0,0.0,0.0,0.0,21.0,0.0,0.0,29.8,0.0,0.0,0.0,0.0,0.0,0.0,30.1,0.0,0.0,-0.4,15.8,13.1,0.0,0.0,0.0,0.0,23.0,25.0,23.0,25.0,23.0,25.0,24.0,25.0,0.0,0.0,6.0,254.3,0.0,0.0,1.0,4.998,0.0,0.0,0.653,0.879,0.0,20.7,0.0,0.0,0.0,,0.0,86.0,69.8,0.0,0.0,0.0,0.0,73.4,77.0,73.4,77.0,73.4,77.0,75.2,77.0,0.0,0.0,69.25999999999999,0.0,73.85000000000001,-12.149999999999991,-16.74000000000001,0.0,0.6746666666666667,0.0,395.6,True,2026-05-27 14:09:49-07:00
18.06,1,9,2026-05-27 21:10:04,37.08156,-121.59978,427.0,0.0,150.3,-12.6,0.0,,0.0,0.0,0.0,10.5,-0.9,8.9,0.0,392.0,0.1,-0.02,1.0,99.0,-133.0,30,0.0,29.89,2305.0,0.0,0.0,320,0.0,0.0,0.0,0.0,0,0,0.0,0.0,0.0,0.0,0.0,0.0,0.0,0.0,0.0,0.0,0.0,0.0,0.0,0.0,0.0,0.0,0.0,0.0,0.0,21.0,0.0,0.0,29.8,0.0,0.0,0.0,0.0,0.0,0.0,30.1,0.0,0.0,-0.4,15.8,13.1,0.0,0.0,0.0,0.0,23.0,25.0,23.0,25.0,23.0,25.0,24.0,25.0,0.0,0.0,6.0,254.3,0.0,0.0,1.0,4.998,0.0,0.0,0.653,0.878,0.0,20.7,0.0,0.0,0.0,,0.0,86.0,69.8,0.0,0.0,0.0,0.0,73.4,77.0,73.4,77.0,73.4,77.0,75.2,77.0,0.0,0.0,69.25999999999999,0.0,73.85000000000001,-12.149999999999991,-16.74000000000001,0.0,0.6746666666666667,0.0,395.6,True,2026-05-27 14:09:49-07:00
19.06,1,9,2026-05-27 21:10:05,37.08155,-121.59978,430.0,0.1,150.3,-12.6,0.0,,0.0,0.0,0.0,10.5,-0.9,8.8,0.0,390.0,0.0,-0.01,1.0,99.0,-148.0,30,0.0,29.89,2305.0,0.0,0.0,320,0.0,0.0,0.0,0.0,0,0,0.0,0.0,0.0,0.0,0.0,0.0,0.0,0.0,0.0,0.0,0.0,0.0,0.0,0.0,0.0,0.0,0.0,0.0,0.0,21.0,0.0,0.0,29.8,0.0,0.0,0.0,0.0,0.0,0.0,30.1,0.0,0.0,-0.4,15.8,13.1,0.0,0.0,0.0,0.0,23.0,25.0,23.0,25.0,23.0,25.0,24.0,25.0,0.0,0.0,6.0,254.3,0.0,0.0,1.0,4.998,0.0,0.0,0.653,0.876,0.0,20.7,0.0,0.0,0.0,,0.0,86.0,69.8,0.0,0.0,0.0,0.0,73.4,77.0,73.4,77.0,73.4,77.0,75.2,77.0,0.0,0.0,69.25999999999999,0.0,73.85000000000001,-12.149999999999991,-16.74000000000001,0.0,0.759,0.0,395.6,True,2026-05-27 14:09:49-07:00
20.06,1,9,2026-05-27 21:10:06,37.08155,-121.59978,433.0,0.0,150.3,-12.6,0.0,,0.0,0.0,0.0,10.5,-0.9,8.8,0.0,386.0,0.0,-0.01,1.0,99.0,-158.0,30,0.0,29.89,2305.0,0.0,0.0,320,0.0,0.0,0.0,0.0,0,0,0.0,0.0,0.0,0.0,0.0,0.0,0.0,0.0,0.0,0.0,0.0,0.0,0.0,0.0,0.0,0.0,0.0,0.0,0.0,21.0,0.0,0.0,29.8,0.0,0.0,0.0,0.0,0.0,0.0,30.1,0.0,0.0,-0.4,15.8,13.1,0.0,0.0,0.0,0.0,23.0,25.0,23.0,25.0,23.0,25.0,24.0,25.0,0.0,0.0,5.0,254.3,0.0,0.0,1.0,4.998,0.0,0.0,0.653,0.876,0.0,20.7,0.0,0.0,0.0,,0.0,86.0,69.8,0.0,0.0,0.0,0.0,73.4,77.0,73.4,77.0,73.4,77.0,75.2,77.0,0.0,0.0,69.25999999999999,0.0,73.85000000000001,-12.149999999999991,-16.74000000000001,0.0,0.8433333333333334,0.0,395.6,True,2026-05-27 14:09:49-07:00
21.06,1,9,2026-05-27 21:10:07,37.08155,-121.59978,437.0,0.0,150.3,-12.6,0.0,,0.0,0.0,0.0,10.5,-0.8,8.8,0.0,383.0,0.1,-0.01,1.0,99.0,-185.0,30,0.0,29.89,2302.0,0.0,0.0,320,0.0,0.0,0.0,0.0,0,0,0.0,0.0,0.0,0.0,0.0,0.0,0.0,0.0,0.0,0.0,0.0,0.0,0.0,0.0,0.0,0.0,0.0,0.0,0.0,21.0,0.0,0.0,29.8,0.0,0.0,0.0,0.0,0.0,0.0,30.1,0.0,0.0,-0.4,15.8,13.1,0.0,0.0,0.0,0.0,23.0,25.0,23.0,25.0,23.0,25.0,24.0,25.0,0.0,0.0,6.0,254.3,0.0,0.0,1.0,4.998,0.0,0.0,0.653,0.874,0.0,20.7,0.0,0.0,0.0,,0.0,86.0,69.8,0.0,0.0,0.0,0.0,73.4,77.0,73.4,77.0,73.4,77.0,75.2,77.0,0.0,0.0,69.25999999999999,0.0,73.85000000000001,-12.149999999999991,-16.74000000000001,0.0,0.8433333333333334,0.0,395.6,True,2026-05-27 14:09:49-07:00
22.06,1,9,2026-05-27 21:10:08,37.08155,-121.59979,440.0,0.1,150.3,-12.6,0.0,,0.0,0.0,0.0,10.5,-0.9,8.8,0.0,381.0,0.0,-0.02,1.0,99.0,-150.0,30,0.0,29.89,2300.0,0.0,0.0,320,0.0,0.0,0.0,0.0,0,0,0.0,0.0,0.0,0.0,0.0,0.0,0.0,0.0,0.0,0.0,0.0,0.0,0.0,0.0,0.0,0.0,0.0,0.0,0.0,21.0,0.0,0.0,29.8,0.0,0.0,0.0,0.0,0.0,0.0,30.1,0.0,0.0,-0.4,15.8,13.1,0.0,0.0,0.0,0.0,23.0,25.0,23.0,25.0,23.0,25.0,24.0,25.0,0.0,0.0,5.0,254.3,0.0,0.0,1.0,4.998,0.0,0.0,0.653,0.874,0.0,20.7,0.0,0.0,0.0,,0.0,86.0,69.8,0.0,0.0,0.0,0.0,73.4,77.0,73.4,77.0,73.4,77.0,75.2,77.0,0.0,0.0,69.25999999999999,0.0,73.85000000000001,-12.149999999999991,-16.74000000000001,0.0,0.9276666666666666,0.0,395.6,True,2026-05-27 14:09:49-07:00
23.06,1,9,2026-05-27 21:10:09,37.08155,-121.59979,443.0,0.0,150.3,-12.6,0.0,,0.0,0.0,0.0,10.5,-0.9,8.8,0.0,379.0,0.0,-0.01,1.0,99.0,-138.0,30,0.0,29.89,2300.0,0.0,0.0,320,0.0,0.0,0.0,0.0,0,0,0.0,0.0,0.0,0.0,0.0,0.0,0.0,0.0,0.0,0.0,0.0,0.0,0.0,0.0,0.0,0.0,0.0,0.0,0.0,21.0,0.0,0.0,29.8,0.0,0.0,0.0,0.0,0.0,0.0,30.1,0.0,0.0,-0.4,15.8,13.1,0.0,0.0,0.0,0.0,23.0,25.0,23.0,25.0,23.0,25.0,24.0,25.0,0.0,0.0,5.0,254.3,0.0,0.0,1.0,4.998,0.0,0.0,0.653,0.874,0.0,20.7,0.0,0.0,0.0,,0.0,86.0,69.8,0.0,0.0,0.0,0.0,73.4,77.0,73.4,77.0,73.4,77.0,75.2,77.0,0.0,0.0,69.25999999999999,0.0,73.85000000000001,-12.149999999999991,-16.74000000000001,0.0,1.012,0.0,395.6,True,2026-05-27 14:09:49-07:00
24.06,1,9,2026-05-27 21:10:10,37.08152,-121.59986,493.0,0.1,150.3,-12.6,0.0,,0.0,0.0,0.0,10.5,-0.9,8.8,0.0,378.0,0.0,-0.01,1.0,99.0,-107.0,30,0.0,29.89,2300.0,0.0,0.0,320,0.0,0.0,0.0,0.0,0,0,0.0,0.0,0.0,0.0,0.0,0.0,0.0,0.0,0.0,0.0,0.0,0.0,0.0,0.0,0.0,0.0,0.0,0.0,0.0,21.0,0.0,0.0,29.8,0.0,0.0,0.0,0.0,0.0,0.0,30.1,0.0,0.0,-0.4,15.8,13.1,0.0,0.0,0.0,0.0,23.0,25.0,23.0,25.0,23.0,25.0,24.0,25.0,0.0,0.0,6.0,254.3,0.0,0.0,1.0,4.998,0.0,0.0,0.653,0.873,0.0,20.7,0.0,0.0,0.0,,0.0,86.0,69.8,0.0,0.0,0.0,0.0,73.4,77.0,73.4,77.0,73.4,77.0,75.2,77.0,0.0,0.0,69.25999999999999,0.0,73.85000000000001,-12.149999999999991,-16.74000000000001,0.0,1.0963333333333334,0.0,395.6,True,2026-05-27 14:09:49-07:00
25.06,1,9,2026-05-27 21:10:11,37.08152,-121.59986,494.0,0.0,150.3,-12.6,0.0,,0.0,0.0,0.0,10.5,-0.9,8.7,0.0,377.0,0.1,-0.01,1.0,99.0,-90.0,30,0.0,29.89,2296.0,0.0,0.0,320,0.0,0.0,0.0,0.0,0,0,0.0,0.0,0.0,0.0,0.0,0.0,0.0,0.0,0.0,0.0,0.0,0.0,0.0,0.0,0.0,0.0,0.0,0.0,0.0,21.0,0.0,0.0,29.8,0.0,0.0,0.0,0.0,0.0,0.0,30.1,0.0,0.0,-0.3,15.8,13.1,0.0,0.0,0.0,0.0,23.0,25.0,23.0,25.0,23.0,25.0,24.0,25.0,0.0,0.0,5.0,254.3,0.0,0.0,1.0,4.998,0.0,0.0,0.653,0.873,0.0,20.7,0.0,0.0,0.0,,0.0,86.0,69.8,0.0,0.0,0.0,0.0,73.4,77.0,73.4,77.0,73.4,77.0,75.2,77.0,0.0,0.0,69.25999999999999,0.0,73.85000000000001,-12.149999999999991,-16.74000000000001,0.0,1.1806666666666668,0.0,395.6,True,2026-05-27 14:09:49-07:00
26.06,1,9,2026-05-27 21:10:12,37.08152,-121.59985,493.0,0.0,150.3,-12.6,0.0,,0.0,0.0,0.0,10.6,-0.9,8.8,0.0,376.0,0.1,-0.02,1.0,99.0,-88.0,30,0.0,29.89,2296.0,0.0,0.0,320,0.0,0.0,0.0,0.0,0,0,0.0,0.0,0.0,0.0,0.0,0.0,0.0,0.0,0.0,0.0,0.0,0.0,0.0,0.0,0.0,0.0,0.0,0.0,0.0,21.0,0.0,0.0,29.8,0.0,0.0,0.0,0.0,0.0,0.0,30.1,0.0,0.0,-0.4,15.8,13.1,0.0,0.0,0.0,0.0,23.0,25.0,23.0,25.0,23.0,25.0,24.0,25.0,0.0,0.0,5.0,254.3,0.0,0.0,1.0,4.998,0.0,0.0,0.653,0.873,0.0,20.7,0.0,0.0,0.0,,0.0,86.0,69.8,0.0,0.0,0.0,0.0,73.4,77.0,73.4,77.0,73.4,77.0,75.2,77.0,0.0,0.0,69.25999999999999,0.0,73.85000000000001,-12.149999999999991,-16.74000000000001,0.0,1.1806666666666668,0.0,395.6,True,2026-05-27 14:09:49-07:00
27.06,1,9,2026-05-27 21:10:13,37.08152,-121.59985,493.0,0.0,150.3,-12.6,0.0,,0.0,0.0,0.0,10.6,-0.9,8.7,0.0,376.0,0.1,-0.01,1.0,99.0,-78.0,30,0.0,29.89,2296.0,0.0,0.0,320,0.0,0.0,0.0,0.0,0,0,0.0,0.0,0.0,0.0,0.0,0.0,0.0,0.0,0.0,0.0,0.0,0.0,0.0,0.0,0.0,0.0,0.0,0.0,0.0,21.0,0.0,0.0,29.8,0.0,0.0,0.0,0.0,0.0,0.0,30.1,0.0,0.0,-0.4,15.8,13.1,0.0,0.0,0.0,0.0,23.0,25.0,23.0,25.0,23.0,25.0,24.0,25.0,0.0,0.0,5.0,254.3,0.0,0.0,1.0,4.998,0.0,0.0,0.654,0.873,0.0,20.7,0.0,0.0,0.0,,0.0,86.0,69.8,0.0,0.0,0.0,0.0,73.4,77.0,73.4,77.0,73.4,77.0,75.2,77.0,0.0,0.0,69.25999999999999,0.0,73.85000000000001,-12.149999999999991,-16.74000000000001,0.0,1.1806666666666668,0.0,395.6,True,2026-05-27 14:09:49-07:00
28.06,1,9,2026-05-27 21:10:14,37.08152,-121.59985,492.0,0.0,150.3,-12.6,0.0,,0.0,0.0,0.0,10.5,-0.9,8.7,0.0,373.0,0.0,-0.01,1.0,99.0,-88.0,30,0.0,29.89,2292.0,0.0,0.0,320,0.0,0.0,0.0,0.0,0,0,0.0,0.0,0.0,0.0,0.0,0.0,0.0,0.0,0.0,0.0,0.0,0.0,0.0,0.0,0.0,0.0,0.0,0.0,0.0,21.0,0.0,0.0,29.8,0.0,0.0,0.0,0.0,0.0,0.0,30.1,0.0,0.0,-0.4,15.8,13.1,0.0,0.0,0.0,0.0,23.0,25.0,23.0,25.0,23.0,25.0,24.0,25.0,0.0,0.0,5.0,254.3,0.0,0.0,1.0,4.998,0.0,0.0,0.654,0.872,0.0,20.7,0.0,0.0,0.0,,0.0,86.0,69.8,0.0,0.0,0.0,0.0,73.4,77.0,73.4,77.0,73.4,77.0,75.2,77.0,0.0,0.0,69.25999999999999,0.0,73.85000000000001,-12.149999999999991,-16.74000000000001,0.0,1.1806666666666668,0.0,395.6,True,2026-05-27 14:09:49-07:00
29.06,1,9,2026-05-27 21:10:15,37.08152,-121.59985,491.0,0.0,150.3,-12.6,0.0,,0.0,0.0,0.0,10.5,-0.9,8.7,0.0,372.0,0.0,-0.01,1.0,99.0,-71.0,31,0.0,29.89,2292.0,0.0,0.0,320,0.0,0.0,0.0,0.0,0,0,0.0,0.0,0.0,0.0,0.0,0.0,0.0,0.0,0.0,0.0,0.0,0.0,0.0,0.0,0.0,0.0,0.0,0.0,0.0,21.0,0.0,0.0,29.8,0.0,0.0,0.0,0.0,0.0,0.0,30.1,0.0,0.0,-0.3,15.8,13.1,0.0,0.0,0.0,0.0,23.0,25.0,23.0,25.0,23.0,25.0,24.0,25.0,0.0,0.0,5.0,254.3,0.0,0.0,1.0,4.998,0.0,0.0,0.653,0.87,0.0,20.7,0.0,0.0,0.0,,0.0,87.8,69.8,0.0,0.0,0.0,0.0,73.4,77.0,73.4,77.0,73.4,77.0,75.2,77.0,0.0,0.0,69.25999999999999,0.0,73.85000000000001,-13.949999999999989,-18.540000000000006,0.0,1.1806666666666668,0.0,395.6,True,2026-05-27 14:09:49-07:00
30.06,1,9,2026-05-27 21:10:16,37.08152,-121.59985,490.0,0.0,150.3,-12.6,0.0,,0.0,0.0,0.0,10.5,-0.9,8.8,0.0,372.0,0.1,-0.02,1.0,99.0,-15.0,31,0.0,29.89,2292.0,0.0,0.0,320,0.0,0.0,0.0,0.0,0,0,0.0,0.0,0.0,0.0,0.0,0.0,0.0,0.0,0.0,0.0,0.0,0.0,0.0,0.0,0.0,0.0,0.0,0.0,0.0,21.0,0.0,0.0,29.8,0.0,0.0,0.0,0.0,0.0,0.0,30.1,0.0,0.0,-0.3,15.8,13.1,0.0,0.0,0.0,0.0,23.0,25.0,23.0,25.0,23.0,25.0,24.0,25.0,0.0,0.0,5.0,254.3,0.0,0.0,1.0,4.998,0.0,0.0,0.653,0.87,0.0,20.7,0.0,0.0,0.0,,0.0,87.8,69.8,0.0,0.0,0.0,0.0,73.4,77.0,73.4,77.0,73.4,77.0,75.2,77.0,0.0,0.0,69.25999999999999,0.0,73.85000000000001,-13.949999999999989,-18.540000000000006,0.0,1.1806666666666668,0.0,395.6,True,2026-05-27 14:09:49-07:00
31.06,1,9,2026-05-27 21:10:17,37.08152,-121.59985,488.0,0.0,150.3,-12.6,0.0,,0.0,0.0,0.0,10.5,-0.9,8.8,0.0,372.0,0.1,-0.01,1.0,99.0,5.0,31,0.0,29.89,2299.0,0.0,0.0,320,0.0,0.0,0.0,0.0,0,0,0.0,0.0,0.0,0.0,0.0,0.0,0.0,0.0,0.0,0.0,0.0,0.0,0.0,0.0,0.0,0.0,0.0,0.0,0.0,21.0,0.0,0.0,29.8,0.0,0.0,0.0,0.0,0.0,0.0,30.1,0.0,0.0,-0.3,15.8,13.1,0.0,0.0,0.0,0.0,23.0,25.0,23.0,25.0,23.0,25.0,24.0,25.0,0.0,0.0,5.0,254.2,0.0,0.0,1.0,4.998,0.0,0.0,0.653,0.865,0.0,20.7,0.0,0.0,0.0,,0.0,87.8,69.8,0.0,0.0,0.0,0.0,73.4,77.0,73.4,77.0,73.4,77.0,75.2,77.0,0.0,0.0,69.25999999999999,0.0,73.85000000000001,-13.949999999999989,-18.540000000000006,0.0,1.1806666666666668,0.0,395.6,True,2026-05-27 14:09:49-07:00
32.06,1,9,2026-05-27 21:10:18,37.08152,-121.59985,487.0,0.1,150.3,-12.6,0.0,,0.0,0.0,0.0,10.5,-0.8,8.9,0.0,372.0,0.1,-0.01,1.0,99.0,14.0,31,0.0,29.89,2299.0,0.0,0.0,320,0.0,0.0,0.0,0.0,0,0,0.0,0.0,0.0,0.0,0.0,0.0,0.0,0.0,0.0,0.0,0.0,0.0,0.0,0.0,0.0,0.0,0.0,0.0,0.0,21.0,0.0,0.0,29.8,0.0,0.0,0.0,0.0,0.0,0.0,30.1,0.0,0.0,-0.3,15.8,13.1,0.0,0.0,0.0,0.0,23.0,25.0,23.0,25.0,23.0,25.0,24.0,25.0,0.0,0.0,5.0,254.2,0.0,0.0,1.0,4.998,0.0,0.0,0.653,0.863,0.0,20.7,0.0,0.0,0.0,,0.0,87.8,69.8,0.0,0.0,0.0,0.0,73.4,77.0,73.4,77.0,73.4,77.0,75.2,77.0,0.0,0.0,69.25999999999999,0.0,73.85000000000001,-13.949999999999989,-18.540000000000006,0.0,1.2650000000000003,0.0,395.6,True,2026-05-27 14:09:49-07:00
33.06,1,9,2026-05-27 21:10:19,37.08153,-121.59985,486.0,0.0,150.3,-12.6,0.0,,0.0,0.0,0.0,10.6,-0.8,8.8,0.0,372.0,0.1,-0.01,1.0,99.0,34.0,31,0.0,29.89,2299.0,0.0,0.0,320,0.0,0.0,0.0,0.0,0,0,0.0,0.0,0.0,0.0,0.0,0.0,0.0,0.0,0.0,0.0,0.0,0.0,0.0,0.0,0.0,0.0,0.0,0.0,0.0,21.0,0.0,0.0,29.8,0.0,0.0,0.0,0.0,0.0,0.0,30.1,0.0,0.0,-0.3,15.8,13.1,0.0,0.0,0.0,0.0,23.0,25.0,23.0,25.0,23.0,25.0,24.0,25.0,0.0,0.0,5.0,254.2,0.0,0.0,1.0,4.998,0.0,0.0,0.653,0.862,0.0,20.7,0.0,0.0,0.0,,0.0,87.8,69.8,0.0,0.0,0.0,0.0,73.4,77.0,73.4,77.0,73.4,77.0,75.2,77.0,0.0,0.0,69.25999999999999,0.0,73.85000000000001,-13.949999999999989,-18.540000000000006,0.0,1.3493333333333337,0.0,395.6,True,2026-05-27 14:09:49-07:00
34.06,1,9,2026-05-27 21:10:20,37.08153,-121.59985,484.0,0.1,150.3,-12.6,0.0,,0.0,0.0,0.0,10.6,-0.9,8.8,0.0,372.0,0.1,-0.02,1.0,99.0,32.0,31,0.0,29.89,2299.0,0.0,0.0,320,0.0,0.0,0.0,0.0,0,0,0.0,0.0,0.0,0.0,0.0,0.0,0.0,0.0,0.0,0.0,0.0,0.0,0.0,0.0,0.0,0.0,0.0,0.0,0.0,21.0,0.0,0.0,29.8,0.0,0.0,0.0,0.0,0.0,0.0,30.1,0.0,0.0,-0.3,15.8,13.1,0.0,0.0,0.0,0.0,23.0,25.0,23.0,25.0,23.0,25.0,24.0,25.0,0.0,0.0,5.0,254.2,0.0,0.0,1.0,4.998,0.0,0.0,0.653,0.863,0.0,20.7,0.0,0.0,0.0,,0.0,87.8,69.8,0.0,0.0,0.0,0.0,73.4,77.0,73.4,77.0,73.4,77.0,75.2,77.0,0.0,0.0,69.25999999999999,0.0,73.85000000000001,-13.949999999999989,-18.540000000000006,0.0,1.4336666666666669,0.0,395.6,True,2026-05-27 14:09:49-07:00
35.06,1,9,2026-05-27 21:10:21,37.08153,-121.59985,483.0,0.0,150.3,-12.6,0.0,,0.0,0.0,0.0,10.6,-0.9,8.8,0.0,372.0,0.1,-0.02,1.0,99.0,8.0,31,0.0,29.89,2299.0,0.0,0.0,320,0.0,0.0,0.0,0.0,0,0,0.0,0.0,0.0,0.0,0.0,0.0,0.0,0.0,0.0,0.0,0.0,0.0,0.0,0.0,0.0,0.0,0.0,0.0,0.0,21.0,0.0,0.0,29.8,0.0,0.0,0.0,0.0,0.0,0.0,30.1,0.0,0.0,-0.3,15.8,13.1,0.0,0.0,0.0,0.0,23.0,25.0,23.0,25.0,23.0,25.0,24.0,25.0,0.0,0.0,5.0,254.2,0.0,0.0,1.0,4.998,0.0,0.0,0.653,0.861,0.0,20.7,0.0,0.0,0.0,,0.0,87.8,69.8,0.0,0.0,0.0,0.0,73.4,77.0,73.4,77.0,73.4,77.0,75.2,77.0,0.0,0.0,69.25999999999999,0.0,73.85000000000001,-13.949999999999989,-18.540000000000006,0.0,1.5180000000000002,0.0,395.6,True,2026-05-27 14:09:49-07:00
36.06,1,9,2026-05-27 21:10:22,37.08155,-121.59985,482.0,0.0,150.3,-12.6,0.0,,0.0,0.0,0.0,10.6,-1.0,8.7,0.0,372.0,0.0,-0.02,1.0,99.0,-40.0,31,0.0,29.89,2299.0,0.0,0.0,320,0.0,0.0,0.0,0.0,0,0,0.0,0.0,0.0,0.0,0.0,0.0,0.0,0.0,0.0,0.0,0.0,0.0,0.0,0.0,0.0,0.0,0.0,0.0,0.0,21.0,0.0,0.0,29.8,0.0,0.0,0.0,0.0,0.0,0.0,30.1,0.0,0.0,-0.3,15.8,13.1,0.0,0.0,0.0,0.0,23.0,25.0,23.0,25.0,23.0,25.0,24.0,25.0,0.0,0.0,5.0,254.2,0.0,0.0,1.0,4.998,0.0,0.0,0.654,0.861,0.0,20.7,0.0,0.0,0.0,,0.0,87.8,69.8,0.0,0.0,0.0,0.0,73.4,77.0,73.4,77.0,73.4,77.0,75.2,77.0,0.0,0.0,69.25999999999999,0.0,73.85000000000001,-13.949999999999989,-18.540000000000006,0.0,1.5180000000000002,0.0,395.6,True,2026-05-27 14:09:49-07:00
37.06,1,9,2026-05-27 21:10:23,37.08154,-121.59985,479.0,0.0,150.3,-12.6,0.0,,0.0,0.0,0.0,10.6,-1.0,8.6,0.0,372.0,0.1,-0.01,1.0,99.0,-58.0,31,0.0,29.89,2299.0,0.0,0.0,320,0.0,0.0,0.0,0.0,0,0,0.0,0.0,0.0,0.0,0.0,0.0,0.0,0.0,0.0,0.0,0.0,0.0,0.0,0.0,0.0,0.0,0.0,0.0,0.0,21.0,0.0,0.0,29.8,0.0,0.0,0.0,0.0,0.0,0.0,30.1,0.0,0.0,-0.3,15.8,13.1,0.0,0.0,0.0,0.0,23.0,25.0,23.0,25.0,23.0,25.0,24.0,25.0,0.0,0.0,5.0,254.2,0.0,0.0,1.0,4.998,0.0,0.0,0.653,0.861,0.0,20.7,0.0,0.0,0.0,,0.0,87.8,69.8,0.0,0.0,0.0,0.0,73.4,77.0,73.4,77.0,73.4,77.0,75.2,77.0,0.0,0.0,69.25999999999999,0.0,73.85000000000001,-13.949999999999989,-18.540000000000006,0.0,1.5180000000000002,0.0,395.6,True,2026-05-27 14:09:49-07:00
38.06,1,9,2026-05-27 21:10:24,37.08154,-121.59985,478.0,0.0,150.3,-12.6,0.0,,0.0,0.0,0.0,10.7,-1.0,8.6,0.0,372.0,0.1,-0.02,1.0,99.0,-52.0,31,0.0,29.89,2300.0,0.0,0.0,320,0.0,0.0,0.0,0.0,0,0,0.0,0.0,0.0,0.0,0.0,0.0,0.0,0.0,0.0,0.0,0.0,0.0,0.0,0.0,0.0,0.0,0.0,0.0,0.0,21.0,0.0,0.0,29.8,0.0,0.0,0.0,0.0,0.0,0.0,30.1,0.0,0.0,-0.3,15.8,13.1,0.0,0.0,0.0,0.0,23.0,25.0,23.0,25.0,23.0,25.0,24.0,25.0,0.0,0.0,5.0,254.2,0.0,0.0,1.0,4.998,0.0,0.0,0.653,0.861,0.0,20.7,0.0,0.0,0.0,,0.0,87.8,69.8,0.0,0.0,0.0,0.0,73.4,77.0,73.4,77.0,73.4,77.0,75.2,77.0,0.0,0.0,69.25999999999999,0.0,73.85000000000001,-13.949999999999989,-18.540000000000006,0.0,1.5180000000000002,0.0,395.6,True,2026-05-27 14:09:49-07:00
39.06,1,9,2026-05-27 21:10:25,37.08154,-121.59985,478.0,0.1,150.3,-12.6,0.0,,0.0,0.0,0.0,10.6,-1.0,8.6,0.0,372.0,0.1,-0.01,1.0,99.0,-47.0,31,0.0,29.89,2300.0,0.0,0.0,320,0.0,0.0,0.0,0.0,0,0,0.0,0.0,0.0,0.0,0.0,0.0,0.0,0.0,0.0,0.0,0.0,0.0,0.0,0.0,0.0,0.0,0.0,0.0,0.0,21.0,0.0,0.0,29.8,0.0,0.0,0.0,0.0,0.0,0.0,30.1,0.0,0.0,-0.3,15.8,13.1,0.0,0.0,0.0,0.0,23.0,25.0,23.0,25.0,23.0,25.0,24.0,25.0,0.0,0.0,5.0,254.2,0.0,0.0,1.0,4.998,0.0,0.0,0.653,0.859,0.0,20.7,0.0,0.0,0.0,,0.0,87.8,69.8,0.0,0.0,0.0,0.0,73.4,77.0,73.4,77.0,73.4,77.0,75.2,77.0,0.0,0.0,69.25999999999999,0.0,73.85000000000001,-13.949999999999989,-18.540000000000006,0.0,1.6023333333333336,0.0,395.6,True,2026-05-27 14:09:49-07:00
40.06,1,9,2026-05-27 21:10:26,37.08153,-121.59984,479.0,0.0,150.3,-12.6,0.0,,0.0,0.0,0.0,10.6,-1.0,8.6,0.0,371.0,0.1,-0.02,1.0,99.0,-41.0,31,0.0,29.89,2300.0,0.0,0.0,320,0.0,0.0,0.0,0.0,0,0,0.0,0.0,0.0,0.0,0.0,0.0,0.0,0.0,0.0,0.0,0.0,0.0,0.0,0.0,0.0,0.0,0.0,0.0,0.0,21.0,0.0,0.0,29.8,0.0,0.0,0.0,0.0,0.0,0.0,30.1,0.0,0.0,-0.3,15.8,13.1,0.0,0.0,0.0,0.0,23.0,25.0,23.0,25.0,23.0,25.0,24.0,25.0,0.0,0.0,5.0,254.2,0.0,0.0,1.0,4.998,0.0,0.0,0.653,0.859,0.0,20.7,0.0,0.0,0.0,,0.0,87.8,69.8,0.0,0.0,0.0,0.0,73.4,77.0,73.4,77.0,73.4,77.0,75.2,77.0,0.0,0.0,69.25999999999999,0.0,73.85000000000001,-13.949999999999989,-18.540000000000006,0.0,1.686666666666667,0.0,395.6,True,2026-05-27 14:09:49-07:00
41.06,1,9,2026-05-27 21:10:27,37.08153,-121.59984,479.0,0.0,150.3,-12.6,0.0,,0.0,0.0,0.0,10.6,-0.9,8.6,0.0,368.0,0.1,-0.01,1.0,99.0,-98.0,31,0.0,29.89,2305.0,0.0,0.0,320,0.0,0.0,0.0,0.0,0,0,0.0,0.0,0.0,0.0,0.0,0.0,0.0,0.0,0.0,0.0,0.0,0.0,0.0,0.0,0.0,0.0,0.0,0.0,0.0,21.0,0.0,0.0,29.8,0.0,0.0,0.0,0.0,0.0,0.0,30.1,0.0,0.0,-0.3,15.8,13.1,0.0,0.0,0.0,0.0,23.0,25.0,23.0,25.0,23.0,25.0,24.0,25.0,0.0,0.0,5.0,254.2,0.0,0.0,1.0,4.998,0.0,0.0,0.653,0.861,0.0,20.7,0.0,0.0,0.0,,0.0,87.8,69.8,0.0,0.0,0.0,0.0,73.4,77.0,73.4,77.0,73.4,77.0,75.2,77.0,0.0,0.0,69.25999999999999,0.0,73.85000000000001,-13.949999999999989,-18.540000000000006,0.0,1.686666666666667,0.0,395.6,True,2026-05-27 14:09:49-07:00
42.06,1,9,2026-05-27 21:10:28,37.08153,-121.59984,478.0,0.0,150.3,-12.6,0.0,,0.0,0.0,0.0,10.6,-0.9,8.6,0.0,366.0,0.0,-0.01,1.0,99.0,-116.0,31,0.0,29.89,2305.0,0.0,0.0,320,0.0,0.0,0.0,0.0,0,0,0.0,0.0,0.0,0.0,0.0,0.0,0.0,0.0,0.0,0.0,0.0,0.0,0.0,0.0,0.0,0.0,0.0,0.0,0.0,21.0,0.0,0.0,29.8,0.0,0.0,0.0,0.0,0.0,0.0,30.1,0.0,0.0,-0.3,15.8,13.1,0.0,0.0,0.0,0.0,23.0,25.0,23.0,25.0,23.0,25.0,24.0,25.0,0.0,0.0,5.0,237.8,0.0,0.0,1.0,4.998,0.0,0.0,0.653,0.862,0.0,20.7,0.0,0.0,0.0,,0.0,87.8,69.8,0.0,0.0,0.0,0.0,73.4,77.0,73.4,77.0,73.4,77.0,75.2,77.0,0.0,0.0,69.25999999999999,0.0,73.85000000000001,-13.949999999999989,-18.540000000000006,0.0,1.686666666666667,0.0,395.6,True,2026-05-27 14:09:49-07:00
43.06,1,9,2026-05-27 21:10:29,37.08153,-121.59984,478.0,0.4,150.3,-12.6,0.0,,0.0,0.0,0.0,10.7,-1.0,8.7,0.0,364.0,0.1,-0.02,1.0,99.0,-121.0,31,0.0,29.89,2305.0,0.0,0.0,320,0.0,0.0,0.0,0.0,0,0,0.0,0.0,0.0,0.0,0.0,0.0,0.0,0.0,0.0,0.0,0.0,0.0,0.0,0.0,0.0,0.0,0.0,0.0,0.0,21.0,0.0,0.0,29.8,0.0,0.0,0.0,0.0,0.0,0.0,30.1,0.0,0.0,-0.3,15.8,13.1,0.0,0.0,0.0,0.0,23.0,25.0,23.0,25.0,23.0,25.0,24.0,25.0,0.0,0.0,5.0,185.1,0.0,0.0,1.0,4.998,0.0,0.0,0.653,0.864,0.0,20.7,0.0,0.0,0.0,,0.0,87.8,69.8,0.0,0.0,0.0,0.0,73.4,77.0,73.4,77.0,73.4,77.0,75.2,77.0,0.0,0.0,69.25999999999999,0.0,73.85000000000001,-13.949999999999989,-18.540000000000006,0.0,2.0240000000000005,0.0,395.6,True,2026-05-27 14:09:49-07:00
44.06,1,9,2026-05-27 21:10:30,37.08154,-121.59982,467.0,0.1,150.3,-12.6,0.0,,0.0,0.0,0.0,10.7,-0.9,8.7,0.0,363.0,0.1,-0.02,1.0,99.0,-111.0,31,0.0,29.89,2298.0,0.0,0.0,320,0.0,0.0,0.0,0.0,0,0,0.0,0.0,0.0,0.0,0.0,0.0,0.0,0.0,0.0,0.0,0.0,0.0,0.0,0.0,0.0,0.0,0.0,0.0,0.0,21.0,0.0,0.0,29.8,0.0,0.0,0.0,0.0,0.0,0.0,30.1,0.0,0.0,-0.3,15.8,13.1,0.0,0.0,0.0,0.0,23.0,25.0,23.0,25.0,23.0,25.0,24.0,25.0,0.0,0.0,5.0,144.1,0.0,0.0,1.0,4.998,0.0,0.0,0.653,0.875,0.0,20.7,0.0,0.0,0.0,,0.0,87.8,69.8,0.0,0.0,0.0,0.0,73.4,77.0,73.4,77.0,73.4,77.0,75.2,77.0,0.0,0.0,69.25999999999999,0.0,73.85000000000001,-13.949999999999989,-18.540000000000006,0.0,2.445666666666667,0.0,395.6,True,2026-05-27 14:09:49-07:00
45.06,1,9,2026-05-27 21:10:31,37.08154,-121.59982,466.0,0.0,150.3,-12.6,0.0,,0.0,0.0,0.0,10.7,-0.9,8.7,0.0,362.0,0.1,-0.02,1.0,99.0,-95.0,31,0.0,29.89,2298.0,0.0,0.0,320,0.0,0.0,0.0,0.0,0,0,0.0,0.0,0.0,0.0,0.0,0.0,0.0,0.0,0.0,0.0,0.0,0.0,0.0,0.0,0.0,0.0,0.0,0.0,0.0,21.0,0.0,0.0,29.8,0.0,0.0,0.0,0.0,0.0,0.0,30.1,0.0,0.0,-0.3,15.8,13.1,0.0,0.0,0.0,0.0,23.0,25.0,23.0,25.0,23.0,25.0,24.0,25.0,0.0,0.0,5.0,112.2,0.0,0.0,1.0,4.998,0.0,0.0,0.653,0.875,0.0,20.7,0.0,0.0,0.0,,0.0,87.8,69.8,0.0,0.0,0.0,0.0,73.4,77.0,73.4,77.0,73.4,77.0,75.2,77.0,0.0,0.0,69.25999999999999,0.0,73.85000000000001,-13.949999999999989,-18.540000000000006,0.0,2.5300000000000002,0.0,395.6,True,2026-05-27 14:09:49-07:00
46.06,1,9,2026-05-27 21:10:32,37.08154,-121.59982,466.0,0.0,150.3,-12.6,0.0,,0.0,0.0,0.0,10.7,-1.0,8.6,0.0,361.0,0.0,-0.02,1.0,99.0,-72.0,31,0.0,29.89,2298.0,0.0,0.0,320,0.0,0.0,0.0,0.0,0,0,0.0,0.0,0.0,0.0,0.0,0.0,0.0,0.0,0.0,0.0,0.0,0.0,0.0,0.0,0.0,0.0,0.0,0.0,0.0,21.0,0.0,0.0,29.8,0.0,0.0,0.0,0.0,0.0,0.0,30.1,0.0,0.0,-0.3,15.8,13.1,0.0,0.0,0.0,0.0,23.0,25.0,23.0,25.0,23.0,25.0,24.0,25.0,0.0,0.0,5.0,87.4,0.0,0.0,1.0,4.998,0.0,0.0,0.653,0.878,0.0,20.7,0.0,0.0,0.0,,0.0,87.8,69.8,0.0,0.0,0.0,0.0,73.4,77.0,73.4,77.0,73.4,77.0,75.2,77.0,0.0,0.0,69.25999999999999,0.0,73.85000000000001,-13.949999999999989,-18.540000000000006,0.0,2.5300000000000002,0.0,395.6,True,2026-05-27 14:09:49-07:00
47.06,1,9,2026-05-27 21:10:33,37.08154,-121.59982,465.0,0.1,150.3,-12.6,0.0,,0.0,0.0,0.0,10.6,-1.0,8.6,0.0,361.0,0.1,-0.02,1.0,99.0,-35.0,31,0.0,29.89,2296.0,0.0,0.0,320,0.0,0.0,0.0,0.0,0,0,0.0,0.0,0.0,0.0,0.0,0.0,0.0,0.0,0.0,0.0,0.0,0.0,0.0,0.0,0.0,0.0,0.0,0.0,0.0,21.0,0.0,0.0,29.8,0.0,0.0,0.0,0.0,0.0,0.0,30.1,0.0,0.0,-0.3,15.8,13.1,0.0,0.0,0.0,0.0,23.0,25.0,23.0,25.0,23.0,25.0,24.0,25.0,0.0,0.0,5.0,68.2,0.0,0.0,1.0,4.998,0.0,0.0,0.653,0.887,0.0,20.7,0.0,0.0,0.0,,0.0,87.8,69.8,0.0,0.0,0.0,0.0,73.4,77.0,73.4,77.0,73.4,77.0,75.2,77.0,0.0,0.0,69.25999999999999,0.0,73.85000000000001,-13.949999999999989,-18.540000000000006,0.0,2.6143333333333336,0.0,395.6,True,2026-05-27 14:09:49-07:00
48.06,1,9,2026-05-27 21:10:34,37.08154,-121.59982,464.0,0.0,150.3,-12.6,0.0,,0.0,0.0,0.0,10.6,-0.9,8.6,0.0,360.0,0.1,-0.01,1.0,99.0,-43.0,31,0.0,29.89,2297.0,0.0,0.0,320,0.0,0.0,0.0,0.0,0,0,0.0,0.0,0.0,0.0,0.0,0.0,0.0,0.0,0.0,0.0,0.0,0.0,0.0,0.0,0.0,0.0,0.0,0.0,0.0,21.0,0.0,0.0,29.8,0.0,0.0,0.0,0.0,0.0,0.0,30.1,0.0,0.0,-0.3,15.8,13.1,0.0,0.0,0.0,0.0,23.0,25.0,23.0,25.0,23.0,25.0,24.0,25.0,0.0,0.0,5.0,53.2,0.0,0.0,1.0,4.998,0.0,0.0,0.653,0.895,0.0,20.7,0.0,0.0,0.0,,0.0,87.8,69.8,0.0,0.0,0.0,0.0,73.4,77.0,73.4,77.0,73.4,77.0,75.2,77.0,0.0,0.0,69.25999999999999,0.0,73.85000000000001,-13.949999999999989,-18.540000000000006,0.0,2.698666666666667,0.0,395.6,True,2026-05-27 14:09:49-07:00
49.06,1,9,2026-05-27 21:10:35,37.08154,-121.59982,463.0,0.0,150.3,-12.6,0.0,,0.0,0.0,0.0,10.6,-1.0,8.6,0.0,359.0,0.0,-0.02,1.0,99.0,-52.0,31,0.0,29.89,2297.0,0.0,0.0,320,0.0,0.0,0.0,0.0,0,0,0.0,0.0,0.0,0.0,0.0,0.0,0.0,0.0,0.0,0.0,0.0,0.0,0.0,0.0,0.0,0.0,0.0,0.0,0.0,21.0,0.0,0.0,29.8,0.0,0.0,0.0,0.0,0.0,0.0,30.1,0.0,0.0,-0.3,15.8,13.1,0.0,0.0,0.0,0.0,23.0,25.0,23.0,25.0,23.0,25.0,24.0,25.0,0.0,0.0,5.0,41.6,0.0,0.0,1.0,4.998,0.0,0.0,0.653,0.894,0.0,20.7,0.0,0.0,0.0,,0.0,87.8,69.8,0.0,0.0,0.0,0.0,73.4,77.0,73.4,77.0,73.4,77.0,75.2,77.0,0.0,0.0,69.25999999999999,0.0,73.85000000000001,-13.949999999999989,-18.540000000000006,0.0,2.698666666666667,0.0,395.6,True,2026-05-27 14:09:49-07:00
50.06,1,9,2026-05-27 21:10:36,37.08154,-121.59982,462.0,0.0,150.3,-12.6,0.0,,0.0,0.0,0.0,10.7,-1.0,8.6,0.0,358.0,0.1,-0.02,1.0,99.0,-63.0,31,0.0,29.89,2297.0,0.0,0.0,320,0.0,0.0,0.0,0.0,0,0,0.0,0.0,0.0,0.0,0.0,0.0,0.0,0.0,0.0,0.0,0.0,0.0,0.0,0.0,0.0,0.0,0.0,0.0,0.0,21.0,0.0,0.0,29.8,0.0,0.0,0.0,0.0,0.0,0.0,30.1,0.0,0.0,-0.3,15.8,13.1,0.0,0.0,0.0,0.0,23.0,25.0,23.0,25.0,23.0,25.0,24.0,25.0,0.0,0.0,5.0,32.5,0.0,0.0,1.0,4.998,0.0,0.0,0.653,0.898,0.0,20.7,0.0,0.0,0.0,,0.0,87.8,69.8,0.0,0.0,0.0,0.0,73.4,77.0,73.4,77.0,73.4,77.0,75.2,77.0,0.0,0.0,69.25999999999999,0.0,73.85000000000001,-13.949999999999989,-18.540000000000006,0.0,2.698666666666667,0.0,395.6,True,2026-05-27 14:09:49-07:00
51.06,1,9,2026-05-27 21:10:37,37.08154,-121.59982,461.0,0.1,150.3,-12.6,0.0,,0.0,0.0,0.0,10.7,-0.9,8.7,0.0,358.0,0.1,-0.02,1.0,99.0,-29.0,31,0.0,29.89,2303.0,0.0,0.0,320,0.0,0.0,0.0,0.0,0,0,0.0,0.0,0.0,0.0,0.0,0.0,0.0,0.0,0.0,0.0,0.0,0.0,0.0,0.0,0.0,0.0,0.0,0.0,0.0,21.0,0.0,0.0,29.8,0.0,0.0,0.0,0.0,0.0,0.0,30.1,0.0,0.0,-0.3,15.8,13.1,0.0,0.0,0.0,0.0,23.0,25.0,23.0,25.0,23.0,25.0,24.0,25.0,0.0,0.0,5.0,25.5,0.0,0.0,1.0,4.998,0.0,0.0,0.653,0.894,0.0,20.7,0.0,0.0,0.0,,0.0,87.8,69.8,0.0,0.0,0.0,0.0,73.4,77.0,73.4,77.0,73.4,77.0,75.2,77.0,0.0,0.0,69.25999999999999,0.0,73.85000000000001,-13.949999999999989,-18.540000000000006,0.0,2.7830000000000004,0.0,395.6,True,2026-05-27 14:09:49-07:00
52.06,1,9,2026-05-27 21:10:38,37.08154,-121.59982,460.0,0.1,150.3,-12.6,0.0,,0.0,0.0,0.0,10.7,-0.9,8.7,0.0,358.0,0.1,-0.02,1.0,99.0,24.0,31,0.0,29.89,2303.0,0.0,0.0,320,0.0,0.0,0.0,0.0,0,0,0.0,0.0,0.0,0.0,0.0,0.0,0.0,0.0,0.0,0.0,0.0,0.0,0.0,0.0,0.0,0.0,0.0,0.0,0.0,21.0,0.0,0.0,29.8,0.0,0.0,0.0,0.0,0.0,0.0,30.1,0.0,0.0,-0.3,15.8,13.1,0.0,0.0,0.0,0.0,23.0,25.0,23.0,25.0,23.0,25.0,24.0,25.0,0.0,0.0,5.0,20.0,0.0,0.0,1.0,4.998,0.0,0.0,0.653,0.895,0.0,20.7,0.0,0.0,0.0,,0.0,87.8,69.8,0.0,0.0,0.0,0.0,73.4,77.0,73.4,77.0,73.4,77.0,75.2,77.0,0.0,0.0,69.25999999999999,0.0,73.85000000000001,-13.949999999999989,-18.540000000000006,0.0,2.951666666666667,0.0,395.6,True,2026-05-27 14:09:49-07:00
53.06,1,9,2026-05-27 21:10:39,37.08154,-121.59982,458.0,0.1,150.3,-12.6,0.0,,0.0,0.0,0.0,10.7,-1.0,8.6,0.0,358.0,0.0,-0.02,1.0,99.0,44.0,31,0.0,29.89,2303.0,0.0,0.0,320,0.0,0.0,0.0,0.0,0,0,0.0,0.0,0.0,0.0,0.0,0.0,0.0,0.0,0.0,0.0,0.0,0.0,0.0,0.0,0.0,0.0,0.0,0.0,0.0,21.0,0.0,0.0,29.8,0.0,0.0,0.0,0.0,0.0,0.0,30.1,0.0,0.0,-0.3,15.8,13.1,0.0,0.0,0.0,0.0,23.0,25.0,23.0,25.0,23.0,25.0,24.0,25.0,0.0,0.0,5.0,15.8,0.0,0.0,1.0,4.998,0.0,0.0,0.653,0.894,0.0,20.7,0.0,0.0,0.0,,0.0,87.8,69.8,0.0,0.0,0.0,0.0,73.4,77.0,73.4,77.0,73.4,77.0,75.2,77.0,0.0,0.0,69.25999999999999,0.0,73.85000000000001,-13.949999999999989,-18.540000000000006,0.0,3.1203333333333334,0.0,395.6,True,2026-05-27 14:09:49-07:00
54.06,1,9,2026-05-27 21:10:40,37.08154,-121.59982,457.0,0.0,150.3,-12.6,0.0,,0.0,0.0,0.0,10.7,-1.0,8.6,0.0,358.0,0.1,-0.02,1.0,99.0,48.0,31,0.0,29.86,2303.0,0.0,0.0,320,0.0,0.0,0.0,0.0,0,0,0.0,0.0,0.0,0.0,0.0,0.0,0.0,0.0,0.0,0.0,0.0,0.0,0.0,0.0,0.0,0.0,0.0,0.0,0.0,21.0,0.0,0.0,29.8,0.0,0.0,0.0,0.0,0.0,0.0,30.1,0.0,0.0,-0.3,15.8,13.1,0.0,0.0,0.0,0.0,23.0,25.0,23.0,25.0,23.0,25.0,24.0,25.0,0.0,0.0,5.0,12.5,0.0,0.0,1.0,4.998,0.0,0.0,0.653,0.894,0.0,20.7,0.0,0.0,0.0,,0.0,87.8,69.8,0.0,0.0,0.0,0.0,73.4,77.0,73.4,77.0,73.4,77.0,75.2,77.0,0.0,0.0,69.25999999999999,0.0,73.85000000000001,-13.949999999999989,-18.540000000000006,0.0,3.2046666666666668,0.0,395.6,True,2026-05-27 14:09:49-07:00
55.06,1,9,2026-05-27 21:10:41,37.08154,-121.59982,456.0,0.0,150.3,-12.6,0.0,,0.0,0.0,0.0,10.7,-1.0,8.6,0.0,358.0,0.1,-0.02,1.0,99.0,67.0,31,0.0,29.84,2303.0,0.0,0.0,320,0.0,0.0,0.0,0.0,0,0,0.0,0.0,0.0,0.0,0.0,0.0,0.0,0.0,0.0,0.0,0.0,0.0,0.0,0.0,0.0,0.0,0.0,0.0,0.0,21.0,0.0,0.0,29.8,0.0,0.0,0.0,0.0,0.0,0.0,30.1,0.0,0.0,-0.4,15.8,13.1,0.0,0.0,0.0,0.0,23.0,25.0,23.0,25.0,23.0,25.0,24.0,25.0,0.0,0.0,5.0,9.9,0.0,0.0,1.0,4.998,0.0,0.0,0.653,0.891,0.0,20.7,0.0,0.0,0.0,,0.0,87.8,69.8,0.0,0.0,0.0,0.0,73.4,77.0,73.4,77.0,73.4,77.0,75.2,77.0,0.0,0.0,69.25999999999999,0.0,73.85000000000001,-13.949999999999989,-18.540000000000006,0.0,3.2046666666666668,0.0,395.6,True,2026-05-27 14:09:49-07:00
56.06,1,9,2026-05-27 21:10:42,37.08154,-121.59982,454.0,0.1,150.3,-12.6,0.0,,0.0,0.0,0.0,10.7,-1.1,8.5,0.0,358.0,0.0,-0.02,1.0,99.0,78.0,31,0.0,29.84,2303.0,0.0,0.0,320,0.0,0.0,0.0,0.0,0,0,0.0,0.0,0.0,0.0,0.0,0.0,0.0,0.0,0.0,0.0,0.0,0.0,0.0,0.0,0.0,0.0,0.0,0.0,0.0,21.0,0.0,0.0,29.8,0.0,0.0,0.0,0.0,0.0,0.0,30.1,0.0,0.0,-0.4,15.8,13.1,0.0,0.0,0.0,0.0,23.0,25.0,23.0,25.0,23.0,25.0,24.0,25.0,0.0,0.0,5.0,7.9,0.0,0.0,1.0,4.998,0.0,0.0,0.653,0.898,0.0,20.7,0.0,0.0,0.0,,0.0,87.8,69.8,0.0,0.0,0.0,0.0,73.4,77.0,73.4,77.0,73.4,77.0,75.2,77.0,0.0,0.0,69.25999999999999,0.0,73.85000000000001,-13.949999999999989,-18.540000000000006,0.0,3.289,0.0,395.6,True,2026-05-27 14:09:49-07:00
57.06,1,9,2026-05-27 21:10:43,37.08154,-121.59982,462.0,0.0,150.3,-12.6,0.0,,0.0,0.0,0.0,10.7,-1.1,8.4,0.0,358.0,0.0,-0.02,1.0,99.0,62.0,31,0.0,29.84,2303.0,0.0,0.0,320,0.0,0.0,0.0,0.0,0,0,0.0,0.0,0.0,0.0,0.0,0.0,0.0,0.0,0.0,0.0,0.0,0.0,0.0,0.0,0.0,0.0,0.0,0.0,0.0,21.0,0.0,0.0,29.8,0.0,0.0,0.0,0.0,0.0,0.0,30.1,0.0,0.0,-0.4,15.8,13.1,0.0,0.0,0.0,0.0,23.0,25.0,23.0,25.0,23.0,25.0,24.0,25.0,0.0,0.0,5.0,6.4,0.0,0.0,1.0,4.998,0.0,0.0,0.653,0.895,0.0,20.7,0.0,0.0,0.0,,0.0,87.8,69.8,0.0,0.0,0.0,0.0,73.4,77.0,73.4,77.0,73.4,77.0,75.2,77.0,0.0,0.0,69.25999999999999,0.0,73.85000000000001,-13.949999999999989,-18.540000000000006,0.0,3.3733333333333335,0.0,395.6,True,2026-05-27 14:09:49-07:00
58.06,1,9,2026-05-27 21:10:44,37.08154,-121.59982,461.0,0.1,150.3,-12.6,0.0,,0.0,0.0,0.0,10.7,-1.1,8.4,0.0,358.0,0.0,-0.02,1.0,99.0,48.0,31,0.0,29.84,2303.0,0.0,0.0,320,0.0,0.0,0.0,0.0,0,0,0.0,0.0,0.0,0.0,0.0,0.0,0.0,0.0,0.0,0.0,0.0,0.0,0.0,0.0,0.0,0.0,0.0,0.0,0.0,21.0,0.0,0.0,29.8,0.0,0.0,0.0,0.0,0.0,0.0,30.1,0.0,0.0,-0.4,15.8,13.1,0.0,0.0,0.0,0.0,23.0,25.0,23.0,25.0,23.0,25.0,24.0,25.0,0.0,0.0,5.0,5.2,0.0,0.0,1.0,4.998,0.0,0.0,0.653,0.894,0.0,20.7,0.0,0.0,0.0,,0.0,87.8,69.8,0.0,0.0,0.0,0.0,73.4,77.0,73.4,77.0,73.4,77.0,75.2,77.0,0.0,0.0,69.25999999999999,0.0,73.85000000000001,-13.949999999999989,-18.540000000000006,0.0,3.457666666666667,0.0,395.6,True,2026-05-27 14:09:49-07:00
59.06,1,9,2026-05-27 21:10:45,37.08154,-121.59982,459.0,0.0,150.3,-12.6,0.0,,0.0,0.0,0.0,10.7,-1.1,8.3,0.0,358.0,0.0,-0.02,1.0,99.0,37.0,31,0.0,29.84,2303.0,0.0,0.0,320,0.0,0.0,0.0,0.0,0,0,0.0,0.0,0.0,0.0,0.0,0.0,0.0,0.0,0.0,0.0,0.0,0.0,0.0,0.0,0.0,0.0,0.0,0.0,0.0,21.0,0.0,0.0,29.8,0.0,0.0,0.0,0.0,0.0,0.0,30.1,0.0,0.0,-0.4,15.8,13.1,0.0,0.0,0.0,0.0,23.0,25.0,23.0,25.0,23.0,25.0,24.0,25.0,0.0,0.0,5.0,4.2,0.0,0.0,1.0,4.998,0.0,0.0,0.654,0.894,0.0,20.7,0.0,0.0,0.0,,0.0,87.8,69.8,0.0,0.0,0.0,0.0,73.4,77.0,73.4,77.0,73.4,77.0,75.2,77.0,0.0,0.0,69.25999999999999,0.0,73.85000000000001,-13.949999999999989,-18.540000000000006,0.0,3.5420000000000003,0.0,395.6,True,2026-05-27 14:09:49-07:00
60.06,1,9,2026-05-27 21:10:46,37.08154,-121.59982,458.0,0.0,150.3,-12.6,0.0,,0.0,0.0,0.0,10.8,-1.2,8.3,0.0,358.0,0.0,-0.02,1.0,99.0,2.0,31,0.0,29.84,2304.0,0.0,0.0,320,0.0,0.0,0.0,0.0,0,0,0.0,0.0,0.0,0.0,0.0,0.0,0.0,0.0,0.0,0.0,0.0,0.0,0.0,0.0,0.0,0.0,0.0,0.0,0.0,21.0,0.0,0.0,29.8,0.0,0.0,0.0,0.0,0.0,0.0,30.1,0.0,0.0,-0.4,15.8,13.1,0.0,0.0,0.0,0.0,23.0,25.0,23.0,25.0,23.0,25.0,24.0,25.0,0.0,0.0,5.0,3.5,0.0,0.0,1.0,4.998,0.0,0.0,0.653,0.894,0.0,20.7,0.0,0.0,0.0,,0.0,87.8,69.8,0.0,0.0,0.0,0.0,73.4,77.0,73.4,77.0,73.4,77.0,75.2,77.0,0.0,0.0,69.25999999999999,0.0,73.85000000000001,-13.949999999999989,-18.540000000000006,0.0,3.5420000000000003,0.0,395.6,True,2026-05-27 14:09:49-07:00
61.06,1,9,2026-05-27 21:10:47,37.08154,-121.59982,456.0,0.1,150.3,-12.6,0.0,,0.0,0.0,0.0,10.8,-1.1,8.3,0.0,358.0,0.0,-0.02,1.0,99.0,8.0,31,0.0,29.84,2304.0,0.0,0.0,320,0.0,0.0,0.0,0.0,0,0,0.0,0.0,0.0,0.0,0.0,0.0,0.0,0.0,0.0,0.0,0.0,0.0,0.0,0.0,0.0,0.0,0.0,0.0,0.0,21.0,0.0,0.0,29.8,0.0,0.0,0.0,0.0,0.0,0.0,30.1,0.0,0.0,-0.4,15.8,13.1,0.0,0.0,0.0,0.0,23.0,25.0,23.0,25.0,23.0,25.0,24.0,25.0,0.0,0.0,5.0,2.9,0.0,0.0,1.0,4.998,0.0,0.0,0.653,0.895,0.0,20.7,0.0,0.0,0.0,,0.0,87.8,69.8,0.0,0.0,0.0,0.0,73.4,77.0,73.4,77.0,73.4,77.0,75.2,77.0,0.0,0.0,69.25999999999999,0.0,73.85000000000001,-13.949999999999989,-18.540000000000006,0.0,3.6263333333333336,0.0,395.6,True,2026-05-27 14:09:49-07:00
62.06,1,9,2026-05-27 21:10:48,37.08154,-121.59981,455.0,0.1,150.3,-12.6,0.0,,0.0,0.0,0.0,10.8,-1.0,8.3,0.0,358.0,0.1,-0.02,1.0,99.0,-28.0,31,0.0,29.84,2304.0,0.0,0.0,320,0.0,0.0,0.0,0.0,0,0,0.0,0.0,0.0,0.0,0.0,0.0,0.0,0.0,0.0,0.0,0.0,0.0,0.0,0.0,0.0,0.0,0.0,0.0,0.0,21.0,0.0,0.0,29.8,0.0,0.0,0.0,0.0,0.0,0.0,30.1,0.0,0.0,-0.4,15.8,13.1,0.0,0.0,0.0,0.0,23.0,25.0,23.0,25.0,23.0,25.0,24.0,25.0,0.0,0.0,5.0,2.5,0.0,0.0,1.0,4.998,0.0,0.0,0.653,0.895,0.0,20.7,0.0,0.0,0.0,,0.0,87.8,69.8,0.0,0.0,0.0,0.0,73.4,77.0,73.4,77.0,73.4,77.0,75.2,77.0,0.0,0.0,69.25999999999999,0.0,73.85000000000001,-13.949999999999989,-18.540000000000006,0.0,3.7950000000000004,0.0,395.6,True,2026-05-27 14:09:49-07:00
63.06,1,9,2026-05-27 21:10:49,37.08157,-121.59973,392.0,0.1,150.3,-12.6,0.0,,0.0,0.0,0.0,10.8,-1.1,8.4,0.0,358.0,0.1,-0.02,1.0,99.0,-28.0,31,0.0,29.84,2314.0,0.0,0.0,320,0.0,0.0,0.0,0.0,0,0,0.0,0.0,0.0,0.0,0.0,0.0,0.0,0.0,0.0,0.0,0.0,0.0,0.0,0.0,0.0,0.0,0.0,0.0,0.0,21.0,0.0,0.0,29.8,0.0,0.0,0.0,0.0,0.0,0.0,30.1,0.0,0.0,-0.4,15.8,13.1,0.0,0.0,0.0,0.0,23.0,25.0,23.0,25.0,23.0,25.0,24.0,25.0,0.0,0.0,5.0,2.2,0.0,0.0,1.0,4.998,0.0,0.0,0.653,0.896,0.0,20.7,0.0,0.0,0.0,,0.0,87.8,69.8,0.0,0.0,0.0,0.0,73.4,77.0,73.4,77.0,73.4,77.0,75.2,77.0,0.0,0.0,69.25999999999999,0.0,73.85000000000001,-13.949999999999989,-18.540000000000006,0.0,3.9636666666666667,0.0,395.6,True,2026-05-27 14:09:49-07:00
64.06,1,9,2026-05-27 21:10:50,37.08156,-121.59973,392.0,0.1,150.3,-12.6,0.0,,0.0,0.0,0.0,10.8,-1.0,8.4,0.0,358.0,0.1,-0.02,1.0,99.0,-34.0,31,0.0,29.84,2313.0,0.0,0.0,320,0.0,0.0,0.0,0.0,0,0,0.0,0.0,0.0,0.0,0.0,0.0,0.0,0.0,0.0,0.0,0.0,0.0,0.0,0.0,0.0,0.0,0.0,0.0,0.0,21.0,0.0,0.0,29.8,0.0,0.0,0.0,0.0,0.0,0.0,30.1,0.0,0.0,-0.4,15.8,13.1,0.0,0.0,0.0,0.0,23.0,25.0,23.0,25.0,23.0,25.0,24.0,25.0,0.0,0.0,5.0,1.9,0.0,0.0,1.0,4.998,0.0,0.0,0.653,0.896,0.0,20.7,0.0,0.0,0.0,,0.0,87.8,69.8,0.0,0.0,0.0,0.0,73.4,77.0,73.4,77.0,73.4,77.0,75.2,77.0,0.0,0.0,69.25999999999999,0.0,73.85000000000001,-13.949999999999989,-18.540000000000006,0.0,4.132333333333333,0.0,395.6,True,2026-05-27 14:09:49-07:00
65.06,1,9,2026-05-27 21:10:51,37.08156,-121.59973,392.0,0.0,150.3,-12.6,0.0,,0.0,0.0,0.0,10.8,-1.1,8.4,0.0,358.0,0.1,-0.02,1.0,99.0,-71.0,31,0.0,29.84,2313.0,0.0,0.0,320,0.0,0.0,0.0,0.0,0,0,0.0,0.0,0.0,0.0,0.0,0.0,0.0,0.0,0.0,0.0,0.0,0.0,0.0,0.0,0.0,0.0,0.0,0.0,0.0,21.0,0.0,0.0,29.8,0.0,0.0,0.0,0.0,0.0,0.0,30.1,0.0,0.0,-0.4,15.8,13.1,0.0,0.0,0.0,0.0,23.0,25.0,23.0,25.0,23.0,25.0,24.0,25.0,0.0,0.0,5.0,1.7,0.0,0.0,1.0,4.998,0.0,0.0,0.654,0.898,0.0,20.7,0.0,0.0,0.0,,0.0,87.8,69.8,0.0,0.0,0.0,0.0,73.4,77.0,73.4,77.0,73.4,77.0,75.2,77.0,0.0,0.0,69.25999999999999,0.0,73.85000000000001,-13.949999999999989,-18.540000000000006,0.0,4.216666666666667,0.0,395.6,True,2026-05-27 14:09:49-07:00
66.06,1,9,2026-05-27 21:10:52,37.08156,-121.59973,391.0,0.0,150.3,-12.6,0.0,,0.0,0.0,0.0,10.8,-1.0,8.4,0.0,358.0,0.1,-0.02,1.0,99.0,-93.0,31,0.0,29.84,2313.0,0.0,0.0,320,0.0,0.0,0.0,0.0,0,0,0.0,0.0,0.0,0.0,0.0,0.0,0.0,0.0,0.0,0.0,0.0,0.0,0.0,0.0,0.0,0.0,0.0,0.0,0.0,21.0,0.0,0.0,29.8,0.0,0.0,0.0,0.0,0.0,0.0,30.1,0.0,0.0,-0.3,15.8,13.1,0.0,0.0,0.0,0.0,23.0,25.0,23.0,25.0,23.0,25.0,24.0,25.0,0.0,0.0,5.0,1.6,0.0,0.0,1.0,4.998,0.0,0.0,0.653,0.898,0.0,20.7,0.0,0.0,0.0,,0.0,87.8,69.8,0.0,0.0,0.0,0.0,73.4,77.0,73.4,77.0,73.4,77.0,75.2,77.0,0.0,0.0,69.25999999999999,0.0,73.85000000000001,-13.949999999999989,-18.540000000000006,0.0,4.216666666666667,0.0,395.6,True,2026-05-27 14:09:49-07:00
67.06,1,9,2026-05-27 21:10:53,37.08156,-121.59973,391.0,0.0,150.3,-12.6,0.0,,0.0,0.0,0.0,10.8,-1.1,8.4,0.0,358.0,0.1,-0.02,1.0,99.0,-111.0,31,0.0,29.84,2314.0,0.0,0.0,320,0.0,0.0,0.0,0.0,0,0,0.0,0.0,0.0,0.0,0.0,0.0,0.0,0.0,0.0,0.0,0.0,0.0,0.0,0.0,0.0,0.0,0.0,0.0,0.0,21.0,0.0,0.0,29.8,0.0,0.0,0.0,0.0,0.0,0.0,30.1,0.0,0.0,-0.3,15.8,13.1,0.0,0.0,0.0,0.0,23.0,25.0,23.0,25.0,23.0,25.0,24.0,25.0,0.0,0.0,5.0,1.4,0.0,0.0,1.0,4.998,0.0,0.0,0.653,0.898,0.0,20.7,0.0,0.0,0.0,,0.0,87.8,69.8,0.0,0.0,0.0,0.0,73.4,77.0,73.4,77.0,73.4,77.0,75.2,77.0,0.0,0.0,69.25999999999999,0.0,73.85000000000001,-13.949999999999989,-18.540000000000006,0.0,4.216666666666667,0.0,395.6,True,2026-05-27 14:09:49-07:00
68.06,1,9,2026-05-27 21:10:54,37.08156,-121.59972,391.0,0.1,150.3,-12.6,0.0,,0.0,0.0,0.0,10.8,-1.0,8.4,0.0,358.0,0.0,-0.02,1.0,99.0,-96.0,31,0.0,29.84,2314.0,0.0,0.0,320,0.0,0.0,0.0,0.0,0,0,0.0,0.0,0.0,0.0,0.0,0.0,0.0,0.0,0.0,0.0,0.0,0.0,0.0,0.0,0.0,0.0,0.0,0.0,0.0,21.0,0.0,0.0,29.8,0.0,0.0,0.0,0.0,0.0,0.0,30.1,0.0,0.0,-0.3,15.8,13.1,0.0,0.0,0.0,0.0,23.0,25.0,23.0,25.0,23.0,25.0,24.0,25.0,0.0,0.0,5.0,1.3,0.0,0.0,1.0,4.998,0.0,0.0,0.653,0.9,0.0,20.7,0.0,0.0,0.0,,0.0,87.8,69.8,0.0,0.0,0.0,0.0,73.4,77.0,73.4,77.0,73.4,77.0,75.2,77.0,0.0,0.0,69.25999999999999,0.0,73.85000000000001,-13.949999999999989,-18.540000000000006,0.0,4.301,0.0,395.6,True,2026-05-27 14:09:49-07:00
69.06,1,9,2026-05-27 21:10:55,37.08156,-121.59972,391.0,0.1,150.3,-12.6,0.0,,0.0,0.0,0.0,10.8,-1.0,8.4,0.0,357.0,0.1,-0.01,1.0,99.0,-68.0,31,0.0,29.84,2314.0,0.0,0.0,320,0.0,0.0,0.0,0.0,0,0,0.0,0.0,0.0,0.0,0.0,0.0,0.0,0.0,0.0,0.0,0.0,0.0,0.0,0.0,0.0,0.0,0.0,0.0,0.0,21.0,0.0,0.0,29.8,0.0,0.0,0.0,0.0,0.0,0.0,30.1,0.0,0.0,-0.3,15.8,13.1,0.0,0.0,0.0,0.0,23.0,25.0,23.0,25.0,23.0,25.0,24.0,25.0,0.0,0.0,5.0,1.2,0.0,0.0,1.0,4.998,0.0,0.0,0.653,0.901,0.0,20.7,0.0,0.0,0.0,,0.0,87.8,69.8,0.0,0.0,0.0,0.0,73.4,77.0,73.4,77.0,73.4,77.0,75.2,77.0,0.0,0.0,69.25999999999999,0.0,73.85000000000001,-13.949999999999989,-18.540000000000006,0.0,4.469666666666667,0.0,395.6,True,2026-05-27 14:09:49-07:00
70.06,1,9,2026-05-27 21:10:56,37.08156,-121.59972,391.0,0.1,150.3,-12.6,0.0,,0.0,0.0,0.0,10.8,-1.1,8.4,0.0,357.0,0.1,-0.01,1.0,99.0,-25.0,31,0.0,29.84,2312.0,0.0,0.0,320,0.0,0.0,0.0,0.0,0,0,0.0,0.0,0.0,0.0,0.0,0.0,0.0,0.0,0.0,0.0,0.0,0.0,0.0,0.0,0.0,0.0,0.0,0.0,0.0,21.0,0.0,0.0,29.8,0.0,0.0,0.0,0.0,0.0,0.0,30.1,0.0,0.0,-0.3,15.8,13.1,0.0,0.0,0.0,0.0,23.0,25.0,23.0,25.0,23.0,25.0,24.0,25.0,0.0,0.0,5.0,1.2,0.0,0.0,1.0,4.998,0.0,0.0,0.653,0.901,0.0,20.7,0.0,0.0,0.0,,0.0,87.8,69.8,0.0,0.0,0.0,0.0,73.4,77.0,73.4,77.0,73.4,77.0,75.2,77.0,0.0,0.0,69.25999999999999,0.0,73.85000000000001,-13.949999999999989,-18.540000000000006,0.0,4.638333333333334,0.0,395.6,True,2026-05-27 14:09:49-07:00
71.06,1,9,2026-05-27 21:10:57,37.08156,-121.59972,391.0,0.1,150.3,-12.6,0.0,,0.0,0.0,0.0,10.8,-1.1,8.3,0.0,357.0,0.1,-0.01,1.0,99.0,14.0,31,0.0,29.84,2312.0,0.0,0.0,320,0.0,0.0,0.0,0.0,0,0,0.0,0.0,0.0,0.0,0.0,0.0,0.0,0.0,0.0,0.0,0.0,0.0,0.0,0.0,0.0,0.0,0.0,0.0,0.0,21.0,0.0,0.0,29.8,0.0,0.0,0.0,0.0,0.0,0.0,30.1,0.0,0.0,-0.3,15.8,13.1,0.0,0.0,0.0,0.0,23.0,25.0,23.0,25.0,23.0,25.0,24.0,25.0,0.0,0.0,5.0,1.1,0.0,0.0,1.0,4.998,0.0,0.0,0.654,0.901,0.0,20.7,0.0,0.0,0.0,,0.0,87.8,69.8,0.0,0.0,0.0,0.0,73.4,77.0,73.4,77.0,73.4,77.0,75.2,77.0,0.0,0.0,69.25999999999999,0.0,73.85000000000001,-13.949999999999989,-18.540000000000006,0.0,4.807,0.0,395.6,True,2026-05-27 14:09:49-07:00
72.06,1,9,2026-05-27 21:10:58,37.08156,-121.59972,390.0,0.0,150.3,-12.6,0.0,,0.0,0.0,0.0,10.8,-1.1,8.4,0.0,357.0,0.1,-0.02,1.0,99.0,35.0,31,0.0,29.84,2312.0,0.0,0.0,320,0.0,0.0,0.0,0.0,0,0,0.0,0.0,0.0,0.0,0.0,0.0,0.0,0.0,0.0,0.0,0.0,0.0,0.0,0.0,0.0,0.0,0.0,0.0,0.0,21.0,0.0,0.0,29.8,0.0,0.0,0.0,0.0,0.0,0.0,30.1,0.0,0.0,-0.3,15.8,13.1,0.0,0.0,0.0,0.0,23.0,25.0,23.0,25.0,24.0,25.0,24.0,25.0,0.0,0.0,5.0,1.1,0.0,0.0,1.0,4.998,0.0,0.0,0.653,0.901,0.0,20.7,0.0,0.0,0.0,,0.0,87.8,69.8,0.0,0.0,0.0,0.0,73.4,77.0,73.4,77.0,75.2,77.0,75.2,77.0,0.0,0.0,69.25999999999999,0.0,74.30000000000001,-13.499999999999986,-18.540000000000006,0.0,4.891333333333334,0.0,395.6,True,2026-05-27 14:09:49-07:00
73.06,1,9,2026-05-27 21:10:59,37.08155,-121.59972,390.0,0.0,150.3,-12.6,0.0,,0.0,0.0,0.0,10.8,-1.0,8.5,0.0,357.0,0.1,-0.02,1.0,99.0,70.0,31,0.0,29.84,2312.0,0.0,0.0,320,0.0,0.0,0.0,0.0,0,0,0.0,0.0,0.0,0.0,0.0,0.0,0.0,0.0,0.0,0.0,0.0,0.0,0.0,0.0,0.0,0.0,0.0,0.0,0.0,21.0,0.0,0.0,29.8,0.0,0.0,0.0,0.0,0.0,0.0,30.1,0.0,0.0,-0.3,15.8,13.1,0.0,0.0,0.0,0.0,23.0,25.0,23.0,25.0,24.0,25.0,24.0,25.0,0.0,0.0,5.0,1.1,0.0,0.0,1.0,4.998,0.0,0.0,0.653,0.9,0.0,20.7,0.0,0.0,0.0,,0.0,87.8,69.8,0.0,0.0,0.0,0.0,73.4,77.0,73.4,77.0,75.2,77.0,75.2,77.0,0.0,0.0,69.25999999999999,0.0,74.30000000000001,-13.499999999999986,-18.540000000000006,0.0,4.891333333333334,0.0,395.6,True,2026-05-27 14:09:49-07:00
74.06,1,9,2026-05-27 21:11:00,37.08155,-121.59972,390.0,0.1,150.3,-12.6,0.0,,0.0,0.0,0.0,10.8,-1.0,8.5,0.0,357.0,0.1,-0.02,1.0,99.0,66.0,31,0.0,29.84,2312.0,0.0,0.0,320,0.0,0.0,0.0,0.0,0,0,0.0,0.0,0.0,0.0,0.0,0.0,0.0,0.0,0.0,0.0,0.0,0.0,0.0,0.0,0.0,0.0,0.0,0.0,0.0,21.0,0.0,0.0,29.8,0.0,0.0,0.0,0.0,0.0,0.0,30.1,0.0,0.0,-0.3,15.8,13.1,0.0,0.0,0.0,0.0,23.0,25.0,23.0,25.0,24.0,25.0,24.0,25.0,0.0,0.0,5.0,1.0,0.0,0.0,1.0,4.998,0.0,0.0,0.653,0.898,0.0,20.7,0.0,0.0,0.0,,0.0,87.8,69.8,0.0,0.0,0.0,0.0,73.4,77.0,73.4,77.0,75.2,77.0,75.2,77.0,0.0,0.0,69.25999999999999,0.0,74.30000000000001,-13.499999999999986,-18.540000000000006,0.0,4.975666666666667,0.0,395.6,True,2026-05-27 14:09:49-07:00
75.06,1,9,2026-05-27 21:11:01,37.08155,-121.59972,389.0,0.0,150.3,-12.6,0.0,,0.0,0.0,0.0,10.8,-0.9,8.6,0.0,357.0,0.1,-0.02,1.0,99.0,28.0,31,0.0,29.84,2312.0,0.0,0.0,320,0.0,0.0,0.0,0.0,0,0,0.0,0.0,0.0,0.0,0.0,0.0,0.0,0.0,0.0,0.0,0.0,0.0,0.0,0.0,0.0,0.0,0.0,0.0,0.0,21.0,0.0,0.0,29.8,0.0,0.0,0.0,0.0,0.0,0.0,30.1,0.0,0.0,-0.3,15.8,13.1,0.0,0.0,0.0,0.0,23.0,25.0,23.0,25.0,24.0,25.0,24.0,25.0,0.0,0.0,5.0,1.0,0.0,0.0,1.0,4.998,0.0,0.0,0.653,0.901,0.0,20.7,0.0,0.0,0.0,,0.0,87.8,69.8,0.0,0.0,0.0,0.0,73.4,77.0,73.4,77.0,75.2,77.0,75.2,77.0,0.0,0.0,69.25999999999999,0.0,74.30000000000001,-13.499999999999986,-18.540000000000006,0.0,5.0600000000000005,0.0,395.6,True,2026-05-27 14:09:49-07:00
76.06,1,9,2026-05-27 21:11:02,37.08155,-121.59972,389.0,0.0,150.3,-12.6,0.0,,0.0,0.0,0.0,10.8,-1.0,8.5,0.0,357.0,0.1,-0.02,1.0,99.0,-19.0,31,0.0,29.84,2312.0,0.0,0.0,320,0.0,0.0,0.0,0.0,0,0,0.0,0.0,0.0,0.0,0.0,0.0,0.0,0.0,0.0,0.0,0.0,0.0,0.0,0.0,0.0,0.0,0.0,0.0,0.0,21.0,0.0,0.0,29.8,0.0,0.0,0.0,0.0,0.0,0.0,30.1,0.0,0.0,-0.3,15.8,13.1,0.0,0.0,0.0,0.0,23.0,25.0,23.0,25.0,23.0,25.0,24.0,25.0,0.0,0.0,5.0,1.0,0.0,0.0,1.0,4.998,0.0,0.0,0.653,0.902,0.0,20.7,0.0,0.0,0.0,,0.0,87.8,69.8,0.0,0.0,0.0,0.0,73.4,77.0,73.4,77.0,73.4,77.0,75.2,77.0,0.0,0.0,69.25999999999999,0.0,73.85000000000001,-13.949999999999989,-18.540000000000006,0.0,5.0600000000000005,0.0,395.6,True,2026-05-27 14:09:49-07:00
77.06,1,9,2026-05-27 21:11:03,37.08155,-121.59972,388.0,0.0,150.3,-12.6,0.0,,0.0,0.0,0.0,10.8,-1.0,8.5,0.0,357.0,0.1,-0.02,1.0,99.0,-15.0,31,0.0,29.84,2312.0,0.0,0.0,320,0.0,0.0,0.0,0.0,0,0,0.0,0.0,0.0,0.0,0.0,0.0,0.0,0.0,0.0,0.0,0.0,0.0,0.0,0.0,0.0,0.0,0.0,0.0,0.0,21.0,0.0,0.0,29.8,0.0,0.0,0.0,0.0,0.0,0.0,30.1,0.0,0.0,-0.3,15.8,13.1,0.0,0.0,0.0,0.0,23.0,25.0,23.0,25.0,23.0,25.0,24.0,25.0,0.0,0.0,5.0,1.0,0.0,0.0,1.0,4.998,0.0,0.0,0.653,0.902,0.0,20.7,0.0,0.0,0.0,,0.0,87.8,69.8,0.0,0.0,0.0,0.0,73.4,77.0,73.4,77.0,73.4,77.0,75.2,77.0,0.0,0.0,69.25999999999999,0.0,73.85000000000001,-13.949999999999989,-18.540000000000006,0.0,5.0600000000000005,0.0,395.6,True,2026-05-27 14:09:49-07:00
78.06,1,9,2026-05-27 21:11:04,37.08155,-121.59972,388.0,0.1,150.3,-12.6,0.0,,0.0,0.0,0.0,10.8,-1.0,8.5,0.0,357.0,0.1,-0.02,1.0,99.0,13.0,31,0.0,29.84,2313.0,0.0,0.0,320,0.0,0.0,0.0,0.0,0,0,0.0,0.0,0.0,0.0,0.0,0.0,0.0,0.0,0.0,0.0,0.0,0.0,0.0,0.0,0.0,0.0,0.0,0.0,0.0,21.0,0.0,0.0,29.8,0.0,0.0,0.0,0.0,0.0,0.0,30.1,0.0,0.0,-0.3,15.8,13.1,0.0,0.0,0.0,0.0,23.0,25.0,23.0,25.0,23.0,25.0,24.0,25.0,0.0,0.0,5.0,1.0,0.0,0.0,1.0,4.998,0.0,0.0,0.653,0.902,0.0,20.7,0.0,0.0,0.0,,0.0,87.8,69.8,0.0,0.0,0.0,0.0,73.4,77.0,73.4,77.0,73.4,77.0,75.2,77.0,0.0,0.0,69.25999999999999,0.0,73.85000000000001,-13.949999999999989,-18.540000000000006,0.0,5.144333333333334,0.0,395.6,True,2026-05-27 14:09:49-07:00
79.06,1,9,2026-05-27 21:11:05,37.08155,-121.59972,387.0,0.0,150.3,-12.6,0.0,,0.0,0.0,0.0,10.8,-0.9,8.6,0.0,357.0,0.1,-0.01,1.0,99.0,48.0,31,0.0,29.84,2313.0,0.0,0.0,320,0.0,0.0,0.0,0.0,0,0,0.0,0.0,0.0,0.0,0.0,0.0,0.0,0.0,0.0,0.0,0.0,0.0,0.0,0.0,0.0,0.0,0.0,0.0,0.0,21.0,0.0,0.0,29.8,0.0,0.0,0.0,0.0,0.0,0.0,30.1,0.0,0.0,-0.3,15.8,13.1,0.0,0.0,0.0,0.0,23.0,25.0,23.0,25.0,23.0,25.0,24.0,26.0,0.0,0.0,5.0,1.0,0.0,0.0,1.0,4.998,0.0,0.0,0.653,0.902,0.0,20.7,0.0,0.0,0.0,,0.0,87.8,69.8,0.0,0.0,0.0,0.0,73.4,77.0,73.4,77.0,73.4,77.0,75.2,78.8,0.0,0.0,69.25999999999999,0.0,73.85000000000001,-13.949999999999989,-18.540000000000006,0.0,5.228666666666667,0.0,395.6,True,2026-05-27 14:09:49-07:00
80.06,1,9,2026-05-27 21:11:06,37.08155,-121.59972,387.0,0.1,150.3,-12.6,0.0,,0.0,0.0,0.0,10.8,-0.9,8.6,0.0,357.0,0.1,-0.02,1.0,99.0,78.0,31,0.0,29.84,2313.0,0.0,0.0,320,0.0,0.0,0.0,0.0,0,0,0.0,0.0,0.0,0.0,0.0,0.0,0.0,0.0,0.0,0.0,0.0,0.0,0.0,0.0,0.0,0.0,0.0,0.0,0.0,21.0,0.0,0.0,29.8,0.0,0.0,0.0,0.0,0.0,0.0,30.1,0.0,0.0,-0.3,15.8,13.1,0.0,0.0,0.0,0.0,23.0,25.0,23.0,25.0,23.0,25.0,24.0,26.0,0.0,0.0,5.0,1.0,0.0,0.0,1.0,4.998,0.0,0.0,0.653,0.902,0.0,20.7,0.0,0.0,0.0,,0.0,87.8,69.8,0.0,0.0,0.0,0.0,73.4,77.0,73.4,77.0,73.4,77.0,75.2,78.8,0.0,0.0,69.25999999999999,0.0,73.85000000000001,-13.949999999999989,-18.540000000000006,0.0,5.313,0.0,395.6,True,2026-05-27 14:09:49-07:00
81.06,1,9,2026-05-27 21:11:07,37.08155,-121.59972,387.0,0.0,150.3,-12.6,0.0,,0.0,0.0,0.0,10.8,-0.9,8.7,0.0,358.0,0.1,-0.02,1.0,99.0,87.0,31,0.0,29.84,2314.0,0.0,0.0,320,0.0,0.0,0.0,0.0,0,0,0.0,0.0,0.0,0.0,0.0,0.0,0.0,0.0,0.0,0.0,0.0,0.0,0.0,0.0,0.0,0.0,0.0,0.0,0.0,21.0,0.0,0.0,29.8,0.0,0.0,0.0,0.0,0.0,0.0,30.1,0.0,0.0,-0.3,15.8,13.1,0.0,0.0,0.0,0.0,23.0,25.0,23.0,25.0,23.0,25.0,24.0,26.0,0.0,0.0,5.0,1.0,0.0,0.0,1.0,4.998,0.0,0.0,0.654,0.903,0.0,20.7,0.0,0.0,0.0,,0.0,87.8,69.8,0.0,0.0,0.0,0.0,73.4,77.0,73.4,77.0,73.4,77.0,75.2,78.8,0.0,0.0,69.25999999999999,0.0,73.85000000000001,-13.949999999999989,-18.540000000000006,0.0,5.397333333333333,0.0,395.6,True,2026-05-27 14:09:49-07:00
82.06,1,9,2026-05-27 21:11:08,37.08155,-121.59972,386.0,0.1,150.3,-12.6,0.0,,0.0,0.0,0.0,10.8,-0.9,8.6,0.0,359.0,0.1,-0.02,1.0,99.0,89.0,31,0.0,29.84,2316.0,0.0,0.0,320,0.0,0.0,0.0,0.0,0,0,0.0,0.0,0.0,0.0,0.0,0.0,0.0,0.0,0.0,0.0,0.0,0.0,0.0,0.0,0.0,0.0,0.0,0.0,0.0,21.0,0.0,0.0,29.8,0.0,0.0,0.0,0.0,0.0,0.0,30.1,0.0,0.0,-0.3,15.8,13.1,0.0,0.0,0.0,0.0,23.0,25.0,23.0,25.0,23.0,25.0,24.0,26.0,0.0,0.0,5.0,1.0,0.0,0.0,1.0,4.998,0.0,0.0,0.653,0.906,0.0,20.7,0.0,0.0,0.0,,0.0,87.8,69.8,0.0,0.0,0.0,0.0,73.4,77.0,73.4,77.0,73.4,77.0,75.2,78.8,0.0,0.0,69.25999999999999,0.0,73.85000000000001,-13.949999999999989,-18.540000000000006,0.0,5.4816666666666665,0.0,395.6,True,2026-05-27 14:09:49-07:00
83.06,1,9,2026-05-27 21:11:09,37.08155,-121.59972,386.0,0.1,150.3,-12.6,0.0,,0.0,0.0,0.0,10.7,-0.9,8.6,0.0,360.0,0.1,-0.01,1.0,99.0,82.0,31,0.0,29.84,2317.0,0.0,0.0,320,0.0,0.0,0.0,0.0,0,0,0.0,0.0,0.0,0.0,0.0,0.0,0.0,0.0,0.0,0.0,0.0,0.0,0.0,0.0,0.0,0.0,0.0,0.0,0.0,21.0,0.0,0.0,29.8,0.0,0.0,0.0,0.0,0.0,0.0,30.1,0.0,0.0,-0.3,15.8,13.1,0.0,0.0,0.0,0.0,23.0,25.0,23.0,25.0,23.0,25.0,24.0,26.0,0.0,0.0,5.0,1.0,0.0,0.0,1.0,4.998,0.0,0.0,0.654,0.907,0.0,20.7,0.0,0.0,0.0,,0.0,87.8,69.8,0.0,0.0,0.0,0.0,73.4,77.0,73.4,77.0,73.4,77.0,75.2,78.8,0.0,0.0,69.25999999999999,0.0,73.85000000000001,-13.949999999999989,-18.540000000000006,0.0,5.650333333333333,0.0,395.6,True,2026-05-27 14:09:49-07:00
84.06,1,9,2026-05-27 21:11:10,37.08155,-121.59972,386.0,0.0,150.3,-12.6,0.0,,0.0,0.0,0.0,10.7,-1.0,8.6,0.0,361.0,0.1,-0.02,1.0,99.0,59.0,31,0.0,29.84,2318.0,0.0,0.0,320,0.0,0.0,0.0,0.0,0,0,0.0,0.0,0.0,0.0,0.0,0.0,0.0,0.0,0.0,0.0,0.0,0.0,0.0,0.0,0.0,0.0,0.0,0.0,0.0,21.0,0.0,0.0,29.8,0.0,0.0,0.0,0.0,0.0,0.0,30.1,0.0,0.0,-0.3,15.8,13.1,0.0,0.0,0.0,0.0,23.0,25.0,23.0,25.0,23.0,25.0,24.0,26.0,0.0,0.0,5.0,1.0,0.0,0.0,1.0,4.998,0.0,0.0,0.653,0.911,0.0,20.7,0.0,0.0,0.0,,0.0,87.8,69.8,0.0,0.0,0.0,0.0,73.4,77.0,73.4,77.0,73.4,77.0,75.2,78.8,0.0,0.0,69.25999999999999,0.0,73.85000000000001,-13.949999999999989,-18.540000000000006,0.0,5.734666666666667,0.0,395.6,True,2026-05-27 14:09:49-07:00
85.06,1,9,2026-05-27 21:11:11,37.08155,-121.59972,385.0,0.0,150.3,-12.6,0.0,,0.0,0.0,0.0,10.7,-0.9,8.5,0.0,362.0,0.0,-0.01,1.0,99.0,52.0,31,0.0,29.84,2319.0,0.0,0.0,320,0.0,0.0,0.0,0.0,0,0,0.0,0.0,0.0,0.0,0.0,0.0,0.0,0.0,0.0,0.0,0.0,0.0,0.0,0.0,0.0,0.0,0.0,0.0,0.0,21.0,0.0,0.0,29.8,0.0,0.0,0.0,0.0,0.0,0.0,30.1,0.0,0.0,-0.3,15.8,13.1,0.0,0.0,0.0,0.0,23.0,25.0,23.0,25.0,23.0,25.0,24.0,26.0,0.0,0.0,5.0,1.0,0.0,0.0,1.0,4.998,0.0,0.0,0.653,0.913,0.0,20.7,0.0,0.0,0.0,,0.0,87.8,69.8,0.0,0.0,0.0,0.0,73.4,77.0,73.4,77.0,73.4,77.0,75.2,78.8,0.0,0.0,69.25999999999999,0.0,73.85000000000001,-13.949999999999989,-18.540000000000006,0.0,5.734666666666667,0.0,395.6,True,2026-05-27 14:09:49-07:00
86.06,1,9,2026-05-27 21:11:12,37.08155,-121.59972,385.0,0.3,150.3,-12.6,0.0,,0.0,0.0,0.0,10.7,-1.0,8.5,0.0,363.0,0.0,-0.02,1.0,99.0,55.0,31,0.0,29.84,2320.0,0.0,0.0,320,0.0,0.0,0.0,0.0,0,0,0.0,0.0,0.0,0.0,0.0,0.0,0.0,0.0,0.0,0.0,0.0,0.0,0.0,0.0,0.0,0.0,0.0,0.0,0.0,21.0,0.0,0.0,29.8,0.0,0.0,0.0,0.0,0.0,0.0,30.1,0.0,0.0,-0.3,15.8,13.1,0.0,0.0,0.0,0.0,23.0,25.0,23.0,25.0,23.0,25.0,24.0,26.0,0.0,0.0,5.0,1.0,0.0,0.0,1.0,4.998,0.0,0.0,0.654,0.918,0.0,20.7,0.0,0.0,0.0,,0.0,87.8,69.8,0.0,0.0,0.0,0.0,73.4,77.0,73.4,77.0,73.4,77.0,75.2,78.8,0.0,0.0,69.25999999999999,0.0,73.85000000000001,-13.949999999999989,-18.540000000000006,0.0,5.987666666666667,0.0,395.6,True,2026-05-27 14:09:49-07:00
