Session Time,GPS Fix Quality,Number of Satellites,GPS Date & Time,Latitude (deg),Longitude (deg),GPS Altitude (feet),Ground Speed (knots),Ground Track (deg),Mag Var (deg),Cross Track Error (NM),Destination Waypoint ID,Range to Destination (NM),Bearing to Destination (deg),System Time,Pitch (deg),Roll (deg),Magnetic Heading (deg),Indicated Airspeed (knots),Pressure Altitude (ft),Turn Rate (deg/s),Lateral Accel (g),Vertical Accel(g),Angle of Attack (%),Vertical Speed (ft/min),OAT (deg C),True Airspeed (knots),Barometer Setting (inHg),Density Altitude (ft),Wind Direction (deg),Wind Speed (knots),Heading Bug (deg),Altitude Bug (ft),Airspeed Bug (knots),Vertical Speed Bug (ft/min),Course (deg),CDI Source Type,CDI Source Port,CDI Scale (NM),CDI Deflection (%),Glideslope (%),AP Engaged,AP Roll Mode,AP Roll Force,AP Roll Position (steps),AP Roll Slip (bool),AP Pitch Force,AP Pitch Position (steps),AP Pitch Slip (bool),AP Yaw Force,AP Yaw Position,AP Yaw Slip (bool),Transponder Status,Transponder Reply (bool),Transponder Identing (bool),Transponder Code (octal),Oil Pressure (PSI),Oil Temp (deg C),RPM L,RPM R,Manifold Pressure (inHg),Fuel Flow 1 (gal/hr),Fuel Flow 2 (gal/hr),Total Fuel Flow (gal/hr),Fuel Pressure (PSI),Fuel Level L (gal),Fuel Level R (gal),Fuel Remaining (gal),Volts 1,Volts 2,Amps,Hobbs Time,Tach Time,Thermocouple 1 (deg C),Thermocouple 2 (deg C),Thermocouple 3 (deg C),Thermocouple 4 (deg C),CHT 4 (deg C),EGT 4 (deg C),CHT 3 (deg C),EGT 3 (deg C),CHT 2 (deg C),EGT 2 (deg C),CHT 1 (deg C),EGT 1 (deg C),Thermocouple 13 (deg C),Thermocouple 14 (deg C),ELEV POSITION (%),CO PPM PRESSURE (PSI),GP Input 3,FUEL PRESSURE (PSI),AILERN POSITION (%),CANOPY CONTACT (V),GP Input 7,GP Input 8,LEFT LEVEL (Sensor V),RIGHT LEVEL (Sensor V),OIL PRESSURE (PSI),OIL TEMPERATURE (deg C),GP Input 13,Contacts,Percent Power,EGT Leaning State,Unnamed: 103,OAT (deg F),Oil Temp (deg F),Thermocouple 1 (deg F),Thermocouple 2 (deg F),Thermocouple 3 (deg F),Thermocouple 4 (deg F),CHT 4 (deg F),EGT 4 (deg F),CHT 3 (deg F),EGT 3 (deg F),CHT 2 (deg F),EGT 2 (deg F),CHT 1 (deg F),EGT 1 (deg F),Thermocouple 13 (deg F),Thermocouple 14 (deg F),OIL TEMPERATURE (deg F),RPM,AVG_CHT,CHT_Delta_T,OIL_Delta_T,Fuel Flow Integral,Distance Traveled,MPG,Max CHT,Engine Run,Flight ID
7.06,1,7,2026-05-29 16:50:03,37.08212,-121.60009,1019.0,0.0,319.8,-12.6,0.0,,0.0,0.0,0.0,10.7,-0.9,6.4,0.0,171.0,0.1,-0.01,1.0,99.0,-167.0,21.0,0.0,29.79,955.0,0.0,0.0,132.0,0.0,0.0,0.0,0.0,0.0,0.0,0.0,0.0,0.0,0.0,0.0,0.0,0.0,0.0,0.0,0.0,0.0,0.0,0.0,0.0,0.0,0.0,0.0,0.0,0.0,16.0,0.0,0.0,30.1,0.0,0.0,0.0,0.0,0.0,0.0,18.0,0.0,0.0,-0.6,17.2,14.3,0.0,0.0,0.0,0.0,16.0,17.0,17.0,18.0,17.0,17.0,17.0,18.0,0.0,0.0,-19.0,254.5,0.0,0.0,-8.0,0.0,0.0,0.0,1.525,1.411,0.0,16.0,0.0,0.0,0.0,,0.0,69.8,60.8,0.0,0.0,0.0,0.0,60.8,62.6,62.6,64.4,62.6,62.6,62.6,64.4,0.0,0.0,60.8,0.0,62.150000000000006,-7.6499999999999915,-9.0,0.0,0.0,0.0,386.6,True,2026-05-29 09:50:03-07:00
8.06,1,9,2026-05-29 16:50:04,37.08157,-121.59962,349.0,0.0,319.8,-12.6,0.0,,0.0,0.0,0.0,10.7,-0.9,6.4,0.0,169.0,0.1,-0.02,1.0,99.0,-148.0,21.0,0.0,29.79,953.0,0.0,0.0,132.0,0.0,0.0,0.0,0.0,0.0,0.0,0.0,0.0,0.0,0.0,0.0,0.0,0.0,0.0,0.0,0.0,0.0,0.0,0.0,0.0,0.0,0.0,0.0,0.0,0.0,16.0,0.0,0.0,30.1,0.0,0.0,0.0,0.0,0.0,0.0,18.0,0.0,0.0,-0.6,17.2,14.3,0.0,0.0,0.0,0.0,16.0,17.0,17.0,18.0,17.0,17.0,17.0,18.0,0.0,0.0,-19.0,254.5,0.0,0.0,-8.0,0.0,0.0,0.0,1.525,1.411,0.0,16.0,0.0,0.0,0.0,,0.0,69.8,60.8,0.0,0.0,0.0,0.0,60.8,62.6,62.6,64.4,62.6,62.6,62.6,64.4,0.0,0.0,60.8,0.0,62.150000000000006,-7.6499999999999915,-9.0,0.0,0.0,0.0,386.6,True,2026-05-29 09:50:03-07:00
9.06,1,9,2026-05-29 16:50:05,37.08157,-121.59962,348.0,0.0,319.8,-12.6,0.0,,0.0,0.0,0.0,10.7,-0.9,6.5,0.0,168.0,0.1,-0.01,1.0,99.0,-113.0,21.0,0.0,29.79,952.0,0.0,0.0,132.0,0.0,0.0,0.0,0.0,0.0,0.0,0.0,0.0,0.0,0.0,0.0,0.0,0.0,0.0,0.0,0.0,0.0,0.0,0.0,0.0,0.0,0.0,0.0,0.0,0.0,16.0,0.0,0.0,30.1,0.0,0.0,0.0,0.0,0.0,0.0,18.0,0.0,0.0,-0.6,17.2,14.3,0.0,0.0,0.0,0.0,16.0,17.0,17.0,18.0,17.0,17.0,17.0,18.0,0.0,0.0,-19.0,254.5,0.0,0.0,-8.0,0.0,0.0,0.0,1.526,1.411,0.0,15.9,0.0,0.0,0.0,,0.0,69.8,60.8,0.0,0.0,0.0,0.0,60.8,62.6,62.6,64.4,62.6,62.6,62.6,64.4,0.0,0.0,60.62,0.0,62.150000000000006,-7.6499999999999915,-9.18,0.0,0.0,0.0,386.6,True,2026-05-29 09:50:03-07:00
10.06,1,9,2026-05-29 16:50:06,37.08158,-121.59962,348.0,0.0,319.8,-12.6,0.0,,0.0,0.0,0.0,10.7,-0.9,6.5,0.0,167.0,0.1,-0.02,1.0,99.0,-92.0,21.0,0.0,29.79,950.0,0.0,0.0,132.0,0.0,0.0,0.0,0.0,0.0,0.0,0.0,0.0,0.0,0.0,0.0,0.0,0.0,0.0,0.0,0.0,0.0,0.0,0.0,0.0,0.0,0.0,0.0,0.0,0.0,16.0,0.0,0.0,30.1,0.0,0.0,0.0,0.0,0.0,0.0,18.0,0.0,0.0,-0.6,17.2,14.3,0.0,0.0,0.0,0.0,16.0,17.0,17.0,18.0,17.0,17.0,17.0,18.0,0.0,0.0,-19.0,254.5,0.0,0.0,-8.0,0.0,0.0,0.0,1.525,1.412,0.0,15.9,0.0,0.0,0.0,,0.0,69.8,60.8,0.0,0.0,0.0,0.0,60.8,62.6,62.6,64.4,62.6,62.6,62.6,64.4,0.0,0.0,60.62,0.0,62.150000000000006,-7.6499999999999915,-9.18,0.0,0.0,0.0,386.6,True,2026-05-29 09:50:03-07:00
11.06,1,9,2026-05-29 16:50:07,37.08158,-121.59962,347.0,0.0,319.8,-12.6,0.0,,0.0,0.0,0.0,10.6,-0.9,6.5,0.0,167.0,0.1,-0.01,1.0,99.0,-56.0,21.0,0.0,29.79,950.0,0.0,0.0,132.0,0.0,0.0,0.0,0.0,0.0,0.0,0.0,0.0,0.0,0.0,0.0,0.0,0.0,0.0,0.0,0.0,0.0,0.0,0.0,0.0,0.0,0.0,0.0,0.0,0.0,16.0,0.0,0.0,30.1,0.0,0.0,0.0,0.0,0.0,0.0,18.0,0.0,0.0,-0.6,17.2,14.3,0.0,0.0,0.0,0.0,16.0,17.0,17.0,18.0,17.0,17.0,17.0,18.0,0.0,0.0,-19.0,254.5,0.0,0.0,-8.0,0.0,0.0,0.0,1.525,1.412,0.0,15.9,0.0,0.0,0.0,,0.0,69.8,60.8,0.0,0.0,0.0,0.0,60.8,62.6,62.6,64.4,62.6,62.6,62.6,64.4,0.0,0.0,60.62,0.0,62.150000000000006,-7.6499999999999915,-9.18,0.0,0.0,0.0,386.6,True,2026-05-29 09:50:03-07:00
12.06,1,9,2026-05-29 16:50:08,37.08158,-121.59962,345.0,0.0,319.8,-12.6,0.0,,0.0,0.0,0.0,10.7,-0.9,6.5,0.0,167.0,0.1,-0.01,1.0,99.0,-18.0,21.0,0.0,29.79,950.0,0.0,0.0,132.0,0.0,0.0,0.0,0.0,0.0,0.0,0.0,0.0,0.0,0.0,0.0,0.0,0.0,0.0,0.0,0.0,0.0,0.0,0.0,0.0,0.0,0.0,0.0,0.0,0.0,16.0,0.0,0.0,30.1,0.0,0.0,0.0,0.0,0.0,0.0,18.0,0.0,0.0,-0.6,17.2,14.3,0.0,0.0,0.0,0.0,17.0,18.0,17.0,18.0,17.0,18.0,17.0,18.0,0.0,0.0,-19.0,254.5,0.0,0.0,-8.0,0.0,0.0,0.0,1.525,1.412,0.0,15.9,0.0,0.0,0.0,,0.0,69.8,60.8,0.0,0.0,0.0,0.0,62.6,64.4,62.6,64.4,62.6,64.4,62.6,64.4,0.0,0.0,60.62,0.0,62.6,-7.199999999999996,-9.18,0.0,0.0,0.0,386.6,True,2026-05-29 09:50:03-07:00
13.06,1,9,2026-05-29 16:50:09,37.08158,-121.59962,344.0,0.0,319.8,-12.6,0.0,,0.0,0.0,0.0,10.7,-0.9,6.6,0.0,167.0,0.1,-0.01,1.0,99.0,-38.0,21.0,0.0,29.79,951.0,0.0,0.0,132.0,0.0,0.0,0.0,0.0,0.0,0.0,0.0,0.0,0.0,0.0,0.0,0.0,0.0,0.0,0.0,0.0,0.0,0.0,0.0,0.0,0.0,0.0,0.0,0.0,0.0,16.0,0.0,0.0,30.1,0.0,0.0,0.0,0.0,0.0,0.0,18.0,0.0,0.0,-0.6,17.2,14.3,0.0,0.0,0.0,0.0,16.0,17.0,17.0,18.0,17.0,17.0,17.0,18.0,0.0,0.0,-19.0,254.5,0.0,0.0,-8.0,0.0,0.0,0.0,1.526,1.412,0.0,15.9,0.0,0.0,0.0,,0.0,69.8,60.8,0.0,0.0,0.0,0.0,60.8,62.6,62.6,64.4,62.6,62.6,62.6,64.4,0.0,0.0,60.62,0.0,62.150000000000006,-7.6499999999999915,-9.18,0.0,0.0,0.0,386.6,True,2026-05-29 09:50:03-07:00
14.06,1,9,2026-05-29 16:50:10,37.08158,-121.59962,342.0,0.0,319.8,-12.6,0.0,,0.0,0.0,0.0,10.7,-0.9,6.6,0.0,166.0,0.2,-0.01,1.0,99.0,-31.0,21.0,0.0,29.79,949.0,0.0,0.0,132.0,0.0,0.0,0.0,0.0,0.0,0.0,0.0,0.0,0.0,0.0,0.0,0.0,0.0,0.0,0.0,0.0,0.0,0.0,0.0,0.0,0.0,0.0,0.0,0.0,0.0,16.0,0.0,0.0,30.1,0.0,0.0,0.0,0.0,0.0,0.0,18.0,0.0,0.0,-0.6,17.2,14.3,0.0,0.0,0.0,0.0,17.0,18.0,17.0,18.0,17.0,18.0,17.0,18.0,0.0,0.0,-20.0,254.5,0.0,0.0,-8.0,0.0,0.0,0.0,1.525,1.412,0.0,15.9,0.0,0.0,0.0,,0.0,69.8,60.8,0.0,0.0,0.0,0.0,62.6,64.4,62.6,64.4,62.6,64.4,62.6,64.4,0.0,0.0,60.62,0.0,62.6,-7.199999999999996,-9.18,0.0,0.0,0.0,386.6,True,2026-05-29 09:50:03-07:00
15.06,1,9,2026-05-29 16:50:11,37.08159,-121.59962,340.0,0.0,319.8,-12.6,0.0,,0.0,0.0,0.0,10.6,-0.9,6.6,0.0,163.0,0.1,-0.01,1.0,99.0,-87.0,21.0,0.0,29.79,949.0,0.0,0.0,132.0,0.0,0.0,0.0,0.0,0.0,0.0,0.0,0.0,0.0,0.0,0.0,0.0,0.0,0.0,0.0,0.0,0.0,0.0,0.0,0.0,0.0,0.0,0.0,0.0,0.0,16.0,0.0,0.0,30.1,0.0,0.0,0.0,0.0,0.0,0.0,18.0,0.0,0.0,-0.6,17.2,14.3,0.0,0.0,0.0,0.0,17.0,18.0,17.0,18.0,17.0,18.0,17.0,18.0,0.0,0.0,-20.0,254.5,0.0,0.0,-8.0,0.0,0.0,0.0,1.525,1.412,0.0,15.9,0.0,0.0,0.0,,0.0,69.8,60.8,0.0,0.0,0.0,0.0,62.6,64.4,62.6,64.4,62.6,64.4,62.6,64.4,0.0,0.0,60.62,0.0,62.6,-7.199999999999996,-9.18,0.0,0.0,0.0,386.6,True,2026-05-29 09:50:03-07:00
16.06,1,9,2026-05-29 16:50:12,37.08159,-121.59962,339.0,0.0,319.8,-12.6,0.0,,0.0,0.0,0.0,10.6,-0.9,6.6,0.0,161.0,0.1,-0.01,1.0,99.0,-106.0,21.0,0.0,29.79,949.0,0.0,0.0,132.0,0.0,0.0,0.0,0.0,0.0,0.0,0.0,0.0,0.0,0.0,0.0,0.0,0.0,0.0,0.0,0.0,0.0,0.0,0.0,0.0,0.0,0.0,0.0,0.0,0.0,16.0,0.0,0.0,30.1,0.0,0.0,0.0,0.0,0.0,0.0,18.0,0.0,0.0,-0.6,17.2,14.3,0.0,0.0,0.0,0.0,17.0,18.0,17.0,18.0,17.0,18.0,17.0,18.0,0.0,0.0,-20.0,254.5,0.0,0.0,-8.0,0.0,0.0,0.0,1.525,1.412,0.0,15.9,0.0,0.0,0.0,,0.0,69.8,60.8,0.0,0.0,0.0,0.0,62.6,64.4,62.6,64.4,62.6,64.4,62.6,64.4,0.0,0.0,60.62,0.0,62.6,-7.199999999999996,-9.18,0.0,0.0,0.0,386.6,True,2026-05-29 09:50:03-07:00
17.06,1,9,2026-05-29 16:50:13,37.08159,-121.59962,337.0,0.0,319.8,-12.6,0.0,,0.0,0.0,0.0,10.7,-0.9,6.6,0.0,159.0,0.1,-0.01,1.0,99.0,-113.0,21.0,0.0,29.79,942.0,0.0,0.0,132.0,0.0,0.0,0.0,0.0,0.0,0.0,0.0,0.0,0.0,0.0,0.0,0.0,0.0,0.0,0.0,0.0,0.0,0.0,0.0,0.0,0.0,0.0,0.0,0.0,0.0,16.0,0.0,0.0,30.1,0.0,0.0,0.0,0.0,0.0,0.0,18.0,0.0,0.0,-0.6,17.2,14.3,0.0,0.0,0.0,0.0,17.0,18.0,17.0,18.0,17.0,18.0,17.0,18.0,0.0,0.0,-20.0,254.5,0.0,0.0,-8.0,0.0,0.0,0.0,1.526,1.411,0.0,15.9,0.0,0.0,0.0,,0.0,69.8,60.8,0.0,0.0,0.0,0.0,62.6,64.4,62.6,64.4,62.6,64.4,62.6,64.4,0.0,0.0,60.62,0.0,62.6,-7.199999999999996,-9.18,0.0,0.0,0.0,386.6,True,2026-05-29 09:50:03-07:00
18.06,1,9,2026-05-29 16:50:14,37.08159,-121.59962,336.0,0.0,319.8,-12.6,0.0,,0.0,0.0,0.0,10.7,-1.0,6.5,0.0,159.0,0.1,-0.01,1.0,99.0,-72.0,21.0,0.0,29.79,942.0,0.0,0.0,132.0,0.0,0.0,0.0,0.0,0.0,0.0,0.0,0.0,0.0,0.0,0.0,0.0,0.0,0.0,0.0,0.0,0.0,0.0,0.0,0.0,0.0,0.0,0.0,0.0,0.0,16.0,0.0,0.0,30.1,0.0,0.0,0.0,0.0,0.0,0.0,18.0,0.0,0.0,-0.6,17.2,14.3,0.0,0.0,0.0,0.0,17.0,18.0,17.0,18.0,17.0,18.0,17.0,18.0,0.0,0.0,-20.0,254.5,0.0,0.0,-8.0,0.0,0.0,0.0,1.525,1.411,0.0,15.9,0.0,0.0,0.0,,0.0,69.8,60.8,0.0,0.0,0.0,0.0,62.6,64.4,62.6,64.4,62.6,64.4,62.6,64.4,0.0,0.0,60.62,0.0,62.6,-7.199999999999996,-9.18,0.0,0.0,0.0,386.6,True,2026-05-29 09:50:03-07:00
19.06,1,9,2026-05-29 16:50:15,37.08159,-121.59962,334.0,0.0,319.8,-12.6,0.0,,0.0,0.0,0.0,10.7,-0.9,6.5,0.0,159.0,0.1,-0.01,1.0,99.0,-48.0,21.0,0.0,29.79,942.0,0.0,0.0,132.0,0.0,0.0,0.0,0.0,0.0,0.0,0.0,0.0,0.0,0.0,0.0,0.0,0.0,0.0,0.0,0.0,0.0,0.0,0.0,0.0,0.0,0.0,0.0,0.0,0.0,16.0,0.0,0.0,30.1,0.0,0.0,0.0,0.0,0.0,0.0,18.0,0.0,0.0,-0.6,17.2,14.3,0.0,0.0,0.0,0.0,17.0,18.0,17.0,18.0,17.0,18.0,17.0,18.0,0.0,0.0,-20.0,254.5,0.0,0.0,-8.0,0.0,0.0,0.0,1.525,1.412,0.0,15.9,0.0,0.0,0.0,,0.0,69.8,60.8,0.0,0.0,0.0,0.0,62.6,64.4,62.6,64.4,62.6,64.4,62.6,64.4,0.0,0.0,60.62,0.0,62.6,-7.199999999999996,-9.18,0.0,0.0,0.0,386.6,True,2026-05-29 09:50:03-07:00
20.06,1,9,2026-05-29 16:50:16,37.08159,-121.59962,332.0,0.0,319.8,-12.6,0.0,,0.0,0.0,0.0,10.7,-0.9,6.5,0.0,159.0,0.1,-0.01,1.0,99.0,-19.0,21.0,0.0,29.79,942.0,0.0,0.0,132.0,0.0,0.0,0.0,0.0,0.0,0.0,0.0,0.0,0.0,0.0,0.0,0.0,0.0,0.0,0.0,0.0,0.0,0.0,0.0,0.0,0.0,0.0,0.0,0.0,0.0,16.0,0.0,0.0,30.1,0.0,0.0,0.0,0.0,0.0,0.0,18.0,0.0,0.0,-0.6,17.2,14.3,0.0,0.0,0.0,0.0,17.0,18.0,17.0,18.0,17.0,18.0,17.0,18.0,0.0,0.0,-20.0,254.5,0.0,0.0,-8.0,0.0,0.0,0.0,1.526,1.411,0.0,15.9,0.0,0.0,0.0,,0.0,69.8,60.8,0.0,0.0,0.0,0.0,62.6,64.4,62.6,64.4,62.6,64.4,62.6,64.4,0.0,0.0,60.62,0.0,62.6,-7.199999999999996,-9.18,0.0,0.0,0.0,386.6,True,2026-05-29 09:50:03-07:00
21.06,1,9,2026-05-29 16:50:17,37.08159,-121.59961,331.0,0.0,319.8,-12.6,0.0,,0.0,0.0,0.0,10.7,-0.9,6.6,0.0,159.0,0.1,-0.02,1.0,99.0,-2.0,21.0,0.0,29.79,942.0,0.0,0.0,132.0,0.0,0.0,0.0,0.0,0.0,0.0,0.0,0.0,0.0,0.0,0.0,0.0,0.0,0.0,0.0,0.0,0.0,0.0,0.0,0.0,0.0,0.0,0.0,0.0,0.0,16.0,0.0,0.0,30.1,0.0,0.0,0.0,0.0,0.0,0.0,18.0,0.0,0.0,-0.6,17.2,14.3,0.0,0.0,0.0,0.0,17.0,18.0,17.0,18.0,17.0,18.0,17.0,18.0,0.0,0.0,-21.0,254.5,0.0,0.0,-8.0,0.0,0.0,0.0,1.525,1.411,0.0,15.9,0.0,0.0,0.0,,0.0,69.8,60.8,0.0,0.0,0.0,0.0,62.6,64.4,62.6,64.4,62.6,64.4,62.6,64.4,0.0,0.0,60.62,0.0,62.6,-7.199999999999996,-9.18,0.0,0.0,0.0,386.6,True,2026-05-29 09:50:03-07:00
22.06,1,9,2026-05-29 16:50:18,37.08159,-121.59961,329.0,0.0,319.8,-12.6,0.0,,0.0,0.0,0.0,10.7,-0.9,6.6,0.0,159.0,0.1,-0.02,1.0,99.0,1.0,21.0,0.0,29.79,942.0,0.0,0.0,132.0,0.0,0.0,0.0,0.0,0.0,0.0,0.0,0.0,0.0,0.0,0.0,0.0,0.0,0.0,0.0,0.0,0.0,0.0,0.0,0.0,0.0,0.0,0.0,0.0,0.0,16.0,0.0,0.0,30.1,0.0,0.0,0.0,0.0,0.0,0.0,18.0,0.0,0.0,-0.6,17.2,14.3,0.0,0.0,0.0,0.0,17.0,18.0,17.0,18.0,17.0,18.0,17.0,18.0,0.0,0.0,-22.0,254.5,0.0,0.0,-8.0,0.0,0.0,0.0,1.525,1.411,0.0,15.9,0.0,0.0,0.0,,0.0,69.8,60.8,0.0,0.0,0.0,0.0,62.6,64.4,62.6,64.4,62.6,64.4,62.6,64.4,0.0,0.0,60.62,0.0,62.6,-7.199999999999996,-9.18,0.0,0.0,0.0,386.6,True,2026-05-29 09:50:03-07:00
23.06,1,9,2026-05-29 16:50:19,37.08159,-121.59961,328.0,0.0,319.8,-12.6,0.0,,0.0,0.0,0.0,10.6,-0.9,6.5,0.0,159.0,0.1,-0.01,1.0,99.0,0.0,21.0,0.0,29.79,942.0,0.0,0.0,132.0,0.0,0.0,0.0,0.0,0.0,0.0,0.0,0.0,0.0,0.0,0.0,0.0,0.0,0.0,0.0,0.0,0.0,0.0,0.0,0.0,0.0,0.0,0.0,0.0,0.0,16.0,0.0,0.0,30.1,0.0,0.0,0.0,0.0,0.0,0.0,18.0,0.0,0.0,-0.6,17.2,14.3,0.0,0.0,0.0,0.0,17.0,18.0,17.0,18.0,17.0,18.0,17.0,18.0,0.0,0.0,-25.0,254.5,0.0,0.0,-8.0,0.0,0.0,0.0,1.525,1.411,0.0,15.9,0.0,0.0,0.0,,0.0,69.8,60.8,0.0,0.0,0.0,0.0,62.6,64.4,62.6,64.4,62.6,64.4,62.6,64.4,0.0,0.0,60.62,0.0,62.6,-7.199999999999996,-9.18,0.0,0.0,0.0,386.6,True,2026-05-29 09:50:03-07:00
24.06,1,9,2026-05-29 16:50:20,37.08159,-121.59961,327.0,0.0,319.8,-12.6,0.0,,0.0,0.0,0.0,10.6,-0.9,6.5,0.0,159.0,0.1,-0.01,1.0,99.0,26.0,21.0,0.0,29.79,942.0,0.0,0.0,132.0,0.0,0.0,0.0,0.0,0.0,0.0,0.0,0.0,0.0,0.0,0.0,0.0,0.0,0.0,0.0,0.0,0.0,0.0,0.0,0.0,0.0,0.0,0.0,0.0,0.0,16.0,0.0,0.0,30.1,0.0,0.0,0.0,0.0,0.0,0.0,18.0,0.0,0.0,-0.6,17.2,14.3,0.0,0.0,0.0,0.0,17.0,18.0,17.0,18.0,17.0,18.0,17.0,18.0,0.0,0.0,-25.0,254.5,0.0,0.0,-8.0,0.0,0.0,0.0,1.525,1.411,0.0,15.9,0.0,0.0,0.0,,0.0,69.8,60.8,0.0,0.0,0.0,0.0,62.6,64.4,62.6,64.4,62.6,64.4,62.6,64.4,0.0,0.0,60.62,0.0,62.6,-7.199999999999996,-9.18,0.0,0.0,0.0,386.6,True,2026-05-29 09:50:03-07:00
25.06,1,9,2026-05-29 16:50:21,37.08159,-121.59961,326.0,0.0,319.8,-12.6,0.0,,0.0,0.0,0.0,10.7,-0.9,6.5,0.0,159.0,0.1,-0.01,1.0,99.0,21.0,21.0,0.0,29.79,942.0,0.0,0.0,132.0,0.0,0.0,0.0,0.0,0.0,0.0,0.0,0.0,0.0,0.0,0.0,0.0,0.0,0.0,0.0,0.0,0.0,0.0,0.0,0.0,0.0,0.0,0.0,0.0,0.0,16.0,0.0,0.0,30.1,0.0,0.0,0.0,0.0,0.0,0.0,18.0,0.0,0.0,-0.6,17.2,14.3,0.0,0.0,0.0,0.0,17.0,18.0,17.0,18.0,17.0,18.0,17.0,18.0,0.0,0.0,-26.0,254.5,0.0,0.0,-8.0,0.0,0.0,0.0,1.525,1.411,0.0,15.9,0.0,0.0,0.0,,0.0,69.8,60.8,0.0,0.0,0.0,0.0,62.6,64.4,62.6,64.4,62.6,64.4,62.6,64.4,0.0,0.0,60.62,0.0,62.6,-7.199999999999996,-9.18,0.0,0.0,0.0,386.6,True,2026-05-29 09:50:03-07:00
26.06,1,9,2026-05-29 16:50:22,37.08159,-121.59961,325.0,0.0,319.8,-12.6,0.0,,0.0,0.0,0.0,10.7,-0.9,6.5,0.0,159.0,0.1,-0.01,1.0,99.0,-17.0,21.0,0.0,29.79,942.0,0.0,0.0,132.0,0.0,0.0,0.0,0.0,0.0,0.0,0.0,0.0,0.0,0.0,0.0,0.0,0.0,0.0,0.0,0.0,0.0,0.0,0.0,0.0,0.0,0.0,0.0,0.0,0.0,16.0,0.0,0.0,30.1,0.0,0.0,0.0,0.0,0.0,0.0,18.0,0.0,0.0,-0.6,17.2,14.3,0.0,0.0,0.0,0.0,17.0,18.0,17.0,18.0,17.0,18.0,17.0,18.0,0.0,0.0,-26.0,254.5,0.0,0.0,-8.0,0.0,0.0,0.0,1.525,1.411,0.0,15.9,0.0,0.0,0.0,,0.0,69.8,60.8,0.0,0.0,0.0,0.0,62.6,64.4,62.6,64.4,62.6,64.4,62.6,64.4,0.0,0.0,60.62,0.0,62.6,-7.199999999999996,-9.18,0.0,0.0,0.0,386.6,True,2026-05-29 09:50:03-07:00
27.06,1,9,2026-05-29 16:50:23,37.08159,-121.59961,324.0,0.0,319.8,-12.6,0.0,,0.0,0.0,0.0,10.7,-0.9,6.5,0.0,158.0,0.1,-0.01,1.0,99.0,-58.0,21.0,0.0,29.79,942.0,0.0,0.0,132.0,0.0,0.0,0.0,0.0,0.0,0.0,0.0,0.0,0.0,0.0,0.0,0.0,0.0,0.0,0.0,0.0,0.0,0.0,0.0,0.0,0.0,0.0,0.0,0.0,0.0,16.0,0.0,0.0,30.1,0.0,0.0,0.0,0.0,0.0,0.0,18.0,0.0,0.0,-0.6,17.2,14.3,0.0,0.0,0.0,0.0,17.0,18.0,17.0,18.0,17.0,18.0,17.0,18.0,0.0,0.0,-26.0,254.5,0.0,0.0,-8.0,0.0,0.0,0.0,1.525,1.412,0.0,15.9,0.0,0.0,0.0,,0.0,69.8,60.8,0.0,0.0,0.0,0.0,62.6,64.4,62.6,64.4,62.6,64.4,62.6,64.4,0.0,0.0,60.62,0.0,62.6,-7.199999999999996,-9.18,0.0,0.0,0.0,386.6,True,2026-05-29 09:50:03-07:00
28.06,1,9,2026-05-29 16:50:24,37.08159,-121.59961,323.0,0.0,319.8,-12.6,0.0,,0.0,0.0,0.0,10.7,-0.9,6.5,0.0,157.0,0.1,-0.01,1.0,99.0,-77.0,21.0,0.0,29.79,942.0,0.0,0.0,132.0,0.0,0.0,0.0,0.0,0.0,0.0,0.0,0.0,0.0,0.0,0.0,0.0,0.0,0.0,0.0,0.0,0.0,0.0,0.0,0.0,0.0,0.0,0.0,0.0,0.0,16.0,0.0,0.0,30.1,0.0,0.0,0.0,0.0,0.0,0.0,18.0,0.0,0.0,-0.6,17.2,14.3,0.0,0.0,0.0,0.0,17.0,18.0,17.0,18.0,17.0,18.0,17.0,18.0,0.0,0.0,-26.0,254.5,0.0,0.0,-8.0,0.0,0.0,0.0,1.525,1.411,0.0,15.9,0.0,0.0,0.0,,0.0,69.8,60.8,0.0,0.0,0.0,0.0,62.6,64.4,62.6,64.4,62.6,64.4,62.6,64.4,0.0,0.0,60.62,0.0,62.6,-7.199999999999996,-9.18,0.0,0.0,0.0,386.6,True,2026-05-29 09:50:03-07:00
29.06,1,9,2026-05-29 16:50:25,37.08159,-121.5996,323.0,0.1,319.8,-12.6,0.0,,0.0,0.0,0.0,10.6,-0.9,6.5,0.0,155.0,0.1,-0.01,1.0,99.0,-68.0,21.0,0.0,29.79,937.0,0.0,0.0,132.0,0.0,0.0,0.0,0.0,0.0,0.0,0.0,0.0,0.0,0.0,0.0,0.0,0.0,0.0,0.0,0.0,0.0,0.0,0.0,0.0,0.0,0.0,0.0,0.0,0.0,16.0,0.0,0.0,30.1,0.0,0.0,0.0,0.0,0.0,0.0,18.0,0.0,0.0,-0.6,17.2,14.3,0.0,0.0,0.0,0.0,17.0,18.0,17.0,18.0,17.0,18.0,17.0,18.0,0.0,0.0,-26.0,254.5,0.0,0.0,-8.0,0.0,0.0,0.0,1.525,1.411,0.0,15.9,0.0,0.0,0.0,,0.0,69.8,60.8,0.0,0.0,0.0,0.0,62.6,64.4,62.6,64.4,62.6,64.4,62.6,64.4,0.0,0.0,60.62,0.0,62.6,-7.199999999999996,-9.18,0.0,0.08433333333333333,0.0,386.6,True,2026-05-29 09:50:03-07:00
30.06,1,9,2026-05-29 16:50:26,37.08159,-121.5996,322.0,0.0,319.8,-12.6,0.0,,0.0,0.0,0.0,10.7,-1.0,6.5,0.0,154.0,0.1,-0.01,1.0,99.0,-63.0,21.0,0.0,29.79,937.0,0.0,0.0,132.0,0.0,0.0,0.0,0.0,0.0,0.0,0.0,0.0,0.0,0.0,0.0,0.0,0.0,0.0,0.0,0.0,0.0,0.0,0.0,0.0,0.0,0.0,0.0,0.0,0.0,16.0,0.0,0.0,30.1,0.0,0.0,0.0,0.0,0.0,0.0,18.0,0.0,0.0,-0.6,17.2,14.3,0.0,0.0,0.0,0.0,17.0,18.0,17.0,18.0,17.0,18.0,17.0,18.0,0.0,0.0,-27.0,254.5,0.0,0.0,-8.0,0.0,0.0,0.0,1.525,1.411,0.0,15.9,0.0,0.0,0.0,,0.0,69.8,60.8,0.0,0.0,0.0,0.0,62.6,64.4,62.6,64.4,62.6,64.4,62.6,64.4,0.0,0.0,60.62,0.0,62.6,-7.199999999999996,-9.18,0.0,0.16866666666666666,0.0,386.6,True,2026-05-29 09:50:03-07:00
31.06,1,9,2026-05-29 16:50:27,37.08159,-121.5996,321.0,0.0,319.8,-12.6,0.0,,0.0,0.0,0.0,10.7,-1.0,6.5,0.0,152.0,0.1,-0.01,1.0,99.0,-92.0,21.0,0.0,29.79,937.0,0.0,0.0,132.0,0.0,0.0,0.0,0.0,0.0,0.0,0.0,0.0,0.0,0.0,0.0,0.0,0.0,0.0,0.0,0.0,0.0,0.0,0.0,0.0,0.0,0.0,0.0,0.0,0.0,16.0,0.0,0.0,30.1,0.0,0.0,0.0,0.0,0.0,0.0,18.0,0.0,0.0,-0.6,17.2,14.3,0.0,0.0,0.0,0.0,17.0,18.0,17.0,18.0,17.0,18.0,17.0,18.0,0.0,0.0,-27.0,254.5,0.0,0.0,-8.0,0.0,0.0,0.0,1.525,1.411,0.0,15.9,0.0,0.0,0.0,,0.0,69.8,60.8,0.0,0.0,0.0,0.0,62.6,64.4,62.6,64.4,62.6,64.4,62.6,64.4,0.0,0.0,60.62,0.0,62.6,-7.199999999999996,-9.18,0.0,0.16866666666666666,0.0,386.6,True,2026-05-29 09:50:03-07:00
32.06,1,9,2026-05-29 16:50:28,37.08159,-121.5996,321.0,0.0,319.8,-12.6,0.0,,0.0,0.0,0.0,10.7,-1.0,6.4,0.0,150.0,0.1,-0.01,1.0,99.0,-107.0,21.0,0.0,29.79,932.0,0.0,0.0,132.0,0.0,0.0,0.0,0.0,0.0,0.0,0.0,0.0,0.0,0.0,0.0,0.0,0.0,0.0,0.0,0.0,0.0,0.0,0.0,0.0,0.0,0.0,0.0,0.0,0.0,16.0,0.0,0.0,30.1,0.0,0.0,0.0,0.0,0.0,0.0,18.0,0.0,0.0,-0.6,17.2,14.3,0.0,0.0,0.0,0.0,17.0,18.0,17.0,18.0,17.0,18.0,17.0,18.0,0.0,0.0,-27.0,254.5,0.0,0.0,-8.0,0.0,0.0,0.0,1.525,1.411,0.0,15.9,0.0,0.0,0.0,,0.0,69.8,60.8,0.0,0.0,0.0,0.0,62.6,64.4,62.6,64.4,62.6,64.4,62.6,64.4,0.0,0.0,60.62,0.0,62.6,-7.199999999999996,-9.18,0.0,0.16866666666666666,0.0,386.6,True,2026-05-29 09:50:03-07:00
33.06,1,9,2026-05-29 16:50:29,37.08159,-121.5996,320.0,0.0,319.8,-12.6,0.0,,0.0,0.0,0.0,10.6,-0.9,6.5,0.0,148.0,0.1,-0.01,1.0,99.0,-116.0,21.0,0.0,29.79,932.0,0.0,0.0,132.0,0.0,0.0,0.0,0.0,0.0,0.0,0.0,0.0,0.0,0.0,0.0,0.0,0.0,0.0,0.0,0.0,0.0,0.0,0.0,0.0,0.0,0.0,0.0,0.0,0.0,16.0,0.0,0.0,30.1,0.0,0.0,0.0,0.0,0.0,0.0,18.0,0.0,0.0,-0.6,17.2,14.3,0.0,0.0,0.0,0.0,17.0,18.0,17.0,18.0,17.0,18.0,17.0,18.0,0.0,0.0,-25.0,254.5,0.0,0.0,-8.0,0.0,0.0,0.0,1.525,1.411,0.0,15.9,0.0,0.0,0.0,,0.0,69.8,60.8,0.0,0.0,0.0,0.0,62.6,64.4,62.6,64.4,62.6,64.4,62.6,64.4,0.0,0.0,60.62,0.0,62.6,-7.199999999999996,-9.18,0.0,0.16866666666666666,0.0,386.6,True,2026-05-29 09:50:03-07:00
34.06,1,9,2026-05-29 16:50:30,37.08159,-121.5996,320.0,0.0,319.8,-12.6,0.0,,0.0,0.0,0.0,10.6,-0.9,6.5,0.0,145.0,0.1,-0.01,1.0,99.0,-143.0,21.0,0.0,29.79,932.0,0.0,0.0,132.0,0.0,0.0,0.0,0.0,0.0,0.0,0.0,0.0,0.0,0.0,0.0,0.0,0.0,0.0,0.0,0.0,0.0,0.0,0.0,0.0,0.0,0.0,0.0,0.0,0.0,16.0,0.0,0.0,30.1,0.0,0.0,0.0,0.0,0.0,0.0,18.0,0.0,0.0,-0.6,17.2,14.3,0.0,0.0,0.0,0.0,17.0,18.0,17.0,18.0,17.0,18.0,17.0,18.0,0.0,0.0,-25.0,254.5,0.0,0.0,-8.0,0.0,0.0,0.0,1.526,1.411,0.0,15.9,0.0,0.0,0.0,,0.0,69.8,60.8,0.0,0.0,0.0,0.0,62.6,64.4,62.6,64.4,62.6,64.4,62.6,64.4,0.0,0.0,60.62,0.0,62.6,-7.199999999999996,-9.18,0.0,0.16866666666666666,0.0,386.6,True,2026-05-29 09:50:03-07:00
35.06,1,9,2026-05-29 16:50:31,37.08159,-121.5996,320.0,0.0,319.8,-12.6,0.0,,0.0,0.0,0.0,10.7,-0.9,6.5,0.0,142.0,0.1,-0.01,1.0,99.0,-144.0,21.0,0.0,29.79,931.0,0.0,0.0,132.0,0.0,0.0,0.0,0.0,0.0,0.0,0.0,0.0,0.0,0.0,0.0,0.0,0.0,0.0,0.0,0.0,0.0,0.0,0.0,0.0,0.0,0.0,0.0,0.0,0.0,16.0,0.0,0.0,30.1,0.0,0.0,0.0,0.0,0.0,0.0,18.0,0.0,0.0,-0.6,17.2,14.3,0.0,0.0,0.0,0.0,17.0,18.0,17.0,18.0,17.0,18.0,17.0,18.0,0.0,0.0,-26.0,254.5,0.0,0.0,-8.0,0.0,0.0,0.0,1.525,1.411,0.0,15.9,0.0,0.0,0.0,,0.0,69.8,60.8,0.0,0.0,0.0,0.0,62.6,64.4,62.6,64.4,62.6,64.4,62.6,64.4,0.0,0.0,60.62,0.0,62.6,-7.199999999999996,-9.18,0.0,0.16866666666666666,0.0,386.6,True,2026-05-29 09:50:03-07:00
36.06,1,9,2026-05-29 16:50:32,37.08159,-121.5996,319.0,0.0,319.8,-12.6,0.0,,0.0,0.0,0.0,10.7,-0.9,6.5,0.0,141.0,0.1,-0.01,1.0,99.0,-118.0,21.0,0.0,29.79,929.0,0.0,0.0,132.0,0.0,0.0,0.0,0.0,0.0,0.0,0.0,0.0,0.0,0.0,0.0,0.0,0.0,0.0,0.0,0.0,0.0,0.0,0.0,0.0,0.0,0.0,0.0,0.0,0.0,16.0,0.0,0.0,30.1,0.0,0.0,0.0,0.0,0.0,0.0,18.0,0.0,0.0,-0.6,17.2,14.3,0.0,0.0,0.0,0.0,17.0,18.0,17.0,18.0,17.0,18.0,17.0,18.0,0.0,0.0,-27.0,254.5,0.0,0.0,-8.0,0.0,0.0,0.0,1.526,1.412,0.0,15.9,0.0,0.0,0.0,,0.0,69.8,60.8,0.0,0.0,0.0,0.0,62.6,64.4,62.6,64.4,62.6,64.4,62.6,64.4,0.0,0.0,60.62,0.0,62.6,-7.199999999999996,-9.18,0.0,0.16866666666666666,0.0,386.6,True,2026-05-29 09:50:03-07:00
37.06,1,9,2026-05-29 16:50:33,37.08159,-121.5996,319.0,0.0,319.8,-12.6,0.0,,0.0,0.0,0.0,10.7,-0.9,6.5,0.0,139.0,0.1,-0.01,1.0,99.0,-115.0,21.0,0.0,29.79,927.0,0.0,0.0,132.0,0.0,0.0,0.0,0.0,0.0,0.0,0.0,0.0,0.0,0.0,0.0,0.0,0.0,0.0,0.0,0.0,0.0,0.0,0.0,0.0,0.0,0.0,0.0,0.0,0.0,16.0,0.0,0.0,30.1,0.0,0.0,0.0,0.0,0.0,0.0,18.0,0.0,0.0,-0.6,17.2,14.3,0.0,0.0,0.0,0.0,17.0,18.0,17.0,18.0,17.0,18.0,17.0,18.0,0.0,0.0,-27.0,254.5,0.0,0.0,-8.0,0.0,0.0,0.0,1.526,1.411,0.0,15.9,0.0,0.0,0.0,,0.0,69.8,60.8,0.0,0.0,0.0,0.0,62.6,64.4,62.6,64.4,62.6,64.4,62.6,64.4,0.0,0.0,60.62,0.0,62.6,-7.199999999999996,-9.18,0.0,0.16866666666666666,0.0,386.6,True,2026-05-29 09:50:03-07:00
38.06,1,9,2026-05-29 16:50:34,37.08159,-121.5996,319.0,0.0,319.8,-12.6,0.0,,0.0,0.0,0.0,10.7,-1.0,6.5,0.0,138.0,0.2,-0.01,1.0,99.0,-95.0,21.0,0.0,29.79,926.0,0.0,0.0,132.0,0.0,0.0,0.0,0.0,0.0,0.0,0.0,0.0,0.0,0.0,0.0,0.0,0.0,0.0,0.0,0.0,0.0,0.0,0.0,0.0,0.0,0.0,0.0,0.0,0.0,16.0,0.0,0.0,30.1,0.0,0.0,0.0,0.0,0.0,0.0,18.0,0.0,0.0,-0.6,17.2,14.3,0.0,0.0,0.0,0.0,17.0,18.0,17.0,18.0,17.0,18.0,17.0,18.0,0.0,0.0,-27.0,254.5,0.0,0.0,-8.0,0.0,0.0,0.0,1.525,1.411,0.0,15.9,0.0,0.0,0.0,,0.0,69.8,60.8,0.0,0.0,0.0,0.0,62.6,64.4,62.6,64.4,62.6,64.4,62.6,64.4,0.0,0.0,60.62,0.0,62.6,-7.199999999999996,-9.18,0.0,0.16866666666666666,0.0,386.6,True,2026-05-29 09:50:03-07:00
39.06,1,9,2026-05-29 16:50:35,37.08159,-121.59959,319.0,0.0,319.8,-12.6,0.0,,0.0,0.0,0.0,10.7,-1.0,6.5,0.0,138.0,0.1,-0.01,1.0,99.0,-71.0,21.0,0.0,29.79,925.0,0.0,0.0,132.0,0.0,0.0,0.0,0.0,0.0,0.0,0.0,0.0,0.0,0.0,0.0,0.0,0.0,0.0,0.0,0.0,0.0,0.0,0.0,0.0,0.0,0.0,0.0,0.0,0.0,16.0,0.0,0.0,30.1,0.0,0.0,0.0,0.0,0.0,0.0,18.0,0.0,0.0,-0.6,17.2,14.3,0.0,0.0,0.0,0.0,17.0,18.0,17.0,18.0,17.0,18.0,17.0,18.0,0.0,0.0,-27.0,254.5,0.0,0.0,-8.0,0.0,0.0,0.0,1.525,1.411,0.0,15.9,0.0,0.0,0.0,,0.0,69.8,60.8,0.0,0.0,0.0,0.0,62.6,64.4,62.6,64.4,62.6,64.4,62.6,64.4,0.0,0.0,60.62,0.0,62.6,-7.199999999999996,-9.18,0.0,0.16866666666666666,0.0,386.6,True,2026-05-29 09:50:03-07:00
40.06,1,9,2026-05-29 16:50:36,37.08159,-121.59959,319.0,0.0,319.8,-12.6,0.0,,0.0,0.0,0.0,10.7,-1.0,6.4,0.0,138.0,0.1,-0.01,1.0,99.0,-30.0,21.0,0.0,29.79,925.0,0.0,0.0,132.0,0.0,0.0,0.0,0.0,0.0,0.0,0.0,0.0,0.0,0.0,0.0,0.0,0.0,0.0,0.0,0.0,0.0,0.0,0.0,0.0,0.0,0.0,0.0,0.0,0.0,16.0,0.0,0.0,30.1,0.0,0.0,0.0,0.0,0.0,0.0,18.0,0.0,0.0,-0.6,17.2,14.3,0.0,0.0,0.0,0.0,17.0,18.0,17.0,18.0,17.0,18.0,17.0,18.0,0.0,0.0,-27.0,254.5,0.0,0.0,-8.0,0.0,0.0,0.0,1.526,1.411,0.0,15.9,0.0,0.0,0.0,,0.0,69.8,60.8,0.0,0.0,0.0,0.0,62.6,64.4,62.6,64.4,62.6,64.4,62.6,64.4,0.0,0.0,60.62,0.0,62.6,-7.199999999999996,-9.18,0.0,0.16866666666666666,0.0,386.6,True,2026-05-29 09:50:03-07:00
41.06,1,9,2026-05-29 16:50:37,37.08159,-121.59959,319.0,0.0,319.8,-12.6,0.0,,0.0,0.0,0.0,10.7,-0.9,6.5,0.0,138.0,0.1,-0.01,1.0,99.0,-36.0,21.0,0.0,29.79,925.0,0.0,0.0,132.0,0.0,0.0,0.0,0.0,0.0,0.0,0.0,0.0,0.0,0.0,0.0,0.0,0.0,0.0,0.0,0.0,0.0,0.0,0.0,0.0,0.0,0.0,0.0,0.0,0.0,16.0,0.0,0.0,30.1,0.0,0.0,0.0,0.0,0.0,0.0,18.0,0.0,0.0,-0.6,17.2,14.3,0.0,0.0,0.0,0.0,17.0,18.0,17.0,18.0,17.0,18.0,17.0,18.0,0.0,0.0,-27.0,254.5,0.0,0.0,-8.0,0.0,0.0,0.0,1.526,1.412,0.0,15.9,0.0,0.0,0.0,,0.0,69.8,60.8,0.0,0.0,0.0,0.0,62.6,64.4,62.6,64.4,62.6,64.4,62.6,64.4,0.0,0.0,60.62,0.0,62.6,-7.199999999999996,-9.18,0.0,0.16866666666666666,0.0,386.6,True,2026-05-29 09:50:03-07:00
42.06,1,9,2026-05-29 16:50:38,37.08159,-121.59959,319.0,0.0,319.8,-12.6,0.0,,0.0,0.0,0.0,10.7,-0.9,6.5,0.0,136.0,0.1,-0.01,1.0,99.0,-36.0,21.0,0.0,29.79,924.0,0.0,0.0,132.0,0.0,0.0,0.0,0.0,0.0,0.0,0.0,0.0,0.0,0.0,0.0,0.0,0.0,0.0,0.0,0.0,0.0,0.0,0.0,0.0,0.0,0.0,0.0,0.0,0.0,16.0,0.0,0.0,30.1,0.0,0.0,0.0,0.0,0.0,0.0,18.0,0.0,0.0,-0.6,17.2,14.3,0.0,0.0,0.0,0.0,17.0,18.0,17.0,18.0,17.0,18.0,17.0,18.0,0.0,0.0,-27.0,233.2,0.0,0.0,-8.0,0.0,0.0,0.0,1.525,1.411,0.0,15.9,0.0,0.0,0.0,,0.0,69.8,60.8,0.0,0.0,0.0,0.0,62.6,64.4,62.6,64.4,62.6,64.4,62.6,64.4,0.0,0.0,60.62,0.0,62.6,-7.199999999999996,-9.18,0.0,0.16866666666666666,0.0,386.6,True,2026-05-29 09:50:03-07:00
43.06,1,9,2026-05-29 16:50:39,37.08159,-121.59959,319.0,0.0,319.8,-12.6,0.0,,0.0,0.0,0.0,10.7,-0.9,6.5,0.0,135.0,0.1,-0.02,1.0,99.0,-60.0,21.0,0.0,29.79,924.0,0.0,0.0,132.0,0.0,0.0,0.0,0.0,0.0,0.0,0.0,0.0,0.0,0.0,0.0,0.0,0.0,0.0,0.0,0.0,0.0,0.0,0.0,0.0,0.0,0.0,0.0,0.0,0.0,16.0,0.0,0.0,30.1,0.6,0.0,0.6,24.6,0.0,0.0,18.0,0.0,0.0,-0.6,17.2,14.3,0.0,0.0,0.0,0.0,17.0,18.0,17.0,18.0,17.0,18.0,17.0,18.0,0.0,0.0,-26.0,181.5,0.0,24.6,-8.0,0.0,0.0,0.0,1.526,1.412,0.0,15.9,0.0,0.0,0.0,,0.0,69.8,60.8,0.0,0.0,0.0,0.0,62.6,64.4,62.6,64.4,62.6,64.4,62.6,64.4,0.0,0.0,60.62,0.0,62.6,-7.199999999999996,-9.18,8.333333333333333e-05,0.16866666666666666,0.0,386.6,True,2026-05-29 09:50:03-07:00
44.06,1,9,2026-05-29 16:50:40,37.08159,-121.59959,319.0,0.0,319.8,-12.6,0.0,,0.0,0.0,0.0,10.7,-1.0,6.5,0.0,134.0,0.1,-0.01,1.0,99.0,-75.0,21.0,0.0,29.79,924.0,0.0,0.0,132.0,0.0,0.0,0.0,0.0,0.0,0.0,0.0,0.0,0.0,0.0,0.0,0.0,0.0,0.0,0.0,0.0,0.0,0.0,0.0,0.0,0.0,0.0,0.0,0.0,0.0,16.0,0.0,0.0,30.1,1.7,0.0,1.7,30.6,0.0,0.0,18.0,0.0,0.0,-0.5,17.2,14.3,0.0,0.0,0.0,0.0,17.0,18.0,17.0,18.0,17.0,18.0,17.0,18.0,0.0,0.0,-26.0,141.3,0.0,30.6,-8.0,0.0,0.0,0.0,1.525,1.411,0.0,15.9,0.0,0.0,0.0,,0.0,69.8,60.8,0.0,0.0,0.0,0.0,62.6,64.4,62.6,64.4,62.6,64.4,62.6,64.4,0.0,0.0,60.62,0.0,62.6,-7.199999999999996,-9.18,0.0004027777777777777,0.16866666666666666,0.0,386.6,True,2026-05-29 09:50:03-07:00
45.06,1,9,2026-05-29 16:50:41,37.08158,-121.59959,319.0,0.0,319.8,-12.6,0.0,,0.0,0.0,0.0,10.7,-0.9,6.5,0.0,134.0,0.1,-0.02,1.0,99.0,-43.0,21.0,0.0,29.79,921.0,0.0,0.0,132.0,0.0,0.0,0.0,0.0,0.0,0.0,0.0,0.0,0.0,0.0,0.0,0.0,0.0,0.0,0.0,0.0,0.0,0.0,0.0,0.0,0.0,0.0,0.0,0.0,0.0,16.0,0.0,0.0,30.1,2.5,0.0,2.5,31.5,0.0,0.0,18.0,0.0,0.0,-0.5,17.2,14.3,0.0,0.0,0.0,0.0,17.0,18.0,17.0,18.0,17.0,18.0,17.0,18.0,0.0,0.0,-26.0,110.0,0.0,31.5,-8.0,0.0,0.0,0.0,1.526,1.412,0.0,15.9,0.0,0.0,0.0,,0.0,69.8,60.8,0.0,0.0,0.0,0.0,62.6,64.4,62.6,64.4,62.6,64.4,62.6,64.4,0.0,0.0,60.62,0.0,62.6,-7.199999999999996,-9.18,0.000986111111111111,0.16866666666666666,0.0,386.6,True,2026-05-29 09:50:03-07:00
46.06,1,9,2026-05-29 16:50:42,37.08158,-121.59959,318.0,0.0,319.8,-12.6,0.0,,0.0,0.0,0.0,10.7,-0.9,6.5,0.0,134.0,0.1,-0.02,1.0,99.0,-21.0,21.0,0.0,29.79,921.0,0.0,0.0,132.0,0.0,0.0,0.0,0.0,0.0,0.0,0.0,0.0,0.0,0.0,0.0,0.0,0.0,0.0,0.0,0.0,0.0,0.0,0.0,0.0,0.0,0.0,0.0,0.0,0.0,16.0,0.0,0.0,30.1,3.2,0.0,3.2,31.8,0.0,0.0,18.0,0.0,0.0,-0.5,17.2,14.3,0.0,0.0,0.0,0.0,17.0,18.0,17.0,18.0,17.0,18.0,17.0,18.0,0.0,0.0,-26.0,85.7,0.0,31.8,-8.0,0.0,0.0,0.0,1.526,1.412,0.0,15.9,0.0,0.0,0.0,,0.0,69.8,60.8,0.0,0.0,0.0,0.0,62.6,64.4,62.6,64.4,62.6,64.4,62.6,64.4,0.0,0.0,60.62,0.0,62.6,-7.199999999999996,-9.18,0.0017777777777777776,0.16866666666666666,0.0,386.6,True,2026-05-29 09:50:03-07:00
47.06,1,9,2026-05-29 16:50:43,37.08158,-121.59959,318.0,0.0,319.8,-12.6,0.0,,0.0,0.0,0.0,10.7,-0.9,6.5,0.0,134.0,0.1,-0.01,1.0,99.0,5.0,21.0,0.0,29.79,921.0,0.0,0.0,132.0,0.0,0.0,0.0,0.0,0.0,0.0,0.0,0.0,0.0,0.0,0.0,0.0,0.0,0.0,0.0,0.0,0.0,0.0,0.0,0.0,0.0,0.0,0.0,0.0,0.0,16.0,0.0,0.0,30.1,3.6,0.0,3.6,33.0,0.0,0.0,18.0,0.0,0.0,-0.5,17.2,14.3,0.0,0.0,0.0,0.0,17.0,18.0,17.0,18.0,17.0,18.0,17.0,18.0,0.0,0.0,-26.0,66.9,0.0,33.0,-7.0,0.0,0.0,0.0,1.525,1.411,0.0,15.9,0.0,0.0,0.0,,0.0,69.8,60.8,0.0,0.0,0.0,0.0,62.6,64.4,62.6,64.4,62.6,64.4,62.6,64.4,0.0,0.0,60.62,0.0,62.6,-7.199999999999996,-9.18,0.0027222222222222222,0.16866666666666666,0.0,386.6,True,2026-05-29 09:50:03-07:00
48.06,1,9,2026-05-29 16:50:44,37.08158,-121.59959,317.0,0.0,319.8,-12.6,0.0,,0.0,0.0,0.0,10.7,-1.0,6.5,0.0,134.0,0.1,-0.01,1.0,99.0,32.0,21.0,0.0,29.79,921.0,0.0,0.0,132.0,0.0,0.0,0.0,0.0,0.0,0.0,0.0,0.0,0.0,0.0,0.0,0.0,0.0,0.0,0.0,0.0,0.0,0.0,0.0,0.0,0.0,0.0,0.0,0.0,0.0,16.0,0.0,0.0,30.1,3.2,0.0,3.2,32.6,0.0,0.0,18.0,0.0,0.0,-0.5,17.2,14.3,0.0,0.0,0.0,0.0,17.0,18.0,17.0,18.0,17.0,18.0,17.0,18.0,0.0,0.0,-25.0,52.2,0.0,32.6,-8.0,0.0,0.0,0.0,1.525,1.412,0.0,15.9,0.0,0.0,0.0,,0.0,69.8,60.8,0.0,0.0,0.0,0.0,62.6,64.4,62.6,64.4,62.6,64.4,62.6,64.4,0.0,0.0,60.62,0.0,62.6,-7.199999999999996,-9.18,0.0036666666666666666,0.16866666666666666,0.0,386.6,True,2026-05-29 09:50:03-07:00
49.06,1,9,2026-05-29 16:50:45,37.08158,-121.59959,317.0,0.0,319.8,-12.6,0.0,,0.0,0.0,0.0,10.7,-1.0,6.5,0.0,134.0,0.1,-0.01,1.0,99.0,49.0,21.0,0.0,29.79,922.0,0.0,0.0,132.0,0.0,0.0,0.0,0.0,0.0,0.0,0.0,0.0,0.0,0.0,0.0,0.0,0.0,0.0,0.0,0.0,0.0,0.0,0.0,0.0,0.0,0.0,0.0,0.0,0.0,16.0,0.0,0.0,30.1,3.2,0.0,3.2,32.2,0.0,0.0,18.0,0.0,0.0,-0.6,17.2,14.3,0.0,0.0,0.0,0.0,17.0,18.0,17.0,18.0,17.0,18.0,17.0,18.0,0.0,0.0,-25.0,40.8,0.0,32.2,-8.0,0.0,0.0,0.0,1.525,1.411,0.0,15.9,0.0,0.0,0.0,,0.0,69.8,60.8,0.0,0.0,0.0,0.0,62.6,64.4,62.6,64.4,62.6,64.4,62.6,64.4,0.0,0.0,60.62,0.0,62.6,-7.199999999999996,-9.18,0.004555555555555556,0.16866666666666666,0.0,386.6,True,2026-05-29 09:50:03-07:00
50.06,1,9,2026-05-29 16:50:46,37.08158,-121.59959,317.0,0.0,319.8,-12.6,0.0,,0.0,0.0,0.0,10.7,-1.0,6.4,0.0,134.0,0.1,-0.01,1.0,99.0,38.0,21.0,0.0,29.79,922.0,0.0,0.0,132.0,0.0,0.0,0.0,0.0,0.0,0.0,0.0,0.0,0.0,0.0,0.0,0.0,0.0,0.0,0.0,0.0,0.0,0.0,0.0,0.0,0.0,0.0,0.0,0.0,0.0,16.0,0.0,0.0,30.1,0.0,0.0,0.0,31.9,0.0,0.0,18.0,0.0,0.0,-0.6,17.2,14.3,0.0,0.0,0.0,0.0,17.0,18.0,17.0,18.0,17.0,18.0,17.0,18.0,0.0,0.0,-24.0,31.9,0.0,31.9,-7.0,0.0,0.0,0.0,1.525,1.412,0.0,15.9,0.0,0.0,0.0,,0.0,69.8,60.8,0.0,0.0,0.0,0.0,62.6,64.4,62.6,64.4,62.6,64.4,62.6,64.4,0.0,0.0,60.62,0.0,62.6,-7.199999999999996,-9.18,0.005,0.16866666666666666,0.0,386.6,True,2026-05-29 09:50:03-07:00
51.06,1,9,2026-05-29 16:50:47,37.08158,-121.59959,317.0,0.0,319.8,-12.6,0.0,,0.0,0.0,0.0,10.7,-0.9,6.4,0.0,134.0,0.1,-0.01,1.0,99.0,55.0,21.0,0.0,29.79,922.0,0.0,0.0,132.0,0.0,0.0,0.0,0.0,0.0,0.0,0.0,0.0,0.0,0.0,0.0,0.0,0.0,0.0,0.0,0.0,0.0,0.0,0.0,0.0,0.0,0.0,0.0,0.0,0.0,16.0,0.0,0.0,30.1,0.0,0.0,0.0,31.7,0.0,0.0,18.0,0.0,0.0,-0.6,17.2,14.3,0.0,0.0,0.0,0.0,17.0,18.0,17.0,18.0,17.0,18.0,17.0,18.0,0.0,0.0,-24.0,25.0,0.0,31.7,-8.0,0.0,0.0,0.0,1.526,1.412,0.0,15.9,0.0,0.0,0.0,,0.0,69.8,60.8,0.0,0.0,0.0,0.0,62.6,64.4,62.6,64.4,62.6,64.4,62.6,64.4,0.0,0.0,60.62,0.0,62.6,-7.199999999999996,-9.18,0.005,0.16866666666666666,0.0,386.6,True,2026-05-29 09:50:03-07:00
52.06,1,9,2026-05-29 16:50:48,37.08158,-121.59959,316.0,0.0,319.8,-12.6,0.0,,0.0,0.0,0.0,10.7,-0.9,6.5,0.0,134.0,0.1,-0.01,1.0,99.0,49.0,21.0,0.0,29.79,931.0,0.0,0.0,132.0,0.0,0.0,0.0,0.0,0.0,0.0,0.0,0.0,0.0,0.0,0.0,0.0,0.0,0.0,0.0,0.0,0.0,0.0,0.0,0.0,0.0,0.0,0.0,0.0,0.0,16.0,0.0,0.0,30.1,0.0,0.0,0.0,31.5,0.0,0.0,18.0,0.0,0.0,-0.6,17.2,14.3,0.0,0.0,0.0,0.0,17.0,18.0,17.0,18.0,17.0,18.0,17.0,18.0,0.0,0.0,-24.0,19.7,0.0,31.5,-7.0,0.0,0.0,0.0,1.526,1.411,0.0,15.9,0.0,0.0,0.0,,0.0,69.8,60.8,0.0,0.0,0.0,0.0,62.6,64.4,62.6,64.4,62.6,64.4,62.6,64.4,0.0,0.0,60.62,0.0,62.6,-7.199999999999996,-9.18,0.005,0.16866666666666666,0.0,386.6,True,2026-05-29 09:50:03-07:00
53.06,1,9,2026-05-29 16:50:49,37.08158,-121.59959,316.0,0.0,319.8,-12.6,0.0,,0.0,0.0,0.0,10.7,-0.9,6.5,0.0,134.0,0.1,-0.01,1.0,99.0,57.0,21.0,0.0,29.79,931.0,0.0,0.0,132.0,0.0,0.0,0.0,0.0,0.0,0.0,0.0,0.0,0.0,0.0,0.0,0.0,0.0,0.0,0.0,0.0,0.0,0.0,0.0,0.0,0.0,0.0,0.0,0.0,0.0,16.0,0.0,0.0,30.1,0.0,0.0,0.0,31.3,0.0,0.0,18.0,0.0,0.0,-0.6,17.2,14.3,0.0,0.0,0.0,0.0,17.0,18.0,17.0,18.0,17.0,18.0,17.0,18.0,0.0,0.0,-24.0,15.5,0.0,31.3,-7.0,0.0,0.0,0.0,1.525,1.411,0.0,15.9,0.0,0.0,0.0,,0.0,69.8,60.8,0.0,0.0,0.0,0.0,62.6,64.4,62.6,64.4,62.6,64.4,62.6,64.4,0.0,0.0,60.62,0.0,62.6,-7.199999999999996,-9.18,0.005,0.16866666666666666,0.0,386.6,True,2026-05-29 09:50:03-07:00
54.06,1,9,2026-05-29 16:50:50,37.08158,-121.59959,316.0,0.0,319.8,-12.6,0.0,,0.0,0.0,0.0,10.8,-0.9,6.5,0.0,134.0,0.1,-0.01,1.0,99.0,78.0,21.0,0.0,29.79,931.0,0.0,0.0,132.0,0.0,0.0,0.0,0.0,0.0,0.0,0.0,0.0,0.0,0.0,0.0,0.0,0.0,0.0,0.0,0.0,0.0,0.0,0.0,0.0,0.0,0.0,0.0,0.0,0.0,16.0,0.0,0.0,30.1,0.0,0.0,0.0,31.1,0.0,0.0,18.0,0.0,0.0,-0.6,17.2,14.3,0.0,0.0,0.0,0.0,17.0,18.0,17.0,18.0,17.0,18.0,17.0,18.0,0.0,0.0,-24.0,12.3,0.0,31.1,-7.0,0.0,0.0,0.0,1.525,1.411,0.0,15.9,0.0,0.0,0.0,,0.0,69.8,60.8,0.0,0.0,0.0,0.0,62.6,64.4,62.6,64.4,62.6,64.4,62.6,64.4,0.0,0.0,60.62,0.0,62.6,-7.199999999999996,-9.18,0.005,0.16866666666666666,0.0,386.6,True,2026-05-29 09:50:03-07:00
55.06,1,9,2026-05-29 16:50:51,37.08158,-121.59959,316.0,0.0,319.8,-12.6,0.0,,0.0,0.0,0.0,10.8,-0.9,6.6,0.0,134.0,0.2,-0.02,0.8,99.0,47.0,21.0,0.0,29.79,932.0,0.0,0.0,132.0,0.0,0.0,0.0,0.0,0.0,0.0,0.0,0.0,0.0,0.0,0.0,0.0,0.0,0.0,0.0,0.0,0.0,0.0,0.0,0.0,0.0,0.0,0.0,0.0,0.0,16.0,0.0,0.0,30.1,0.0,0.0,0.0,31.0,0.0,0.0,18.0,0.0,0.0,-0.6,17.2,14.3,0.0,0.0,0.0,0.0,17.0,18.0,17.0,18.0,17.0,18.0,17.0,18.0,0.0,0.0,-24.0,9.7,0.0,31.0,-7.0,0.0,0.0,0.0,1.525,1.411,0.0,15.9,0.0,0.0,0.0,,0.0,69.8,60.8,0.0,0.0,0.0,0.0,62.6,64.4,62.6,64.4,62.6,64.4,62.6,64.4,0.0,0.0,60.62,0.0,62.6,-7.199999999999996,-9.18,0.005,0.16866666666666666,0.0,386.6,True,2026-05-29 09:50:03-07:00
56.06,1,9,2026-05-29 16:50:52,37.08158,-121.59959,316.0,0.0,319.8,-12.6,0.0,,0.0,0.0,0.0,10.8,-0.8,6.6,0.0,134.0,0.1,-0.01,1.0,99.0,8.0,21.0,0.0,29.79,932.0,0.0,0.0,132.0,0.0,0.0,0.0,0.0,0.0,0.0,0.0,0.0,0.0,0.0,0.0,0.0,0.0,0.0,0.0,0.0,0.0,0.0,0.0,0.0,0.0,0.0,0.0,0.0,0.0,16.0,0.0,0.0,30.1,0.0,0.0,0.0,30.8,0.0,0.0,18.0,0.0,0.0,-0.6,17.2,14.3,0.0,0.0,0.0,0.0,17.0,18.0,17.0,18.0,17.0,18.0,17.0,18.0,0.0,0.0,-24.0,7.8,0.0,30.8,-8.0,0.0,0.0,0.0,1.526,1.411,0.0,15.9,0.0,0.0,0.0,,0.0,69.8,60.8,0.0,0.0,0.0,0.0,62.6,64.4,62.6,64.4,62.6,64.4,62.6,64.4,0.0,0.0,60.62,0.0,62.6,-7.199999999999996,-9.18,0.005,0.16866666666666666,0.0,386.6,True,2026-05-29 09:50:03-07:00
57.06,1,9,2026-05-29 16:50:53,37.08158,-121.59959,316.0,0.0,319.8,-12.6,0.0,,0.0,0.0,0.0,10.7,-0.9,6.5,0.0,134.0,0.1,-0.01,1.0,99.0,6.0,21.0,0.0,29.79,932.0,0.0,0.0,132.0,0.0,0.0,0.0,0.0,0.0,0.0,0.0,0.0,0.0,0.0,0.0,0.0,0.0,0.0,0.0,0.0,0.0,0.0,0.0,0.0,0.0,0.0,0.0,0.0,0.0,16.0,0.0,0.0,30.1,0.0,0.0,0.0,30.7,0.0,0.0,18.0,0.0,0.0,-0.6,17.2,14.3,0.0,0.0,0.0,0.0,17.0,18.0,17.0,18.0,17.0,18.0,17.0,18.0,0.0,0.0,-23.0,6.3,0.0,30.7,-7.0,0.0,0.0,0.0,1.526,1.411,0.0,15.9,0.0,0.0,0.0,,0.0,69.8,60.8,0.0,0.0,0.0,0.0,62.6,64.4,62.6,64.4,62.6,64.4,62.6,64.4,0.0,0.0,60.62,0.0,62.6,-7.199999999999996,-9.18,0.005,0.16866666666666666,0.0,386.6,True,2026-05-29 09:50:03-07:00
58.06,1,9,2026-05-29 16:50:54,37.08158,-121.59959,316.0,0.0,319.8,-12.6,0.0,,0.0,0.0,0.0,10.7,-0.9,6.5,0.0,134.0,0.1,-0.01,1.0,99.0,3.0,21.0,0.0,29.79,932.0,0.0,0.0,132.0,0.0,0.0,0.0,0.0,0.0,0.0,0.0,0.0,0.0,0.0,0.0,0.0,0.0,0.0,0.0,0.0,0.0,0.0,0.0,0.0,0.0,0.0,0.0,0.0,0.0,16.0,0.0,0.0,30.1,0.0,0.0,0.0,30.6,0.0,0.0,18.0,0.0,0.0,-0.6,17.2,14.3,0.0,0.0,0.0,0.0,17.0,18.0,17.0,18.0,17.0,18.0,17.0,18.0,0.0,0.0,-23.0,5.1,0.0,30.6,-7.0,0.0,0.0,0.0,1.526,1.411,0.0,15.9,0.0,0.0,0.0,,0.0,69.8,60.8,0.0,0.0,0.0,0.0,62.6,64.4,62.6,64.4,62.6,64.4,62.6,64.4,0.0,0.0,60.62,0.0,62.6,-7.199999999999996,-9.18,0.005,0.16866666666666666,0.0,386.6,True,2026-05-29 09:50:03-07:00
59.06,1,9,2026-05-29 16:50:55,37.08158,-121.59959,316.0,0.0,319.8,-12.6,0.0,,0.0,0.0,0.0,10.8,-0.9,6.6,0.0,134.0,0.1,-0.01,1.0,99.0,12.0,21.0,0.0,29.79,932.0,0.0,0.0,132.0,0.0,0.0,0.0,0.0,0.0,0.0,0.0,0.0,0.0,0.0,0.0,0.0,0.0,0.0,0.0,0.0,0.0,0.0,0.0,0.0,0.0,0.0,0.0,0.0,0.0,16.0,0.0,0.0,30.1,0.0,0.0,0.0,30.5,0.0,0.0,18.0,0.0,0.0,-0.6,17.2,14.3,0.0,0.0,0.0,0.0,17.0,18.0,17.0,18.0,17.0,18.0,17.0,18.0,0.0,0.0,-23.0,4.2,0.0,30.5,-7.0,0.0,0.0,0.0,1.525,1.411,0.0,15.9,0.0,0.0,0.0,,0.0,69.8,60.8,0.0,0.0,0.0,0.0,62.6,64.4,62.6,64.4,62.6,64.4,62.6,64.4,0.0,0.0,60.62,0.0,62.6,-7.199999999999996,-9.18,0.005,0.16866666666666666,0.0,386.6,True,2026-05-29 09:50:03-07:00
60.06,1,9,2026-05-29 16:50:56,37.08157,-121.59959,316.0,0.0,319.8,-12.6,0.0,,0.0,0.0,0.0,10.8,-0.9,6.5,0.0,134.0,0.1,-0.01,1.0,99.0,19.0,21.0,0.0,29.79,932.0,0.0,0.0,132.0,0.0,0.0,0.0,0.0,0.0,0.0,0.0,0.0,0.0,0.0,0.0,0.0,0.0,0.0,0.0,0.0,0.0,0.0,0.0,0.0,0.0,0.0,0.0,0.0,0.0,16.0,0.0,0.0,30.1,0.0,0.0,0.0,30.4,0.0,0.0,18.0,0.0,0.0,-0.6,17.2,14.3,0.0,0.0,0.0,0.0,17.0,18.0,17.0,18.0,17.0,18.0,17.0,18.0,0.0,0.0,-23.0,3.5,0.0,30.4,-7.0,0.0,0.0,0.0,1.526,1.411,0.0,15.9,0.0,0.0,0.0,,0.0,69.8,60.8,0.0,0.0,0.0,0.0,62.6,64.4,62.6,64.4,62.6,64.4,62.6,64.4,0.0,0.0,60.62,0.0,62.6,-7.199999999999996,-9.18,0.005,0.16866666666666666,0.0,386.6,True,2026-05-29 09:50:03-07:00
61.06,1,9,2026-05-29 16:50:57,37.08157,-121.59959,317.0,0.0,319.8,-12.6,0.0,,0.0,0.0,0.0,10.7,-0.8,6.5,0.0,134.0,0.1,-0.01,1.0,99.0,-2.0,21.0,0.0,29.79,932.0,0.0,0.0,132.0,0.0,0.0,0.0,0.0,0.0,0.0,0.0,0.0,0.0,0.0,0.0,0.0,0.0,0.0,0.0,0.0,0.0,0.0,0.0,0.0,0.0,0.0,0.0,0.0,0.0,16.0,0.0,0.0,30.1,0.0,0.0,0.0,30.2,0.0,0.0,18.0,0.0,0.0,-0.7,17.2,14.3,0.0,0.0,0.0,0.0,17.0,18.0,17.0,18.0,17.0,18.0,17.0,18.0,0.0,0.0,-23.0,2.9,0.0,30.2,-7.0,0.0,0.0,0.0,1.526,1.411,0.0,15.9,0.0,0.0,0.0,,0.0,69.8,60.8,0.0,0.0,0.0,0.0,62.6,64.4,62.6,64.4,62.6,64.4,62.6,64.4,0.0,0.0,60.62,0.0,62.6,-7.199999999999996,-9.18,0.005,0.16866666666666666,0.0,386.6,True,2026-05-29 09:50:03-07:00
62.06,1,9,2026-05-29 16:50:58,37.08157,-121.59959,317.0,0.0,319.8,-12.6,0.0,,0.0,0.0,0.0,10.7,-0.8,6.6,0.0,134.0,0.1,-0.01,1.0,99.0,-46.0,21.0,0.0,29.79,932.0,0.0,0.0,132.0,0.0,0.0,0.0,0.0,0.0,0.0,0.0,0.0,0.0,0.0,0.0,0.0,0.0,0.0,0.0,0.0,0.0,0.0,0.0,0.0,0.0,0.0,0.0,0.0,0.0,16.0,0.0,0.0,30.1,0.0,0.0,0.0,30.1,0.0,0.0,18.0,0.0,0.0,-0.7,17.2,14.3,0.0,0.0,0.0,0.0,17.0,18.0,17.0,18.0,17.0,18.0,17.0,18.0,0.0,0.0,-23.0,2.5,0.0,30.1,-7.0,0.0,0.0,0.0,1.526,1.411,0.0,15.9,0.0,0.0,0.0,,0.0,69.8,60.8,0.0,0.0,0.0,0.0,62.6,64.4,62.6,64.4,62.6,64.4,62.6,64.4,0.0,0.0,60.62,0.0,62.6,-7.199999999999996,-9.18,0.005,0.16866666666666666,0.0,386.6,True,2026-05-29 09:50:03-07:00
63.06,1,9,2026-05-29 16:50:59,37.08157,-121.59959,318.0,0.0,319.8,-12.6,0.0,,0.0,0.0,0.0,10.7,-0.9,6.5,0.0,134.0,0.1,-0.01,1.0,99.0,-38.0,21.0,0.0,29.79,932.0,0.0,0.0,132.0,0.0,0.0,0.0,0.0,0.0,0.0,0.0,0.0,0.0,0.0,0.0,0.0,0.0,0.0,0.0,0.0,0.0,0.0,0.0,0.0,0.0,0.0,0.0,0.0,0.0,16.0,0.0,0.0,30.1,0.0,0.0,0.0,30.0,0.0,0.0,18.0,0.0,0.0,-0.7,17.2,14.3,0.0,0.0,0.0,0.0,17.0,18.0,17.0,18.0,17.0,18.0,17.0,18.0,0.0,0.0,-23.0,2.2,0.0,30.0,-7.0,0.0,0.0,0.0,1.526,1.411,0.0,15.9,0.0,0.0,0.0,,0.0,69.8,60.8,0.0,0.0,0.0,0.0,62.6,64.4,62.6,64.4,62.6,64.4,62.6,64.4,0.0,0.0,60.62,0.0,62.6,-7.199999999999996,-9.18,0.005,0.16866666666666666,0.0,386.6,True,2026-05-29 09:50:03-07:00
64.06,1,9,2026-05-29 16:51:00,37.08157,-121.59959,318.0,0.0,319.8,-12.6,0.0,,0.0,0.0,0.0,10.7,-0.9,6.5,0.0,134.0,0.1,-0.02,1.0,99.0,-44.0,21.0,0.0,29.79,933.0,0.0,0.0,132.0,0.0,0.0,0.0,0.0,0.0,0.0,0.0,0.0,0.0,0.0,0.0,0.0,0.0,0.0,0.0,0.0,0.0,0.0,0.0,0.0,0.0,0.0,0.0,0.0,0.0,16.0,0.0,0.0,30.1,0.0,0.0,0.0,30.0,0.0,0.0,18.0,0.0,0.0,-0.7,17.2,14.3,0.0,0.0,0.0,0.0,17.0,18.0,17.0,18.0,17.0,18.0,17.0,18.0,0.0,0.0,-23.0,1.9,0.0,30.0,-7.0,0.0,0.0,0.0,1.526,1.411,0.0,15.9,0.0,0.0,0.0,,0.0,69.8,60.8,0.0,0.0,0.0,0.0,62.6,64.4,62.6,64.4,62.6,64.4,62.6,64.4,0.0,0.0,60.62,0.0,62.6,-7.199999999999996,-9.18,0.005,0.16866666666666666,0.0,386.6,True,2026-05-29 09:50:03-07:00
65.06,1,9,2026-05-29 16:51:01,37.08157,-121.59959,319.0,0.0,319.8,-12.6,0.0,,0.0,0.0,0.0,10.7,-0.9,6.5,0.0,134.0,0.1,-0.02,1.0,99.0,-66.0,21.0,0.0,29.79,933.0,0.0,0.0,132.0,0.0,0.0,0.0,0.0,0.0,0.0,0.0,0.0,0.0,0.0,0.0,0.0,0.0,0.0,0.0,0.0,0.0,0.0,0.0,0.0,0.0,0.0,0.0,0.0,0.0,16.0,0.0,0.0,30.1,0.0,0.0,0.0,29.8,0.0,0.0,18.0,0.0,0.0,-0.7,17.2,14.3,0.0,0.0,0.0,0.0,17.0,18.0,17.0,18.0,17.0,18.0,17.0,18.0,0.0,0.0,-23.0,1.7,0.0,29.8,-7.0,0.0,0.0,0.0,1.526,1.411,0.0,15.9,0.0,0.0,0.0,,0.0,69.8,60.8,0.0,0.0,0.0,0.0,62.6,64.4,62.6,64.4,62.6,64.4,62.6,64.4,0.0,0.0,60.62,0.0,62.6,-7.199999999999996,-9.18,0.005,0.16866666666666666,0.0,386.6,True,2026-05-29 09:50:03-07:00
66.06,1,9,2026-05-29 16:51:02,37.08157,-121.59959,320.0,0.0,319.8,-12.6,0.0,,0.0,0.0,0.0,10.7,-0.9,6.5,0.0,134.0,0.1,-0.02,1.0,99.0,-82.0,22.0,0.0,29.79,933.0,0.0,0.0,132.0,0.0,0.0,0.0,0.0,0.0,0.0,0.0,0.0,0.0,0.0,0.0,0.0,0.0,0.0,0.0,0.0,0.0,0.0,0.0,0.0,0.0,0.0,0.0,0.0,0.0,16.0,0.0,0.0,30.1,0.0,0.0,0.0,29.8,0.0,0.0,18.0,0.0,0.0,-0.7,17.2,14.3,0.0,0.0,0.0,0.0,17.0,18.0,17.0,18.0,17.0,18.0,17.0,18.0,0.0,0.0,-23.0,1.5,0.0,29.8,-7.0,0.0,0.0,0.0,1.525,1.411,0.0,15.9,0.0,0.0,0.0,,0.0,71.6,60.8,0.0,0.0,0.0,0.0,62.6,64.4,62.6,64.4,62.6,64.4,62.6,64.4,0.0,0.0,60.62,0.0,62.6,-8.999999999999993,-10.979999999999997,0.005,0.16866666666666666,0.0,386.6,True,2026-05-29 09:50:03-07:00
67.06,1,9,2026-05-29 16:51:03,37.08157,-121.5996,320.0,0.1,319.8,-12.6,0.0,,0.0,0.0,0.0,10.7,-0.9,6.5,0.0,134.0,0.1,-0.01,1.0,99.0,-59.0,22.0,0.0,29.79,941.0,0.0,0.0,132.0,0.0,0.0,0.0,0.0,0.0,0.0,0.0,0.0,0.0,0.0,0.0,0.0,0.0,0.0,0.0,0.0,0.0,0.0,0.0,0.0,0.0,0.0,0.0,0.0,0.0,16.0,0.0,0.0,30.1,0.0,0.0,0.0,29.7,0.0,0.0,18.0,0.0,0.0,-0.7,17.2,14.3,0.0,0.0,0.0,0.0,17.0,18.0,17.0,18.0,17.0,18.0,17.0,18.0,0.0,0.0,-23.0,1.4,0.0,29.7,-7.0,0.0,0.0,0.0,1.525,1.411,0.0,15.9,0.0,0.0,0.0,,0.0,71.6,60.8,0.0,0.0,0.0,0.0,62.6,64.4,62.6,64.4,62.6,64.4,62.6,64.4,0.0,0.0,60.62,0.0,62.6,-8.999999999999993,-10.979999999999997,0.005,0.253,0.0,386.6,True,2026-05-29 09:50:03-07:00
68.06,1,9,2026-05-29 16:51:04,37.08155,-121.5996,322.0,0.0,319.8,-12.6,0.0,,0.0,0.0,0.0,10.7,-0.9,6.5,0.0,134.0,0.1,-0.01,1.0,99.0,-95.0,22.0,0.0,29.79,941.0,0.0,0.0,132.0,0.0,0.0,0.0,0.0,0.0,0.0,0.0,0.0,0.0,0.0,0.0,0.0,0.0,0.0,0.0,0.0,0.0,0.0,0.0,0.0,0.0,0.0,0.0,0.0,0.0,16.0,0.0,0.0,30.1,0.0,0.0,0.0,29.6,0.0,0.0,18.0,0.0,0.0,-0.7,17.2,14.3,0.0,0.0,0.0,0.0,17.0,18.0,17.0,18.0,17.0,18.0,17.0,18.0,0.0,0.0,-23.0,1.3,0.0,29.6,-7.0,0.0,0.0,0.0,1.526,1.411,0.0,15.9,0.0,0.0,0.0,,0.0,71.6,60.8,0.0,0.0,0.0,0.0,62.6,64.4,62.6,64.4,62.6,64.4,62.6,64.4,0.0,0.0,60.62,0.0,62.6,-8.999999999999993,-10.979999999999997,0.005,0.3373333333333333,0.0,386.6,True,2026-05-29 09:50:03-07:00
69.06,1,9,2026-05-29 16:51:05,37.08155,-121.5996,323.0,0.0,319.8,-12.6,0.0,,0.0,0.0,0.0,10.7,-0.9,6.5,0.0,133.0,0.1,-0.01,1.0,99.0,-75.0,22.0,0.0,29.79,941.0,0.0,0.0,132.0,0.0,0.0,0.0,0.0,0.0,0.0,0.0,0.0,0.0,0.0,0.0,0.0,0.0,0.0,0.0,0.0,0.0,0.0,0.0,0.0,0.0,0.0,0.0,0.0,0.0,16.0,0.0,0.0,30.1,0.0,0.0,0.0,29.5,0.0,0.0,18.0,0.0,0.0,-0.7,17.2,14.3,0.0,0.0,0.0,0.0,17.0,18.0,17.0,18.0,17.0,18.0,17.0,18.0,0.0,0.0,-23.0,1.2,0.0,29.5,-7.0,0.0,0.0,0.0,1.526,1.411,0.0,15.9,0.0,0.0,0.0,,0.0,71.6,60.8,0.0,0.0,0.0,0.0,62.6,64.4,62.6,64.4,62.6,64.4,62.6,64.4,0.0,0.0,60.62,0.0,62.6,-8.999999999999993,-10.979999999999997,0.005,0.3373333333333333,0.0,386.6,True,2026-05-29 09:50:03-07:00
70.06,1,9,2026-05-29 16:51:06,37.08155,-121.5996,324.0,0.0,319.8,-12.6,0.0,,0.0,0.0,0.0,10.7,-0.9,6.5,0.0,132.0,0.1,-0.01,1.0,99.0,-65.0,22.0,0.0,29.79,939.0,0.0,0.0,132.0,0.0,0.0,0.0,0.0,0.0,0.0,0.0,0.0,0.0,0.0,0.0,0.0,0.0,0.0,0.0,0.0,0.0,0.0,0.0,0.0,0.0,0.0,0.0,0.0,0.0,16.0,0.0,0.0,30.1,0.0,0.0,0.0,29.4,0.0,0.0,18.0,0.0,0.0,-0.7,17.2,14.3,0.0,0.0,0.0,0.0,17.0,18.0,17.0,18.0,17.0,18.0,17.0,18.0,0.0,0.0,-23.0,1.2,0.0,29.4,-7.0,0.0,0.0,0.0,1.526,1.411,0.0,15.9,0.0,0.0,0.0,,0.0,71.6,60.8,0.0,0.0,0.0,0.0,62.6,64.4,62.6,64.4,62.6,64.4,62.6,64.4,0.0,0.0,60.62,0.0,62.6,-8.999999999999993,-10.979999999999997,0.005,0.3373333333333333,0.0,386.6,True,2026-05-29 09:50:03-07:00
71.06,1,9,2026-05-29 16:51:07,37.08155,-121.5996,325.0,0.0,319.8,-12.6,0.0,,0.0,0.0,0.0,10.6,-0.8,6.5,0.0,132.0,0.1,-0.02,1.0,99.0,-23.0,22.0,0.0,29.79,939.0,0.0,0.0,132.0,0.0,0.0,0.0,0.0,0.0,0.0,0.0,0.0,0.0,0.0,0.0,0.0,0.0,0.0,0.0,0.0,0.0,0.0,0.0,0.0,0.0,0.0,0.0,0.0,0.0,16.0,0.0,0.0,30.1,0.0,0.0,0.0,29.3,0.0,0.0,18.0,0.0,0.0,-0.7,17.2,14.3,0.0,0.0,0.0,0.0,17.0,18.0,17.0,18.0,17.0,18.0,17.0,18.0,0.0,0.0,-23.0,1.1,0.0,29.3,-7.0,0.0,0.0,0.0,1.526,1.411,0.0,15.9,0.0,0.0,0.0,,0.0,71.6,60.8,0.0,0.0,0.0,0.0,62.6,64.4,62.6,64.4,62.6,64.4,62.6,64.4,0.0,0.0,60.62,0.0,62.6,-8.999999999999993,-10.979999999999997,0.005,0.3373333333333333,0.0,386.6,True,2026-05-29 09:50:03-07:00
72.06,1,9,2026-05-29 16:51:08,37.08155,-121.5996,325.0,0.0,319.8,-12.6,0.0,,0.0,0.0,0.0,10.7,-0.9,6.5,0.0,132.0,0.1,-0.01,1.0,99.0,-10.0,22.0,0.0,29.79,939.0,0.0,0.0,132.0,0.0,0.0,0.0,0.0,0.0,0.0,0.0,0.0,0.0,0.0,0.0,0.0,0.0,0.0,0.0,0.0,0.0,0.0,0.0,0.0,0.0,0.0,0.0,0.0,0.0,16.0,0.0,0.0,30.1,0.0,0.0,0.0,29.2,0.0,0.0,18.0,0.0,0.0,-0.7,17.2,14.3,0.0,0.0,0.0,0.0,17.0,18.0,17.0,18.0,17.0,18.0,17.0,18.0,0.0,0.0,-23.0,1.1,0.0,29.2,-7.0,0.0,0.0,0.0,1.526,1.411,0.0,15.9,0.0,0.0,0.0,,0.0,71.6,60.8,0.0,0.0,0.0,0.0,62.6,64.4,62.6,64.4,62.6,64.4,62.6,64.4,0.0,0.0,60.62,0.0,62.6,-8.999999999999993,-10.979999999999997,0.005,0.3373333333333333,0.0,386.6,True,2026-05-29 09:50:03-07:00
73.06,1,9,2026-05-29 16:51:09,37.08155,-121.5996,326.0,0.1,319.8,-12.6,0.0,,0.0,0.0,0.0,10.7,-0.9,6.5,0.0,132.0,0.1,-0.01,1.0,99.0,-5.0,22.0,0.0,29.79,940.0,0.0,0.0,132.0,0.0,0.0,0.0,0.0,0.0,0.0,0.0,0.0,0.0,0.0,0.0,0.0,0.0,0.0,0.0,0.0,0.0,0.0,0.0,0.0,0.0,0.0,0.0,0.0,0.0,16.0,0.0,0.0,30.1,0.0,0.0,0.0,29.1,0.0,0.0,18.0,0.0,0.0,-0.7,17.2,14.3,0.0,0.0,0.0,0.0,17.0,18.0,17.0,18.0,17.0,18.0,17.0,18.0,0.0,0.0,-23.0,1.1,0.0,29.1,-7.0,0.0,0.0,0.0,1.526,1.411,0.0,15.9,0.0,0.0,0.0,,0.0,71.6,60.8,0.0,0.0,0.0,0.0,62.6,64.4,62.6,64.4,62.6,64.4,62.6,64.4,0.0,0.0,60.62,0.0,62.6,-8.999999999999993,-10.979999999999997,0.005,0.42166666666666663,0.0,386.6,True,2026-05-29 09:50:03-07:00
74.06,1,9,2026-05-29 16:51:10,37.08155,-121.59961,326.0,0.0,319.8,-12.6,0.0,,0.0,0.0,0.0,10.7,-0.8,6.5,0.0,132.0,0.1,-0.02,1.0,99.0,-2.0,22.0,0.0,29.79,940.0,0.0,0.0,7.0,0.0,0.0,0.0,0.0,0.0,0.0,0.0,0.0,0.0,0.0,0.0,0.0,0.0,0.0,0.0,0.0,0.0,0.0,0.0,0.0,0.0,0.0,0.0,0.0,0.0,16.0,0.0,0.0,30.1,0.0,0.0,0.0,29.1,0.0,0.0,18.0,0.0,0.0,-0.7,17.2,14.3,0.0,0.0,0.0,0.0,17.0,18.0,17.0,18.0,17.0,18.0,17.0,18.0,0.0,0.0,-23.0,1.0,0.0,29.1,-7.0,0.0,0.0,0.0,1.526,1.411,0.0,15.9,0.0,0.0,0.0,,0.0,71.6,60.8,0.0,0.0,0.0,0.0,62.6,64.4,62.6,64.4,62.6,64.4,62.6,64.4,0.0,0.0,60.62,0.0,62.6,-8.999999999999993,-10.979999999999997,0.005,0.506,0.0,386.6,True,2026-05-29 09:50:03-07:00
75.06,1,9,2026-05-29 16:51:11,37.08155,-121.59961,327.0,0.0,319.8,-12.6,0.0,,0.0,0.0,0.0,10.7,-0.8,6.5,0.0,132.0,0.1,-0.01,1.0,99.0,-2.0,22.0,0.0,29.79,940.0,0.0,0.0,7.0,0.0,0.0,0.0,0.0,0.0,0.0,0.0,0.0,0.0,0.0,0.0,0.0,0.0,0.0,0.0,0.0,0.0,0.0,0.0,0.0,0.0,0.0,0.0,0.0,0.0,16.0,0.0,0.0,30.1,0.0,0.0,0.0,29.0,0.0,0.0,18.0,0.0,0.0,-0.7,17.2,14.3,0.0,0.0,0.0,0.0,17.0,18.0,17.0,18.0,17.0,18.0,17.0,18.0,0.0,0.0,-23.0,1.0,0.0,29.0,-7.0,0.0,0.0,0.0,1.526,1.411,0.0,15.9,0.0,0.0,0.0,,0.0,71.6,60.8,0.0,0.0,0.0,0.0,62.6,64.4,62.6,64.4,62.6,64.4,62.6,64.4,0.0,0.0,60.62,0.0,62.6,-8.999999999999993,-10.979999999999997,0.005,0.506,0.0,386.6,True,2026-05-29 09:50:03-07:00
76.06,1,9,2026-05-29 16:51:12,37.08155,-121.59961,327.0,0.0,319.8,-12.6,0.0,,0.0,0.0,0.0,10.7,-0.8,6.6,0.0,132.0,0.1,-0.02,1.0,99.0,-41.0,22.0,0.0,29.79,940.0,0.0,0.0,7.0,0.0,0.0,0.0,0.0,0.0,0.0,0.0,0.0,0.0,0.0,0.0,0.0,0.0,0.0,0.0,0.0,0.0,0.0,0.0,0.0,0.0,0.0,0.0,0.0,0.0,16.0,0.0,0.0,30.1,0.0,0.0,0.0,28.9,0.0,0.0,18.0,0.0,0.0,-0.7,17.2,14.3,0.0,0.0,0.0,0.0,17.0,18.0,17.0,18.0,17.0,18.0,17.0,18.0,0.0,0.0,-23.0,1.0,0.0,28.9,-7.0,0.0,0.0,0.0,1.525,1.411,0.0,15.7,0.0,0.0,0.0,,0.0,71.6,60.8,0.0,0.0,0.0,0.0,62.6,64.4,62.6,64.4,62.6,64.4,62.6,64.4,0.0,0.0,60.26,0.0,62.6,-8.999999999999993,-11.339999999999996,0.005,0.506,0.0,386.6,True,2026-05-29 09:50:03-07:00
77.06,1,9,2026-05-29 16:51:13,37.08155,-121.59961,327.0,0.1,319.8,-12.6,0.0,,0.0,0.0,0.0,10.6,-0.8,6.7,0.0,130.0,0.1,-0.01,1.0,99.0,-56.0,22.0,0.0,29.79,940.0,0.0,0.0,7.0,0.0,0.0,0.0,0.0,0.0,0.0,0.0,0.0,0.0,0.0,0.0,0.0,0.0,0.0,0.0,0.0,0.0,0.0,0.0,0.0,0.0,0.0,0.0,0.0,0.0,15.0,343.0,343.0,30.3,0.0,0.0,0.0,28.6,0.0,0.0,18.0,0.0,0.0,-0.6,17.2,14.3,0.0,0.0,0.0,0.0,17.0,23.0,17.0,24.0,17.0,18.0,17.0,18.0,0.0,0.0,-18.0,1.0,0.0,28.6,-7.0,0.0,0.0,0.0,1.553,1.411,0.0,14.6,0.0,0.0,0.0,,0.0,71.6,59.0,0.0,0.0,0.0,0.0,62.6,73.4,62.6,75.2,62.6,64.4,62.6,64.4,0.0,0.0,58.28,343.0,62.6,-8.999999999999993,-13.319999999999993,0.005,0.5903333333333333,0.0,386.6,True,2026-05-29 09:50:03-07:00
78.06,1,9,2026-05-29 16:51:14,37.08155,-121.59961,326.0,0.1,319.8,-12.6,0.0,,0.0,0.0,0.0,10.6,-0.9,6.8,0.0,130.0,0.1,-0.01,1.0,99.0,-50.0,22.0,0.0,29.79,940.0,0.0,0.0,7.0,0.0,0.0,0.0,0.0,0.0,0.0,0.0,0.0,0.0,0.0,0.0,0.0,0.0,0.0,0.0,0.0,0.0,0.0,0.0,0.0,0.0,0.0,0.0,0.0,0.0,16.0,739.0,739.0,28.6,1.4,0.0,1.4,22.3,0.0,0.0,18.0,0.0,0.0,-0.6,17.2,14.3,0.0,0.0,0.0,0.0,17.0,39.0,17.0,27.0,17.0,32.0,17.0,35.0,0.0,0.0,-18.0,1.0,0.0,22.3,-7.0,0.0,0.0,0.0,1.566,1.382,0.3,15.9,0.0,0.0,3.0,L,0.0,71.6,60.8,0.0,0.0,0.0,0.0,62.6,102.2,62.6,80.6,62.6,89.6,62.6,95.0,0.0,0.0,60.62,739.0,62.6,-8.999999999999993,-10.979999999999997,0.005194444444444444,0.7589999999999999,0.07142857142857144,386.6,True,2026-05-29 09:50:03-07:00
79.06,1,9,2026-05-29 16:51:15,37.08155,-121.59961,326.0,0.1,319.8,-12.6,0.0,,0.0,0.0,0.0,10.6,-0.8,6.7,0.0,130.0,0.1,-0.01,1.0,99.0,32.0,22.0,0.0,29.79,937.0,0.0,0.0,7.0,0.0,0.0,0.0,0.0,0.0,0.0,0.0,0.0,0.0,0.0,0.0,0.0,0.0,0.0,0.0,0.0,0.0,0.0,0.0,0.0,0.0,0.0,0.0,0.0,9.0,16.0,1149.0,1149.0,20.7,2.1,0.0,2.1,24.1,0.0,0.0,18.0,0.0,0.0,-0.6,17.2,14.3,0.0,0.0,0.0,0.0,17.0,104.0,17.0,73.0,17.0,95.0,18.0,94.0,0.0,0.0,-18.0,1.0,0.0,24.1,-9.0,0.0,0.0,0.0,1.58,1.407,8.9,15.9,0.0,0.0,10.0,P,0.0,71.6,60.8,0.0,0.0,0.0,0.0,62.6,219.2,62.6,163.4,62.6,203.0,64.4,201.2,0.0,0.0,60.62,1149.0,63.05,-8.549999999999997,-10.979999999999997,0.005680555555555556,0.9276666666666666,0.047619047619047616,386.6,True,2026-05-29 09:50:03-07:00
80.06,1,9,2026-05-29 16:51:16,37.08155,-121.59961,326.0,0.1,319.8,-12.6,0.0,,0.0,0.0,0.0,10.6,-0.7,6.7,0.0,130.0,0.1,-0.01,1.0,99.0,43.0,22.0,0.0,29.79,938.0,0.0,0.0,7.0,0.0,0.0,0.0,0.0,0.0,0.0,0.0,0.0,0.0,0.0,0.0,0.0,0.0,0.0,0.0,0.0,0.0,0.0,0.0,0.0,0.0,0.0,0.0,0.0,11.0,16.0,1254.0,1254.0,18.3,2.6,0.0,2.6,24.3,0.0,0.0,18.0,0.0,0.0,-0.6,17.2,14.3,0.0,0.0,0.0,0.0,18.0,160.0,18.0,107.0,18.0,158.0,18.0,148.0,0.0,0.0,-17.0,1.0,0.0,24.3,-9.0,0.0,0.0,0.0,1.573,1.005,10.9,15.9,0.0,0.0,0.0,,0.0,71.6,60.8,0.0,0.0,0.0,0.0,64.4,320.0,64.4,224.6,64.4,316.4,64.4,298.4,0.0,0.0,60.62,1254.0,64.4,-7.199999999999989,-10.979999999999997,0.006333333333333333,1.0963333333333334,0.038461538461538464,386.6,True,2026-05-29 09:50:03-07:00
81.06,1,9,2026-05-29 16:51:17,37.08155,-121.59961,326.0,0.0,319.8,-12.6,0.0,,0.0,0.0,0.0,10.6,-0.7,6.7,0.0,130.0,0.1,-0.01,1.0,99.0,59.0,22.0,0.0,29.79,938.0,0.0,0.0,7.0,0.0,0.0,0.0,0.0,0.0,0.0,0.0,0.0,0.0,0.0,0.0,0.0,0.0,0.0,0.0,0.0,0.0,0.0,0.0,0.0,0.0,0.0,0.0,0.0,14.0,16.0,1304.0,1304.0,17.4,3.0,0.0,3.0,24.7,0.0,0.0,18.0,0.0,0.0,-0.6,17.2,14.3,0.0,0.0,0.0,0.0,18.0,211.0,18.0,139.0,18.0,209.0,19.0,195.0,0.0,0.0,-17.0,1.0,0.0,24.7,-9.0,0.0,0.0,0.0,1.573,1.095,13.9,15.9,0.0,0.0,0.0,,0.0,71.6,60.8,0.0,0.0,0.0,0.0,64.4,411.8,64.4,282.2,64.4,408.2,66.2,383.0,0.0,0.0,60.62,1304.0,64.85000000000001,-6.749999999999986,-10.979999999999997,0.0071111111111111115,1.1806666666666665,0.0,386.6,True,2026-05-29 09:50:03-07:00
82.06,1,9,2026-05-29 16:51:18,37.08155,-121.59961,325.0,0.0,319.8,-12.6,0.0,,0.0,0.0,0.0,10.6,-0.6,6.8,0.0,130.0,0.1,-0.01,1.0,99.0,58.0,22.0,0.0,29.79,938.0,0.0,0.0,7.0,0.0,0.0,0.0,0.0,0.0,0.0,0.0,0.0,0.0,0.0,0.0,0.0,0.0,0.0,0.0,0.0,0.0,0.0,0.0,0.0,0.0,0.0,0.0,0.0,17.0,16.0,1263.0,1263.0,16.7,3.2,0.0,3.2,25.0,0.0,0.0,18.0,0.0,0.0,-0.6,17.2,14.3,0.0,0.0,0.0,0.0,18.0,255.0,18.0,192.0,18.0,255.0,19.0,240.0,0.0,0.0,-17.0,1.0,0.0,25.0,-9.0,0.0,0.0,0.0,1.576,1.372,17.4,15.9,0.0,0.0,0.0,,0.0,71.6,60.8,0.0,0.0,0.0,0.0,64.4,491.0,64.4,377.6,64.4,491.0,66.2,464.0,0.0,0.0,60.62,1263.0,64.85000000000001,-6.749999999999986,-10.979999999999997,0.007972222222222223,1.1806666666666665,0.0,386.6,True,2026-05-29 09:50:03-07:00
83.06,1,9,2026-05-29 16:51:19,37.08154,-121.59961,325.0,0.1,319.8,-12.6,0.0,,0.0,0.0,0.0,10.7,-0.7,6.8,0.0,130.0,0.1,-0.01,1.0,99.0,71.0,22.0,0.0,29.79,948.0,0.0,0.0,7.0,0.0,0.0,0.0,0.0,0.0,0.0,0.0,0.0,0.0,0.0,0.0,0.0,0.0,0.0,0.0,0.0,0.0,0.0,0.0,0.0,0.0,0.0,0.0,0.0,22.0,16.0,1154.0,1154.0,15.0,3.2,0.0,3.2,25.2,0.0,0.0,18.0,0.0,0.0,-0.6,17.2,14.3,0.0,0.0,0.0,0.0,19.0,289.0,19.0,234.0,19.0,291.0,20.0,274.0,0.0,0.0,-17.0,1.0,0.0,25.2,-9.0,0.0,0.0,0.0,1.576,1.409,21.6,16.0,0.0,0.0,0.0,,0.0,71.6,60.8,0.0,0.0,0.0,0.0,66.2,552.2,66.2,453.2,66.2,555.8,68.0,525.2,0.0,0.0,60.8,1154.0,66.64999999999999,-4.950000000000003,-10.799999999999997,0.008861111111111111,1.265,0.03125,386.6,True,2026-05-29 09:50:03-07:00
84.06,1,9,2026-05-29 16:51:20,37.08154,-121.5996,324.0,0.0,319.8,-12.6,0.0,,0.0,0.0,0.0,10.7,-0.8,6.8,0.0,130.0,0.1,-0.01,1.0,99.0,82.0,22.0,0.0,29.79,948.0,0.0,0.0,7.0,0.0,0.0,0.0,0.0,0.0,0.0,0.0,0.0,0.0,0.0,0.0,0.0,0.0,0.0,0.0,0.0,0.0,0.0,0.0,0.0,0.0,0.0,0.0,0.0,26.0,16.0,1088.0,1088.0,14.5,3.2,0.0,3.2,25.3,0.0,0.0,18.0,0.0,0.0,-0.6,17.2,14.3,0.0,0.0,0.0,0.0,19.0,316.0,19.0,267.0,19.0,320.0,20.0,302.0,0.0,0.0,-17.0,1.0,0.0,25.3,-9.0,0.0,0.0,0.0,1.576,1.41,26.5,16.0,0.0,0.0,0.0,,0.0,71.6,60.8,0.0,0.0,0.0,0.0,66.2,600.8,66.2,512.6,66.2,608.0,68.0,575.6,0.0,0.0,60.8,1088.0,66.64999999999999,-4.950000000000003,-10.799999999999997,0.00975,1.3493333333333333,0.0,386.6,True,2026-05-29 09:50:03-07:00
85.06,1,9,2026-05-29 16:51:21,37.08154,-121.5996,324.0,0.0,319.8,-12.6,0.0,,0.0,0.0,0.0,10.7,-0.8,6.7,0.0,131.0,0.1,-0.01,1.0,99.0,94.0,22.0,0.0,29.79,950.0,0.0,0.0,7.0,0.0,0.0,0.0,0.0,0.0,0.0,0.0,0.0,0.0,0.0,0.0,0.0,0.0,0.0,0.0,0.0,0.0,0.0,0.0,0.0,0.0,0.0,0.0,0.0,32.0,16.0,978.0,978.0,14.2,3.1,0.0,3.1,25.4,0.0,0.0,18.0,0.0,0.0,-0.6,17.2,14.3,0.0,0.0,0.0,0.0,19.0,338.0,19.0,296.0,19.0,345.0,21.0,326.0,0.0,0.0,-17.0,1.0,0.0,25.4,-9.0,0.0,0.0,0.0,1.576,1.41,32.0,16.0,0.0,0.0,0.0,,0.0,71.6,60.8,0.0,0.0,0.0,0.0,66.2,640.4,66.2,564.8,66.2,653.0,69.8,618.8,0.0,0.0,60.8,978.0,67.1,-4.5,-10.799999999999997,0.010625,1.3493333333333333,0.0,386.6,True,2026-05-29 09:50:03-07:00
86.06,1,9,2026-05-29 16:51:22,37.08154,-121.5996,323.0,0.0,319.8,-12.6,0.0,,0.0,0.0,0.0,10.7,-0.8,6.7,0.0,134.0,0.1,-0.01,1.0,99.0,105.0,22.0,0.0,29.79,953.0,0.0,0.0,7.0,0.0,0.0,0.0,0.0,0.0,0.0,0.0,0.0,0.0,0.0,0.0,0.0,0.0,0.0,0.0,0.0,0.0,0.0,0.0,0.0,0.0,0.0,0.0,0.0,38.0,16.0,822.0,822.0,14.3,3.0,0.0,3.0,25.5,0.0,0.0,18.0,0.0,0.0,-0.6,17.2,14.3,0.0,0.0,0.0,0.0,20.0,353.0,19.0,320.0,20.0,362.0,21.0,344.0,0.0,0.0,-17.0,1.0,0.0,25.5,-9.0,0.0,0.0,0.0,1.576,1.409,38.2,16.0,0.0,0.0,0.0,,0.0,71.6,60.8,0.0,0.0,0.0,0.0,68.0,667.4,66.2,608.0,68.0,683.6,69.8,651.2,0.0,0.0,60.8,822.0,68.0,-3.5999999999999943,-10.799999999999997,0.011472222222222222,1.3493333333333333,0.0,386.6,True,2026-05-29 09:50:03-07:00
87.06,1,9,2026-05-29 16:51:23,37.08154,-121.5996,323.0,0.0,319.8,-12.6,0.0,,0.0,0.0,0.0,10.6,-0.8,6.8,0.0,135.0,0.1,-0.02,1.0,99.0,96.0,22.0,0.0,29.79,954.0,0.0,0.0,7.0,0.0,0.0,0.0,0.0,0.0,0.0,0.0,0.0,0.0,0.0,0.0,0.0,0.0,0.0,0.0,0.0,0.0,0.0,0.0,0.0,0.0,0.0,0.0,0.0,45.0,16.0,823.0,823.0,15.3,2.8,0.0,2.8,25.5,0.0,0.0,18.0,0.0,0.0,-0.6,17.2,14.3,0.0,0.0,0.0,0.0,20.0,367.0,20.0,337.0,20.0,374.0,22.0,358.0,0.0,0.0,-17.0,0.0,0.0,25.5,-9.0,0.0,0.0,0.0,1.576,1.409,44.6,16.0,0.0,0.0,0.0,,0.0,71.6,60.8,0.0,0.0,0.0,0.0,68.0,692.6,68.0,638.6,68.0,705.2,71.6,676.4,0.0,0.0,60.8,823.0,68.9,-2.6999999999999886,-10.799999999999997,0.012277777777777778,1.3493333333333333,0.0,386.6,True,2026-05-29 09:50:03-07:00
88.06,1,9,2026-05-29 16:51:24,37.08154,-121.5996,322.0,0.0,319.8,-12.6,0.0,,0.0,0.0,0.0,10.6,-0.8,6.8,0.0,136.0,0.1,-0.01,1.0,99.0,96.0,22.0,0.0,29.79,957.0,0.0,0.0,7.0,0.0,0.0,0.0,0.0,0.0,0.0,0.0,0.0,0.0,0.0,0.0,0.0,0.0,0.0,0.0,0.0,0.0,0.0,0.0,0.0,0.0,0.0,0.0,0.0,51.0,16.0,832.0,832.0,15.3,2.7,0.0,2.7,25.5,0.0,0.0,18.0,0.0,0.0,-0.6,17.2,14.3,0.0,0.0,0.0,0.0,21.0,379.0,20.0,352.0,21.0,387.0,22.0,370.0,0.0,0.0,-17.0,0.0,0.0,25.5,-9.0,0.0,0.0,0.0,1.576,1.409,51.1,16.0,0.0,0.0,0.0,,0.0,71.6,60.8,0.0,0.0,0.0,0.0,69.8,714.2,68.0,665.6,69.8,728.6,71.6,698.0,0.0,0.0,60.8,832.0,69.8,-1.7999999999999972,-10.799999999999997,0.013041666666666667,1.3493333333333333,0.0,386.6,True,2026-05-29 09:50:03-07:00
89.06,1,9,2026-05-29 16:51:25,37.08154,-121.5996,321.0,0.0,319.8,-12.6,0.0,,0.0,0.0,0.0,10.6,-0.8,6.8,0.0,137.0,0.1,-0.02,1.0,99.0,70.0,22.0,0.0,29.79,958.0,0.0,0.0,7.0,0.0,0.0,0.0,0.0,0.0,0.0,0.0,0.0,0.0,0.0,0.0,0.0,0.0,0.0,0.0,0.0,0.0,0.0,0.0,0.0,0.0,0.0,0.0,0.0,57.0,16.0,828.0,828.0,15.5,2.6,0.0,2.6,25.5,0.0,0.0,18.0,0.0,0.0,-0.3,17.2,14.3,0.0,0.0,0.0,0.0,21.0,390.0,21.0,364.0,21.0,397.0,23.0,384.0,0.0,0.0,-17.0,0.0,0.0,25.5,-9.0,0.0,0.0,0.0,1.576,1.409,57.1,16.2,0.0,0.0,0.0,,0.0,71.6,60.8,0.0,0.0,0.0,0.0,69.8,734.0,69.8,687.2,69.8,746.6,73.4,723.2,0.0,0.0,61.16,828.0,70.7,-0.8999999999999915,-10.439999999999998,0.013777777777777778,1.3493333333333333,0.0,386.6,True,2026-05-29 09:50:03-07:00
90.06,1,9,2026-05-29 16:51:26,37.08154,-121.5996,321.0,0.0,319.8,-12.6,0.0,,0.0,0.0,0.0,10.6,-0.8,6.7,0.0,138.0,0.2,-0.01,1.0,99.0,51.0,22.0,0.0,29.79,959.0,0.0,0.0,7.0,0.0,0.0,0.0,0.0,0.0,0.0,0.0,0.0,0.0,0.0,0.0,0.0,0.0,0.0,0.0,0.0,0.0,0.0,0.0,0.0,0.0,0.0,0.0,0.0,62.0,17.0,805.0,805.0,15.7,2.5,0.0,2.5,25.6,0.0,0.0,18.0,0.0,0.0,18.7,17.2,14.3,0.0,0.0,0.0,0.0,22.0,399.0,22.0,375.0,22.0,406.0,24.0,393.0,0.0,0.0,-17.0,0.0,0.0,25.6,-9.0,0.0,0.0,0.0,1.576,1.409,62.2,16.8,0.0,0.0,0.0,,0.0,71.6,62.6,0.0,0.0,0.0,0.0,71.6,750.2,71.6,707.0,71.6,762.8,75.2,739.4,0.0,0.0,62.24,805.0,72.5,0.9000000000000057,-9.359999999999992,0.014486111111111111,1.3493333333333333,0.0,386.6,True,2026-05-29 09:50:03-07:00
91.06,1,9,2026-05-29 16:51:27,37.08154,-121.5996,320.0,0.0,319.8,-12.6,0.0,,0.0,0.0,0.0,10.7,-0.8,6.7,0.0,138.0,0.2,-0.01,1.0,99.0,41.0,22.0,0.0,29.79,959.0,0.0,0.0,7.0,0.0,0.0,0.0,0.0,0.0,0.0,0.0,0.0,0.0,0.0,0.0,0.0,0.0,0.0,0.0,0.0,0.0,0.0,0.0,0.0,0.0,0.0,0.0,0.0,66.0,17.0,798.0,798.0,15.9,2.5,0.0,2.5,25.6,0.0,0.0,18.0,0.0,0.0,30.5,17.2,14.3,0.0,0.0,0.0,0.0,22.0,407.0,22.0,384.0,22.0,413.0,24.0,401.0,0.0,0.0,-17.0,0.0,0.0,25.6,-9.0,0.0,0.0,0.0,1.576,1.409,66.1,16.8,0.0,0.0,0.0,,0.0,71.6,62.6,0.0,0.0,0.0,0.0,71.6,764.6,71.6,723.2,71.6,775.4,75.2,753.8,0.0,0.0,62.24,798.0,72.5,0.9000000000000057,-9.359999999999992,0.015180555555555557,1.3493333333333333,0.0,386.6,True,2026-05-29 09:50:03-07:00
92.06,1,9,2026-05-29 16:51:28,37.08154,-121.5996,320.0,0.0,319.8,-12.6,0.0,,0.0,0.0,0.0,10.7,-0.8,6.6,0.0,138.0,0.1,-0.02,1.0,99.0,24.0,22.0,0.0,29.79,959.0,0.0,0.0,7.0,0.0,0.0,0.0,0.0,0.0,0.0,0.0,0.0,0.0,0.0,0.0,0.0,0.0,0.0,0.0,0.0,0.0,0.0,0.0,0.0,0.0,0.0,0.0,0.0,69.0,17.0,796.0,796.0,16.0,2.5,0.0,2.5,25.6,0.0,0.0,18.0,0.0,0.0,37.3,17.2,14.3,0.0,0.0,0.0,0.0,23.0,413.0,22.0,393.0,23.0,421.0,24.0,410.0,0.0,0.0,-17.0,0.0,0.0,25.6,-9.0,0.0,0.0,0.0,1.576,1.409,69.0,16.8,0.0,0.0,0.0,,0.0,71.6,62.6,0.0,0.0,0.0,0.0,73.4,775.4,71.6,739.4,73.4,789.8,75.2,770.0,0.0,0.0,62.24,796.0,73.4,1.8000000000000114,-9.359999999999992,0.015875,1.3493333333333333,0.0,386.6,True,2026-05-29 09:50:03-07:00
