Session Time,GPS Fix Quality,Number of Satellites,GPS Date & Time,Latitude (deg),Longitude (deg),GPS Altitude (feet),Ground Speed (knots),Ground Track (deg),Mag Var (deg),Cross Track Error (NM),Destination Waypoint ID,Range to Destination (NM),Bearing to Destination (deg),System Time,Pitch (deg),Roll (deg),Magnetic Heading (deg),Indicated Airspeed (knots),Pressure Altitude (ft),Turn Rate (deg/s),Lateral Accel (g),Vertical Accel(g),Angle of Attack (%),Vertical Speed (ft/min),OAT (deg C),True Airspeed (knots),Barometer Setting (inHg),Density Altitude (ft),Wind Direction (deg),Wind Speed (knots),Heading Bug (deg),Altitude Bug (ft),Airspeed Bug (knots),Vertical Speed Bug (ft/min),Course (deg),CDI Source Type,CDI Source Port,CDI Scale (NM),CDI Deflection (%),Glideslope (%),AP Engaged,AP Roll Mode,AP Roll Force,AP Roll Position (steps),AP Roll Slip (bool),AP Pitch Force,AP Pitch Position (steps),AP Pitch Slip (bool),AP Yaw Force,AP Yaw Position,AP Yaw Slip (bool),Transponder Status,Transponder Reply (bool),Transponder Identing (bool),Transponder Code (octal),Oil Pressure (PSI),Oil Temp (deg C),RPM L,RPM R,Manifold Pressure (inHg),Fuel Flow 1 (gal/hr),Fuel Flow 2 (gal/hr),Total Fuel Flow (gal/hr),Fuel Pressure (PSI),Fuel Level L (gal),Fuel Level R (gal),Fuel Remaining (gal),Volts 1,Volts 2,Amps,Hobbs Time,Tach Time,Thermocouple 1 (deg C),Thermocouple 2 (deg C),Thermocouple 3 (deg C),Thermocouple 4 (deg C),CHT 4 (deg C),EGT 4 (deg C),CHT 3 (deg C),EGT 3 (deg C),CHT 2 (deg C),EGT 2 (deg C),CHT 1 (deg C),EGT 1 (deg C),Thermocouple 13 (deg C),Thermocouple 14 (deg C),ELEV POSITION (%),CO PPM PRESSURE (PSI),GP Input 3,FUEL PRESSURE (PSI),AILERN POSITION (%),CANOPY CONTACT (V),GP Input 7,GP Input 8,LEFT LEVEL (Sensor V),RIGHT LEVEL (Sensor V),OIL PRESSURE (PSI),OIL TEMPERATURE (deg C),GP Input 13,Contacts,Percent Power,EGT Leaning State,Unnamed: 103,RPM,Flight ID
4.06,1.0,6.0,2026-03-14 21:04:08,37.08154,-121.59969,423.0,0.0,36.1,-12.6,,,,,21:04:07,10.7,-1.1,24.2,0.0,163.0,0.1,-0.02,1.0,,-90.0,25.0,0.0,30.03,1355.0,,,330.0,,125.0,-1000.0,,0.0,0.0,,,,,,,,,,,,,,,,,,,,,0.0,0.0,,0.0,,0.0,,,,24.6,0.0,0.0,-0.7,6.2,4.7,,,,,18.0,19.0,18.0,19.0,18.0,19.0,18.0,19.0,,,13.0,254.4,,0.0,-11.0,4.998,,,1.302,0.85,0.0,17.0,,,,,,0.0,2026-03-14 14:04:08-07:00
5.06,1.0,6.0,2026-03-14 21:04:08,37.08155,-121.59969,377.0,0.0,36.1,-12.6,,,,,21:04:08,10.7,-1.0,24.1,0.0,163.0,0.1,-0.02,1.0,,-71.0,25.0,0.0,30.03,1355.0,,,330.0,,,,,0.0,0.0,,,,,,,,,,,,,,,,,,,0.0,17.0,0.0,0.0,30.2,0.0,,0.0,0.0,,,24.6,0.0,0.0,-0.7,6.2,4.7,,,,,18.0,19.0,18.0,19.0,18.0,19.0,18.0,19.0,,,14.0,254.4,,0.0,-11.0,4.998,,,1.302,0.85,0.0,17.0,,,,,,0.0,2026-03-14 14:04:08-07:00
6.06,1.0,6.0,2026-03-14 21:04:09,37.08154,-121.59969,378.0,0.0,36.1,-12.6,,,,,21:04:09,10.7,-1.0,24.2,0.0,162.0,0.1,-0.02,1.0,,-45.0,25.0,0.0,30.03,1355.0,,,330.0,,,,,0.0,0.0,,,,,,,,,,,,,,,,,,,0.0,17.0,0.0,0.0,30.2,0.0,,0.0,0.0,,,24.6,0.0,0.0,-0.7,6.2,4.7,,,,,18.0,19.0,18.0,19.0,18.0,19.0,18.0,19.0,,,14.0,254.4,,0.0,-11.0,4.998,,,1.302,0.85,0.0,17.0,,,,,,0.0,2026-03-14 14:04:08-07:00
7.06,1.0,6.0,2026-03-14 21:04:10,37.08154,-121.59969,378.0,0.0,36.1,-12.6,,,,,21:04:10,10.7,-1.0,24.2,0.0,162.0,0.1,-0.02,1.0,,-32.0,25.0,0.0,30.03,1352.0,,,330.0,,,,,0.0,0.0,,,,,,,,,,,,,,,,,,,0.0,17.0,0.0,0.0,30.2,0.0,,0.0,0.0,,,24.6,0.0,0.0,-0.7,6.2,4.7,,,,,18.0,19.0,18.0,19.0,18.0,19.0,18.0,20.0,,,14.0,254.4,,0.0,-11.0,4.998,,,1.302,0.85,0.0,16.9,,,,,,0.0,2026-03-14 14:04:08-07:00
8.06,1.0,6.0,2026-03-14 21:04:11,37.08154,-121.59969,378.0,0.0,36.1,-12.6,,,,,21:04:11,10.7,-1.1,24.1,0.0,162.0,0.1,-0.02,1.0,,-35.0,25.0,0.0,30.03,1352.0,,,330.0,,,,,0.0,0.0,,,,,,,,,,,,,,,,,,,0.0,17.0,0.0,0.0,30.2,0.0,,0.0,0.0,,,24.6,0.0,0.0,-0.7,6.2,4.7,,,,,18.0,19.0,18.0,19.0,18.0,19.0,18.0,20.0,,,14.0,254.4,,0.0,-10.0,4.998,,,1.302,0.85,0.0,16.9,,,,,,0.0,2026-03-14 14:04:08-07:00
9.06,1.0,8.0,2026-03-14 21:04:12,37.08161,-121.59965,397.0,0.1,36.1,-12.6,,,,,21:04:12,10.7,-1.1,24.1,0.0,160.0,0.0,-0.02,1.0,,-41.0,25.0,0.0,30.03,1352.0,,,330.0,,,,,0.0,0.0,,,,,,,,,,,,,,,,,,,0.0,17.0,0.0,0.0,30.2,0.0,,0.0,0.0,,,24.6,0.0,0.0,-0.7,6.2,4.7,,,,,18.0,19.0,18.0,19.0,18.0,19.0,18.0,20.0,,,14.0,254.4,,0.0,-11.0,4.998,,,1.302,0.85,0.0,16.9,,,,,,0.0,2026-03-14 14:04:08-07:00
10.06,1.0,8.0,2026-03-14 21:04:13,37.08161,-121.59965,396.0,0.1,36.1,-12.6,,,,,21:04:13,10.7,-1.1,24.1,0.0,160.0,0.1,-0.02,1.0,,-26.0,25.0,0.0,30.03,1360.0,,,330.0,,,,,0.0,0.0,,,,,,,,,,,,,,,,,,,0.0,17.0,0.0,0.0,30.2,0.0,,0.0,0.0,,,24.6,0.0,0.0,-0.7,6.2,4.7,,,,,18.0,19.0,18.0,19.0,18.0,19.0,18.0,20.0,,,14.0,254.4,,0.0,-11.0,4.998,,,1.302,0.85,0.0,16.9,,,,,,0.0,2026-03-14 14:04:08-07:00
11.06,1.0,8.0,2026-03-14 21:04:14,37.08161,-121.59966,395.0,0.0,36.1,-12.6,,,,,21:04:14,10.7,-1.1,24.1,0.0,160.0,0.1,-0.02,1.0,,-32.0,25.0,0.0,30.03,1360.0,,,330.0,,,,,0.0,0.0,,,,,,,,,,,,,,,,,,,0.0,17.0,0.0,0.0,30.2,0.0,,0.0,0.0,,,24.6,0.0,0.0,-0.7,6.2,4.7,,,,,18.0,19.0,18.0,19.0,18.0,19.0,18.0,20.0,,,14.0,254.4,,0.0,-11.0,4.998,,,1.302,0.85,0.0,16.9,,,,,,0.0,2026-03-14 14:04:08-07:00
12.06,1.0,8.0,2026-03-14 21:04:15,37.08166,-121.59958,394.0,0.0,36.1,-12.6,,,,,21:04:15,10.7,-1.1,24.1,0.0,159.0,0.1,-0.02,1.0,,-41.0,25.0,0.0,30.03,1360.0,,,330.0,,,,,0.0,0.0,,,,,,,,,,,,,,,,,,,0.0,17.0,0.0,0.0,30.2,0.0,,0.0,0.0,,,24.6,0.0,0.0,-0.7,6.2,4.7,,,,,18.0,19.0,18.0,19.0,18.0,19.0,18.0,20.0,,,14.0,254.4,,0.0,-11.0,4.998,,,1.304,0.844,0.0,16.9,,,,,,0.0,2026-03-14 14:04:08-07:00
13.06,1.0,9.0,2026-03-14 21:04:16,37.08165,-121.59958,360.0,0.0,36.1,-12.6,,,,,21:04:16,10.7,-1.1,24.1,0.0,157.0,0.1,-0.02,1.0,,-69.0,25.0,0.0,30.03,1358.0,,,330.0,,,,,0.0,0.0,,,,,,,,,,,,,,,,,,,0.0,17.0,0.0,0.0,30.2,0.0,,0.0,0.0,,,24.6,0.0,0.0,-0.7,6.2,4.7,,,,,18.0,19.0,18.0,19.0,18.0,19.0,18.0,20.0,,,14.0,254.4,,0.0,-11.0,4.998,,,1.302,0.84,0.0,16.9,,,,,,0.0,2026-03-14 14:04:08-07:00
14.06,1.0,9.0,2026-03-14 21:04:17,37.08165,-121.59959,359.0,0.0,36.1,-12.6,,,,,21:04:17,10.7,-1.0,24.1,0.0,156.0,0.1,-0.02,1.0,,-68.0,25.0,0.0,30.03,1358.0,,,330.0,,,,,0.0,0.0,,,,,,,,,,,,,,,,,,,0.0,17.0,0.0,0.0,30.2,0.0,,0.0,0.0,,,24.6,0.0,0.0,-0.7,6.2,4.7,,,,,18.0,19.0,18.0,19.0,18.0,19.0,19.0,20.0,,,14.0,254.4,,0.0,-11.0,4.998,,,1.302,0.84,0.0,16.9,,,,,,0.0,2026-03-14 14:04:08-07:00
15.06,1.0,9.0,2026-03-14 21:04:18,37.08165,-121.59959,357.0,0.0,36.1,-12.6,,,,,21:04:18,10.7,-1.1,24.1,0.0,154.0,0.1,-0.02,1.0,,-86.0,25.0,0.0,30.03,1358.0,,,330.0,,,,,0.0,0.0,,,,,,,,,,,,,,,,,,,0.0,17.0,0.0,0.0,30.2,0.0,,0.0,0.0,,,24.6,0.0,0.0,-0.7,6.2,4.7,,,,,18.0,19.0,18.0,19.0,18.0,19.0,19.0,20.0,,,14.0,254.4,,0.0,-11.0,4.998,,,1.302,0.841,0.0,16.9,,,,,,0.0,2026-03-14 14:04:08-07:00
16.06,1.0,9.0,2026-03-14 21:04:19,37.08165,-121.59959,356.0,0.0,36.1,-12.6,,,,,21:04:19,10.8,-1.1,24.0,0.0,153.0,0.1,-0.02,1.0,,-75.0,25.0,0.0,30.03,1363.0,,,330.0,,,,,0.0,0.0,,,,,,,,,,,,,,,,,,,0.0,17.0,0.0,0.0,30.2,0.0,,0.0,0.0,,,24.6,0.0,0.0,-0.7,6.2,4.7,,,,,18.0,19.0,18.0,19.0,18.0,19.0,19.0,20.0,,,14.0,254.4,,0.0,-11.0,4.998,,,1.304,0.841,0.0,16.9,,,,,,0.0,2026-03-14 14:04:08-07:00
17.06,1.0,9.0,2026-03-14 21:04:20,37.08165,-121.59959,354.0,0.0,36.1,-12.6,,,,,21:04:20,10.8,-1.1,24.0,0.0,151.0,0.0,-0.01,1.0,,-100.0,25.0,0.0,30.03,1363.0,,,330.0,,,,,0.0,0.0,,,,,,,,,,,,,,,,,,,0.0,17.0,0.0,0.0,30.2,0.0,,0.0,0.0,,,24.6,0.0,0.0,-0.7,6.2,4.7,,,,,18.0,19.0,18.0,19.0,18.0,19.0,19.0,20.0,,,14.0,254.4,,0.0,-11.0,4.998,,,1.302,0.841,0.0,16.9,,,,,,0.0,2026-03-14 14:04:08-07:00
18.06,1.0,9.0,2026-03-14 21:04:21,37.08165,-121.59959,353.0,0.0,36.1,-12.6,,,,,21:04:21,10.8,-1.1,24.0,0.0,148.0,0.0,-0.02,1.0,,-131.0,25.0,0.0,30.03,1363.0,,,330.0,,,,,0.0,0.0,,,,,,,,,,,,,,,,,,,0.0,17.0,0.0,0.0,30.2,0.0,,0.0,0.0,,,24.6,0.0,0.0,-0.7,6.2,4.7,,,,,18.0,19.0,18.0,19.0,18.0,19.0,19.0,19.0,,,14.0,254.4,,0.0,-11.0,4.998,,,1.302,0.84,0.0,16.9,,,,,,0.0,2026-03-14 14:04:08-07:00
19.06,1.0,9.0,2026-03-14 21:04:22,37.08165,-121.59959,352.0,0.0,36.1,-12.6,,,,,21:04:22,10.8,-1.1,23.9,0.0,146.0,0.0,-0.02,1.0,,-115.0,25.0,0.0,30.03,1362.0,,,330.0,,,,,0.0,0.0,,,,,,,,,,,,,,,,,,,0.0,17.0,0.0,0.0,30.2,0.0,,0.0,0.0,,,24.6,0.0,0.0,-0.7,6.2,4.7,,,,,18.0,19.0,18.0,19.0,18.0,19.0,19.0,20.0,,,14.0,254.4,,0.0,-11.0,4.998,,,1.302,0.84,0.0,16.9,,,,,,0.0,2026-03-14 14:04:08-07:00
20.06,1.0,9.0,2026-03-14 21:04:23,37.08165,-121.59959,351.0,0.0,36.1,-12.6,,,,,21:04:23,10.8,-1.1,23.9,0.0,145.0,0.1,-0.02,1.0,,-99.0,25.0,0.0,30.03,1361.0,,,330.0,,,,,0.0,0.0,,,,,,,,,,,,,,,,,,,0.0,17.0,0.0,0.0,30.2,0.0,,0.0,0.0,,,24.6,0.0,0.0,-0.8,6.2,4.7,,,,,18.0,19.0,18.0,19.0,18.0,19.0,19.0,19.0,,,14.0,254.4,,0.0,-11.0,4.998,,,1.304,0.841,0.0,16.9,,,,,,0.0,2026-03-14 14:04:08-07:00
21.06,1.0,9.0,2026-03-14 21:04:24,37.08165,-121.59959,351.0,0.0,36.1,-12.6,,,,,21:04:24,10.8,-1.1,23.9,0.0,144.0,0.0,-0.02,1.0,,-100.0,25.0,0.0,30.03,1359.0,,,330.0,,,,,0.0,0.0,,,,,,,,,,,,,,,,,,,0.0,17.0,0.0,0.0,30.2,0.0,,0.0,0.0,,,24.6,0.0,0.0,-0.8,6.2,4.7,,,,,18.0,19.0,18.0,19.0,18.0,19.0,19.0,20.0,,,14.0,254.4,,0.0,-10.0,4.998,,,1.304,0.841,0.0,16.9,,,,,,0.0,2026-03-14 14:04:08-07:00
22.06,1.0,9.0,2026-03-14 21:04:25,37.08165,-121.59959,350.0,0.0,36.1,-12.6,,,,,21:04:25,10.8,-1.1,24.0,0.0,142.0,0.1,-0.02,1.0,,-87.0,25.0,0.0,30.03,1357.0,,,330.0,,,,,0.0,0.0,,,,,,,,,,,,,,,,,,,0.0,17.0,0.0,0.0,30.2,0.0,,0.0,0.0,,,24.6,0.0,0.0,-0.8,6.2,4.7,,,,,18.0,19.0,18.0,19.0,18.0,19.0,19.0,19.0,,,14.0,254.4,,0.0,-10.0,4.998,,,1.302,0.841,0.0,16.9,,,,,,0.0,2026-03-14 14:04:08-07:00
23.06,1.0,9.0,2026-03-14 21:04:26,37.08165,-121.59959,349.0,0.0,36.1,-12.6,,,,,21:04:26,10.8,-1.1,24.0,0.0,140.0,0.1,-0.02,1.0,,-89.0,25.0,0.0,30.03,1355.0,,,330.0,,,,,0.0,0.0,,,,,,,,,,,,,,,,,,,0.0,17.0,0.0,0.0,30.2,0.0,,0.0,0.0,,,24.6,0.0,0.0,-0.8,6.2,4.7,,,,,18.0,19.0,18.0,19.0,18.0,19.0,19.0,19.0,,,14.0,254.4,,0.0,-10.0,4.998,,,1.302,0.841,0.0,16.9,,,,,,0.0,2026-03-14 14:04:08-07:00
24.06,1.0,9.0,2026-03-14 21:04:27,37.08165,-121.59959,349.0,0.1,36.1,-12.6,,,,,21:04:27,10.8,-1.0,24.0,0.0,139.0,0.1,-0.02,1.0,,-55.0,25.0,0.0,30.03,1354.0,,,330.0,,,,,0.0,0.0,,,,,,,,,,,,,,,,,,,0.0,17.0,0.0,0.0,30.2,0.0,,0.0,0.0,,,24.6,0.0,0.0,-0.8,6.2,4.7,,,,,18.0,19.0,18.0,19.0,18.0,19.0,19.0,19.0,,,14.0,254.4,,0.0,-10.0,4.998,,,1.302,0.841,0.0,16.9,,,,,,0.0,2026-03-14 14:04:08-07:00
25.06,1.0,9.0,2026-03-14 21:04:28,37.08164,-121.59959,348.0,0.0,36.1,-12.6,,,,,21:04:28,10.8,-1.0,24.0,0.0,139.0,0.1,-0.02,1.0,,-40.0,25.0,0.0,30.03,1354.0,,,330.0,,,,,0.0,0.0,,,,,,,,,,,,,,,,,,,0.0,17.0,0.0,0.0,30.2,0.0,,0.0,8.4,,,24.6,0.0,0.0,-0.7,6.2,4.7,,,,,18.0,19.0,18.0,19.0,18.0,19.0,19.0,19.0,,,14.0,254.4,,8.4,-11.0,4.998,,,1.302,0.842,0.0,16.9,,,,,,0.0,2026-03-14 14:04:08-07:00
26.06,1.0,9.0,2026-03-14 21:04:29,37.08164,-121.59958,347.0,0.0,36.1,-12.6,,,,,21:04:29,10.8,-1.0,24.0,0.0,139.0,0.1,-0.02,1.0,,-66.0,25.0,0.0,30.03,1354.0,,,330.0,,,,,0.0,0.0,,,,,,,,,,,,,,,,,,,0.0,17.0,0.0,0.0,30.2,0.0,,0.0,30.2,,,24.6,0.0,0.0,-0.7,6.2,4.7,,,,,18.0,19.0,18.0,19.0,18.0,19.0,19.0,19.0,,,14.0,254.4,,30.2,-11.0,4.998,,,1.302,0.841,0.0,16.9,,,,,,0.0,2026-03-14 14:04:08-07:00
27.06,1.0,9.0,2026-03-14 21:04:30,37.08164,-121.59958,346.0,0.0,36.1,-12.6,,,,,21:04:30,10.8,-1.0,24.1,0.0,137.0,0.1,-0.02,1.0,,-58.0,25.0,0.0,30.03,1353.0,,,330.0,,,,,0.0,0.0,,,,,,,,,,,,,,,,,,,0.0,17.0,0.0,0.0,30.2,0.0,,0.0,32.0,,,24.6,0.0,0.0,-0.6,6.2,4.7,,,,,18.0,19.0,18.0,19.0,18.0,19.0,19.0,19.0,,,14.0,254.4,,32.0,-11.0,4.998,,,1.304,0.842,0.0,16.9,,,,,,0.0,2026-03-14 14:04:08-07:00
28.06,1.0,9.0,2026-03-14 21:04:31,37.08164,-121.59958,345.0,0.1,36.1,-12.6,,,,,21:04:31,10.8,-1.0,24.1,0.0,135.0,0.1,-0.02,1.0,,-78.0,25.0,0.0,30.03,1353.0,,,330.0,,,,,0.0,0.0,,,,,,,,,,,,,,,,,,,0.0,17.0,0.0,0.0,30.2,0.0,,0.0,32.3,,,24.6,0.0,0.0,-0.6,6.2,4.7,,,,,18.0,19.0,18.0,19.0,18.0,19.0,19.0,19.0,,,14.0,254.4,,32.3,-11.0,4.998,,,1.302,0.842,0.0,16.9,,,,,,0.0,2026-03-14 14:04:08-07:00
29.06,1.0,9.0,2026-03-14 21:04:32,37.08164,-121.59958,345.0,0.0,36.1,-12.6,,,,,21:04:32,10.8,-1.0,24.0,0.0,134.0,0.0,-0.02,1.0,,-69.0,25.0,0.0,30.03,1353.0,,,330.0,,,,,0.0,0.0,,,,,,,,,,,,,,,,,,,0.0,17.0,0.0,0.0,30.2,0.9,,0.9,32.0,,,24.6,0.0,0.0,-0.6,6.2,4.7,,,,,18.0,19.0,18.0,20.0,18.0,19.0,19.0,20.0,,,14.0,254.4,,32.0,-11.0,4.998,,,1.302,0.842,0.0,16.9,,,,,,0.0,2026-03-14 14:04:08-07:00
30.06,1.0,9.0,2026-03-14 21:04:33,37.08164,-121.59958,344.0,0.0,36.1,-12.6,,,,,21:04:33,10.8,-1.1,24.0,0.0,134.0,0.0,-0.02,1.0,,-28.0,25.0,0.0,30.03,1348.0,,,330.0,,,,,0.0,0.0,,,,,,,,,,,,,,,,,,,0.0,17.0,0.0,0.0,30.2,1.6,,1.6,32.0,,,24.6,0.0,0.0,-0.6,6.2,4.7,,,,,18.0,19.0,18.0,19.0,18.0,19.0,19.0,20.0,,,14.0,254.4,,32.0,-10.0,4.998,,,1.304,0.842,0.0,16.9,,,,,,0.0,2026-03-14 14:04:08-07:00
31.06,1.0,9.0,2026-03-14 21:04:34,37.08164,-121.59957,343.0,0.0,36.1,-12.6,,,,,21:04:34,10.7,-1.1,24.0,0.0,134.0,0.0,-0.02,1.0,,-18.0,25.0,0.0,30.03,1348.0,,,330.0,,,,,0.0,0.0,,,,,,,,,,,,,,,,,,,0.0,17.0,0.0,0.0,30.2,2.2,,2.2,32.1,,,24.6,0.0,0.0,-0.6,6.2,4.7,,,,,18.0,19.0,18.0,20.0,18.0,19.0,19.0,20.0,,,14.0,254.4,,32.1,-10.0,4.998,,,1.304,0.842,0.0,16.9,,,,,,0.0,2026-03-14 14:04:08-07:00
32.06,1.0,9.0,2026-03-14 21:04:35,37.08164,-121.59957,343.0,0.0,36.1,-12.6,,,,,21:04:35,10.7,-1.1,24.0,0.0,134.0,0.1,-0.02,1.0,,5.0,25.0,0.0,30.03,1348.0,,,330.0,,,,,0.0,0.0,,,,,,,,,,,,,,,,,,,0.0,17.0,0.0,0.0,30.2,2.6,,2.6,32.2,,,24.6,0.0,0.0,-0.6,6.2,4.7,,,,,18.0,19.0,18.0,20.0,18.0,19.0,19.0,20.0,,,14.0,254.4,,32.2,-10.0,4.998,,,1.304,0.842,0.0,16.9,,,,,,0.0,2026-03-14 14:04:08-07:00
33.06,1.0,9.0,2026-03-14 21:04:36,37.08163,-121.59958,342.0,0.0,36.1,-12.6,,,,,21:04:36,10.8,-1.1,24.0,0.0,134.0,0.1,-0.02,1.0,,-9.0,25.0,0.0,30.03,1349.0,,,330.0,,,,,0.0,0.0,,,,,,,,,,,,,,,,,,,0.0,17.0,0.0,0.0,30.2,2.9,,2.9,32.1,,,24.6,0.0,0.0,-0.6,6.2,4.7,,,,,18.0,19.0,18.0,19.0,18.0,19.0,19.0,20.0,,,14.0,254.4,,32.1,-10.0,4.998,,,1.302,0.842,0.0,16.9,,,,,,0.0,2026-03-14 14:04:08-07:00
34.06,1.0,9.0,2026-03-14 21:04:37,37.08163,-121.59957,342.0,0.0,36.1,-12.6,,,,,21:04:37,10.8,-1.0,24.0,0.0,134.0,0.1,-0.02,1.0,,25.0,25.0,0.0,30.03,1349.0,,,330.0,,,,,0.0,0.0,,,,,,,,,,,,,,,,,,,0.0,17.0,0.0,0.0,30.2,2.9,,2.9,33.5,,,24.6,0.0,0.0,-0.6,6.2,4.7,,,,,18.0,19.0,18.0,19.0,18.0,19.0,19.0,20.0,,,14.0,254.4,,33.5,-10.0,4.998,,,1.302,0.842,0.0,16.9,,,,,,0.0,2026-03-14 14:04:08-07:00
35.06,1.0,9.0,2026-03-14 21:04:38,37.08163,-121.59957,343.0,0.0,36.1,-12.6,,,,,21:04:38,10.8,-1.0,24.1,0.0,134.0,0.1,-0.02,1.0,,10.0,25.0,0.0,30.03,1349.0,,,330.0,,,,,0.0,0.0,,,,,,,,,,,,,,,,,,,0.0,17.0,0.0,0.0,30.2,2.5,,2.5,32.4,,,24.6,0.0,0.0,-0.7,6.2,4.7,,,,,18.0,19.0,18.0,19.0,18.0,19.0,19.0,20.0,,,14.0,254.4,,32.4,-10.0,4.998,,,1.302,0.842,0.0,16.9,,,,,,0.0,2026-03-14 14:04:08-07:00
36.06,1.0,9.0,2026-03-14 21:04:39,37.08163,-121.59957,342.0,0.0,36.1,-12.6,,,,,21:04:39,10.8,-1.0,24.1,0.0,134.0,0.1,-0.02,1.0,,-11.0,25.0,0.0,30.03,1358.0,,,330.0,,,,,0.0,0.0,,,,,,,,,,,,,,,,,,,0.0,17.0,0.0,0.0,30.2,2.5,,2.5,32.1,,,24.6,0.0,0.0,-0.7,6.2,4.7,,,,,18.0,19.0,18.0,19.0,18.0,19.0,19.0,20.0,,,13.0,254.4,,32.1,-10.0,4.998,,,1.302,0.842,0.0,16.9,,,,,,0.0,2026-03-14 14:04:08-07:00
37.06,1.0,9.0,2026-03-14 21:04:40,37.08163,-121.59957,342.0,0.0,36.1,-12.6,,,,,21:04:40,10.8,-1.0,24.1,0.0,134.0,0.1,-0.02,1.0,,-27.0,25.0,0.0,30.03,1358.0,,,330.0,,,,,0.0,0.0,,,,,,,,,,,,,,,,,,,0.0,17.0,0.0,0.0,30.2,0.0,,0.0,31.9,,,24.6,0.0,0.0,-0.7,6.2,4.7,,,,,18.0,19.0,18.0,19.0,18.0,19.0,19.0,20.0,,,13.0,254.4,,31.9,-10.0,4.998,,,1.302,0.844,0.0,16.9,,,,,,0.0,2026-03-14 14:04:08-07:00
38.06,1.0,9.0,2026-03-14 21:04:41,37.08163,-121.59957,341.0,0.0,36.1,-12.6,,,,,21:04:41,10.8,-1.0,24.1,0.0,134.0,0.1,-0.02,1.0,,5.0,25.0,0.0,30.03,1358.0,,,330.0,,,,,0.0,0.0,,,,,,,,,,,,,,,,,,,0.0,17.0,0.0,0.0,30.2,0.0,,0.0,31.7,,,24.6,0.0,0.0,-0.8,6.2,4.7,,,,,18.0,19.0,18.0,19.0,18.0,19.0,19.0,20.0,,,13.0,254.4,,31.7,-10.0,4.998,,,1.302,0.844,0.0,16.9,,,,,,0.0,2026-03-14 14:04:08-07:00
39.06,1.0,9.0,2026-03-14 21:04:42,37.08163,-121.59957,341.0,0.0,36.1,-12.6,,,,,21:04:42,10.8,-1.1,24.0,0.0,134.0,0.0,-0.02,1.0,,8.0,25.0,0.0,30.03,1359.0,,,330.0,,,,,0.0,0.0,,,,,,,,,,,,,,,,,,,0.0,17.0,0.0,0.0,30.2,0.0,,0.0,31.6,,,24.6,0.0,0.0,-0.8,6.2,4.7,,,,,18.0,19.0,18.0,19.0,18.0,19.0,19.0,20.0,,,13.0,239.0,,31.6,-10.0,4.998,,,1.302,0.844,0.0,16.9,,,,,,0.0,2026-03-14 14:04:08-07:00
40.06,1.0,9.0,2026-03-14 21:04:43,37.08163,-121.59956,341.0,0.0,36.1,-12.6,,,,,21:04:43,10.8,-1.1,24.0,0.0,133.0,0.1,-0.02,1.0,,-28.0,25.0,0.0,30.03,1359.0,,,330.0,,,,,0.0,0.0,,,,,,,,,,,,,,,,,,,0.0,17.0,0.0,0.0,30.2,0.0,,0.0,31.4,,,24.6,0.0,0.0,-0.8,6.2,4.7,,,,,18.0,19.0,18.0,19.0,18.0,19.0,19.0,20.0,,,13.0,186.0,,31.4,-10.0,4.998,,,1.302,0.844,0.0,16.9,,,,,,0.0,2026-03-14 14:04:08-07:00
41.06,1.0,9.0,2026-03-14 21:04:44,37.08163,-121.59956,341.0,0.0,36.1,-12.6,,,,,21:04:44,10.8,-1.1,24.0,0.0,132.0,0.0,-0.02,1.0,,-2.0,25.0,0.0,30.03,1359.0,,,330.0,,,,,0.0,0.0,,,,,,,,,,,,,,,,,,,0.0,17.0,0.0,0.0,30.2,0.0,,0.0,31.3,,,24.6,0.0,0.0,-0.8,6.2,4.7,,,,,18.0,19.0,18.0,19.0,18.0,19.0,19.0,20.0,,,13.0,144.8,,31.3,-10.0,4.998,,,1.304,0.844,0.0,16.9,,,,,,0.0,2026-03-14 14:04:08-07:00
42.06,1.0,9.0,2026-03-14 21:04:45,37.08163,-121.59956,339.0,0.0,36.1,-12.6,,,,,21:04:45,10.8,-1.0,24.0,0.0,132.0,0.0,-0.02,1.0,,-23.0,25.0,0.0,30.03,1367.0,,,330.0,,,,,0.0,0.0,,,,,,,,,,,,,,,,,,,0.0,17.0,0.0,0.0,30.2,0.0,,0.0,31.1,,,24.6,0.0,0.0,-0.8,6.2,4.7,,,,,18.0,19.0,18.0,19.0,18.0,19.0,19.0,20.0,,,13.0,112.8,,31.1,-10.0,4.998,,,1.302,0.844,0.0,16.9,,,,,,0.0,2026-03-14 14:04:08-07:00
43.06,1.0,9.0,2026-03-14 21:04:46,37.08163,-121.59956,339.0,0.0,36.1,-12.6,,,,,21:04:46,10.8,-1.0,24.0,0.0,132.0,0.1,-0.02,1.0,,-35.0,25.0,0.0,30.03,1366.0,,,330.0,,,,,0.0,0.0,,,,,,,,,,,,,,,,,,,0.0,17.0,0.0,0.0,30.2,0.0,,0.0,31.0,,,24.6,0.0,0.0,-0.8,6.2,4.7,,,,,18.0,19.0,18.0,19.0,18.0,19.0,19.0,20.0,,,12.0,87.9,,31.0,-10.0,4.998,,,1.302,0.845,0.0,16.9,,,,,,0.0,2026-03-14 14:04:08-07:00
44.06,1.0,9.0,2026-03-14 21:04:47,37.08163,-121.59956,339.0,0.0,36.1,-12.6,,,,,21:04:47,10.8,-1.0,24.1,0.0,130.0,0.1,-0.02,1.0,,-47.0,25.0,0.0,30.03,1366.0,,,330.0,,,,,0.0,0.0,,,,,,,,,,,,,,,,,,,0.0,17.0,0.0,0.0,30.2,0.0,,0.0,30.8,,,24.6,0.0,0.0,-0.8,6.2,4.7,,,,,18.0,19.0,18.0,19.0,18.0,19.0,19.0,20.0,,,12.0,68.5,,30.8,-10.0,4.998,,,1.302,0.845,0.0,16.9,,,,,,0.0,2026-03-14 14:04:08-07:00
45.06,1.0,9.0,2026-03-14 21:04:48,37.08162,-121.59956,339.0,0.0,36.1,-12.6,,,,,21:04:48,10.8,-1.0,24.0,0.0,129.0,0.1,-0.02,1.0,,-78.0,25.0,0.0,30.03,1366.0,,,330.0,,,,,0.0,0.0,,,,,,,,,,,,,,,,,,,0.0,17.0,0.0,0.0,30.2,0.0,,0.0,30.7,,,24.6,0.0,0.0,-0.8,6.2,4.7,,,,,18.0,19.0,18.0,19.0,18.0,19.0,19.0,20.0,,,12.0,53.5,,30.7,-10.0,4.998,,,1.302,0.845,0.0,16.9,,,,,,0.0,2026-03-14 14:04:08-07:00
46.06,1.0,9.0,2026-03-14 21:04:49,37.08162,-121.59956,339.0,0.0,36.1,-12.6,,,,,21:04:49,10.8,-1.0,24.0,0.0,128.0,0.1,-0.02,1.0,,-67.0,25.0,0.0,30.03,1362.0,,,330.0,,,,,0.0,0.0,,,,,,,,,,,,,,,,,,,0.0,17.0,0.0,0.0,30.2,0.0,,0.0,30.6,,,24.6,0.0,0.0,-0.8,6.2,4.7,,,,,18.0,19.0,18.0,19.0,18.0,19.0,19.0,20.0,,,12.0,41.8,,30.6,-10.0,4.998,,,1.302,0.845,0.0,16.9,,,,,,0.0,2026-03-14 14:04:08-07:00
47.06,1.0,9.0,2026-03-14 21:04:50,37.08162,-121.59956,339.0,0.1,36.1,-12.6,,,,,21:04:50,10.8,-1.0,24.1,0.0,127.0,0.1,-0.02,1.0,,-49.0,25.0,0.0,30.03,1362.0,,,330.0,,,,,0.0,0.0,,,,,,,,,,,,,,,,,,,0.0,17.0,0.0,0.0,30.2,0.0,,0.0,30.4,,,24.6,0.0,0.0,-0.8,6.2,4.7,,,,,18.0,19.0,18.0,19.0,18.0,19.0,19.0,20.0,,,12.0,32.7,,30.4,-10.0,4.998,,,1.302,0.845,0.0,16.9,,,,,,0.0,2026-03-14 14:04:08-07:00
48.06,1.0,9.0,2026-03-14 21:04:51,37.08162,-121.59956,339.0,0.0,36.1,-12.6,,,,,21:04:51,10.8,-1.0,24.1,0.0,127.0,0.1,-0.02,1.0,,-33.0,25.0,0.0,30.03,1362.0,,,330.0,,,,,0.0,0.0,,,,,,,,,,,,,,,,,,,0.0,17.0,0.0,0.0,30.2,0.0,,0.0,30.3,,,24.6,0.0,0.0,-0.8,6.2,4.7,,,,,18.0,19.0,18.0,19.0,18.0,19.0,19.0,20.0,,,12.0,25.6,,30.3,-10.0,4.998,,,1.302,0.845,0.0,16.9,,,,,,0.0,2026-03-14 14:04:08-07:00
49.06,1.0,9.0,2026-03-14 21:04:52,37.08162,-121.59956,339.0,0.0,36.1,-12.6,,,,,21:04:52,10.8,-1.0,24.1,0.0,127.0,0.1,-0.02,1.0,,-8.0,25.0,0.0,30.03,1361.0,,,330.0,,,,,0.0,0.0,,,,,,,,,,,,,,,,,,,0.0,17.0,0.0,0.0,30.2,0.0,,0.0,30.2,,,24.6,0.0,0.0,-0.8,6.2,4.7,,,,,18.0,19.0,18.0,19.0,18.0,19.0,19.0,20.0,,,12.0,20.1,,30.2,-10.0,4.998,,,1.302,0.845,0.0,16.9,,,,,,0.0,2026-03-14 14:04:08-07:00
50.06,1.0,9.0,2026-03-14 21:04:53,37.08162,-121.59956,339.0,0.0,36.1,-12.6,,,,,21:04:53,10.8,-1.0,24.0,0.0,127.0,0.1,-0.02,1.0,,-6.0,25.0,0.0,30.03,1361.0,,,330.0,,,,,0.0,0.0,,,,,,,,,,,,,,,,,,,0.0,17.0,0.0,0.0,30.2,0.0,,0.0,30.0,,,24.6,0.0,0.0,-0.8,6.2,4.7,,,,,18.0,20.0,18.0,20.0,18.0,20.0,19.0,20.0,,,12.0,15.9,,30.0,-10.0,4.998,,,1.302,0.845,0.0,16.9,,,,,,0.0,2026-03-14 14:04:08-07:00
51.06,1.0,9.0,2026-03-14 21:04:54,37.08162,-121.59956,339.0,0.0,36.1,-12.6,,,,,21:04:54,10.8,-1.0,24.0,0.0,127.0,0.0,-0.02,1.0,,-2.0,25.0,0.0,30.03,1361.0,,,330.0,,,,,0.0,0.0,,,,,,,,,,,,,,,,,,,0.0,17.0,0.0,0.0,30.2,0.0,,0.0,29.9,,,24.6,0.0,0.0,-0.8,6.2,4.7,,,,,18.0,20.0,18.0,20.0,18.0,20.0,19.0,20.0,,,11.0,12.5,,29.9,-10.0,4.998,,,1.302,0.845,0.0,16.9,,,,,,0.0,2026-03-14 14:04:08-07:00
52.06,1.0,9.0,2026-03-14 21:04:55,37.08162,-121.59956,339.0,0.0,36.1,-12.6,,,,,21:04:55,10.7,-1.0,24.0,0.0,126.0,0.1,-0.02,1.0,,-38.0,25.0,0.0,30.03,1361.0,,,330.0,,,,,0.0,0.0,,,,,,,,,,,,,,,,,,,0.0,17.0,0.0,0.0,30.2,0.0,,0.0,29.8,,,24.6,0.0,0.0,-0.8,6.2,4.7,,,,,18.0,20.0,18.0,20.0,18.0,20.0,19.0,20.0,,,11.0,10.0,,29.8,-10.0,4.998,,,1.304,0.845,0.0,16.9,,,,,,0.0,2026-03-14 14:04:08-07:00
53.06,1.0,9.0,2026-03-14 21:04:56,37.08162,-121.59956,339.0,0.0,36.1,-12.6,,,,,21:04:56,10.8,-1.1,24.0,0.0,125.0,0.1,-0.02,1.0,,-31.0,25.0,0.0,30.03,1370.0,,,330.0,,,,,0.0,0.0,,,,,,,,,,,,,,,,,,,0.0,17.0,0.0,0.0,30.2,0.0,,0.0,29.7,,,24.6,0.0,0.0,-0.8,6.2,4.7,,,,,18.0,20.0,18.0,20.0,18.0,20.0,19.0,20.0,,,11.0,8.0,,29.7,-10.0,4.998,,,1.302,0.845,0.0,16.9,,,,,,0.0,2026-03-14 14:04:08-07:00
54.06,1.0,9.0,2026-03-14 21:04:57,37.08162,-121.59956,340.0,0.0,36.1,-12.6,,,,,21:04:57,10.8,-1.1,24.0,0.0,125.0,0.0,-0.02,1.0,,-23.0,25.0,0.0,30.03,1370.0,,,330.0,,,,,0.0,0.0,,,,,,,,,,,,,,,,,,,0.0,17.0,0.0,0.0,30.2,0.0,,0.0,29.6,,,24.6,0.0,0.0,-0.8,6.2,4.7,,,,,18.0,20.0,18.0,20.0,18.0,20.0,19.0,20.0,,,11.0,6.4,,29.6,-10.0,4.998,,,1.304,0.845,0.0,16.9,,,,,,0.0,2026-03-14 14:04:08-07:00
55.06,1.0,9.0,2026-03-14 21:04:58,37.08162,-121.59956,340.0,0.0,36.1,-12.6,,,,,21:04:58,10.7,-1.0,24.0,0.0,125.0,0.0,-0.02,1.0,,6.0,25.0,0.0,30.03,1370.0,,,330.0,,,,,0.0,0.0,,,,,,,,,,,,,,,,,,,0.0,17.0,0.0,0.0,30.2,0.0,,0.0,29.5,,,24.6,0.0,0.0,-0.8,6.2,4.7,,,,,18.0,20.0,18.0,20.0,18.0,20.0,19.0,20.0,,,12.0,5.2,,29.5,-10.0,4.998,,,1.302,0.846,0.0,16.9,,,,,,0.0,2026-03-14 14:04:08-07:00
56.06,1.0,9.0,2026-03-14 21:04:59,37.08162,-121.59956,340.0,0.0,36.1,-12.6,,,,,21:04:59,10.7,-1.0,24.0,0.0,125.0,0.1,-0.02,1.0,,28.0,25.0,0.0,30.03,1369.0,,,330.0,,,,,0.0,0.0,,,,,,,,,,,,,,,,,,,0.0,17.0,0.0,0.0,30.2,0.0,,0.0,29.4,,,24.6,0.0,0.0,-0.8,6.2,4.7,,,,,18.0,20.0,18.0,20.0,18.0,20.0,19.0,20.0,,,12.0,4.2,,29.4,-10.0,4.998,,,1.304,0.846,0.0,16.9,,,,,,0.0,2026-03-14 14:04:08-07:00
57.06,1.0,9.0,2026-03-14 21:05:00,37.08162,-121.59956,340.0,0.0,36.1,-12.6,,,,,21:05:00,10.7,-1.0,24.0,0.0,125.0,0.0,-0.02,1.0,,58.0,25.0,0.0,30.03,1369.0,,,330.0,,,,,0.0,0.0,,,,,,,,,,,,,,,,,,,0.0,17.0,0.0,0.0,30.2,0.0,,0.0,29.3,,,24.6,0.0,0.0,-0.8,6.2,4.7,,,,,18.0,20.0,18.0,20.0,18.0,20.0,19.0,20.0,,,12.0,3.5,,29.3,-10.0,4.998,,,1.302,0.846,0.0,16.9,,,,,,0.0,2026-03-14 14:04:08-07:00
58.06,1.0,9.0,2026-03-14 21:05:01,37.08162,-121.59956,340.0,0.0,36.1,-12.6,,,,,21:05:01,10.7,-1.0,24.0,0.0,125.0,0.1,-0.02,1.0,,71.0,25.0,0.0,30.03,1369.0,,,330.0,,,,,0.0,0.0,,,,,,,,,,,,,,,,,,,0.0,17.0,0.0,0.0,30.2,0.0,,0.0,29.2,,,24.6,0.0,0.0,-0.8,6.2,4.7,,,,,18.0,20.0,18.0,20.0,18.0,20.0,19.0,20.0,,,12.0,2.9,,29.2,-10.0,4.998,,,1.304,0.846,0.0,16.9,,,,,,0.0,2026-03-14 14:04:08-07:00
59.06,1.0,9.0,2026-03-14 21:05:02,37.08162,-121.59956,341.0,0.0,36.1,-12.6,,,,,21:05:02,10.7,-1.0,24.0,0.0,125.0,0.1,-0.02,1.0,,64.0,25.0,0.0,30.03,1370.0,,,330.0,,,,,0.0,0.0,,,,,,,,,,,,,,,,,,,0.0,17.0,0.0,0.0,30.2,0.0,,0.0,29.1,,,24.6,0.0,0.0,-0.8,6.2,4.7,,,,,18.0,20.0,18.0,20.0,18.0,20.0,19.0,20.0,,,12.0,2.5,,29.1,-10.0,4.998,,,1.302,0.846,0.0,16.9,,,,,,0.0,2026-03-14 14:04:08-07:00
60.06,1.0,9.0,2026-03-14 21:05:03,37.08162,-121.59956,341.0,0.0,36.1,-12.6,,,,,21:05:03,10.7,-1.0,24.1,0.0,125.0,0.1,-0.01,1.0,,55.0,25.0,0.0,30.03,1370.0,,,330.0,,,,,0.0,0.0,,,,,,,,,,,,,,,,,,,0.0,13.0,88.0,88.0,30.1,0.0,,0.0,29.2,,,24.6,0.0,0.0,-0.8,6.2,4.7,,,,,14.0,15.0,15.0,15.0,15.0,15.0,15.0,15.0,,,12.0,2.2,,29.2,-10.0,4.998,,,1.302,0.845,0.0,12.8,,,,,,88.0,2026-03-14 14:04:08-07:00
61.06,1.0,9.0,2026-03-14 21:05:04,37.08162,-121.59956,341.0,0.1,36.1,-12.6,,,,,21:05:04,10.7,-0.9,24.2,0.0,125.0,0.1,-0.01,0.9,,20.0,25.0,0.0,30.03,1370.0,,,330.0,,,,,0.0,0.0,,,,,,,,,,,,,,,,,,,1.0,16.0,625.0,625.0,24.9,0.7,,0.7,24.1,,,24.6,0.0,0.0,-0.7,6.2,4.7,,,,,17.0,33.0,17.0,28.0,18.0,39.0,18.0,34.0,,,13.0,1.9,,24.1,-12.0,4.998,,,1.302,0.846,1.3,15.8,,,,,,625.0,2026-03-14 14:04:08-07:00
62.06,1.0,9.0,2026-03-14 21:05:05,37.08162,-121.59956,341.0,0.0,36.1,-12.6,,,,,21:05:05,10.6,-1.0,24.2,0.0,125.0,0.0,-0.01,1.0,,26.0,25.0,0.0,30.03,1379.0,,,330.0,,,,,0.0,0.0,,,,,,,,,,,,,,,,,,,4.0,17.0,721.0,721.0,21.6,1.3,,1.3,24.8,,,24.6,0.0,0.0,-0.7,6.2,4.7,,,,,18.0,82.0,18.0,60.0,19.0,87.0,19.0,80.0,,,14.0,1.7,,24.8,-12.0,4.998,,,1.304,0.846,3.6,16.9,,,,,,721.0,2026-03-14 14:04:08-07:00
63.06,1.0,9.0,2026-03-14 21:05:06,37.08161,-121.59956,341.0,0.0,36.1,-12.6,,,,,21:05:06,10.7,-0.9,24.2,0.0,125.0,0.0,-0.02,1.0,,38.0,25.0,0.0,30.03,1379.0,,,330.0,,,,,0.0,0.0,,,,,,,,,,,,,,,,,,,7.0,17.0,753.0,753.0,20.2,1.8,,1.8,24.9,,,24.6,0.0,0.0,-0.7,6.2,4.7,,,,,18.0,127.0,18.0,86.0,19.0,133.0,19.0,124.0,,,14.0,1.6,,24.9,-11.0,4.998,,,1.302,0.846,6.8,16.9,,,,,,753.0,2026-03-14 14:04:08-07:00
64.06,1.0,9.0,2026-03-14 21:05:07,37.08161,-121.59956,341.0,0.0,36.1,-12.6,,,,,21:05:07,10.7,-0.9,24.3,0.0,125.0,0.1,-0.01,1.0,,35.0,25.0,0.0,30.03,1379.0,,,330.0,,,,,0.0,0.0,,,,,,,,,,,,,,,,,,,11.0,17.0,816.0,816.0,19.3,2.2,,2.2,25.0,,,24.6,0.0,0.0,-0.7,6.2,4.7,,,,,18.0,166.0,18.0,115.0,19.0,173.0,20.0,162.0,,,14.0,1.4,,25.0,-11.0,4.998,,,1.302,0.847,11.2,16.9,,,,,,816.0,2026-03-14 14:04:08-07:00
65.06,1.0,9.0,2026-03-14 21:05:08,37.0816,-121.59953,346.0,0.0,36.1,-12.6,,,,,21:05:08,10.7,-0.9,24.3,0.0,125.0,0.1,-0.01,1.0,,13.0,25.0,0.0,30.03,1379.0,,,330.0,,,,,0.0,0.0,,,,,,,,,,,,,,,,,,,17.0,17.0,848.0,848.0,18.2,2.7,,2.7,25.2,,,24.6,0.0,0.0,-0.7,6.2,4.7,,,,,19.0,202.0,19.0,137.0,20.0,207.0,20.0,197.0,,,14.0,1.3,,25.2,-11.0,4.998,,,1.302,0.846,17.0,16.9,,,,,,848.0,2026-03-14 14:04:08-07:00
66.06,1.0,9.0,2026-03-14 21:05:09,37.0816,-121.59953,346.0,0.1,36.1,-12.6,,,,,21:05:09,10.7,-0.9,24.3,0.0,125.0,0.1,-0.02,0.9,,-1.0,25.0,0.0,30.03,1380.0,,,330.0,,,,,0.0,0.0,,,,,,,,,,,,,,,,,,,25.0,17.0,861.0,861.0,17.9,3.0,,3.0,25.2,,,24.6,0.0,0.0,-0.8,6.2,4.7,,,,,19.0,220.0,19.0,157.0,20.0,238.0,21.0,228.0,,,14.0,1.3,,25.2,-11.0,4.998,,,1.304,0.846,24.7,16.9,,,,,,861.0,2026-03-14 14:04:08-07:00
67.06,1.0,9.0,2026-03-14 21:05:10,37.0816,-121.59953,346.0,0.0,36.1,-12.6,,,,,21:05:10,10.7,-0.9,24.3,0.0,125.0,0.1,-0.01,1.0,,-28.0,25.0,0.0,30.03,1380.0,,,330.0,,,,,0.0,0.0,,,,,,,,,,,,,,,,,,,35.0,17.0,920.0,920.0,17.2,3.2,,3.2,25.6,,,24.6,0.0,0.0,-0.8,6.2,4.7,,,,,19.0,244.0,19.0,173.0,20.0,265.0,21.0,255.0,,,14.0,1.2,,25.6,-11.0,4.998,,,1.302,0.846,34.9,16.9,,,,,,920.0,2026-03-14 14:04:08-07:00
68.06,1.0,9.0,2026-03-14 21:05:11,37.0816,-121.59953,346.0,0.0,36.1,-12.6,,,,,21:05:11,10.7,-0.9,24.3,0.0,125.0,0.1,-0.01,1.0,,-63.0,25.0,0.0,30.03,1380.0,,,330.0,,,,,0.0,0.0,,,,,,,,,,,,,,,,,,,47.0,17.0,952.0,952.0,16.2,3.1,,3.1,25.6,,,24.6,0.0,0.0,-0.8,6.2,4.7,,,,,20.0,272.0,20.0,189.0,21.0,292.0,22.0,283.0,,,14.0,1.1,,25.6,-11.0,4.998,,,1.302,0.847,46.8,16.9,,,,,,952.0,2026-03-14 14:04:08-07:00
69.06,1.0,9.0,2026-03-14 21:05:12,37.08159,-121.59953,342.0,0.1,36.1,-12.6,,,,,21:05:12,10.7,-0.8,24.3,0.0,125.0,0.1,-0.02,0.9,,-68.0,25.0,0.0,30.03,1390.0,,,330.0,,,,,0.0,0.0,,,,,,,,,,,,,,,,,,,59.0,17.0,975.0,975.0,15.4,3.0,,3.0,25.6,,,24.6,0.0,0.0,-0.7,6.2,4.7,,,,,20.0,298.0,20.0,204.0,21.0,320.0,22.0,311.0,,,14.0,1.1,,25.6,-11.0,4.998,,,1.304,0.847,58.6,16.9,,,,,,975.0,2026-03-14 14:04:08-07:00
70.06,1.0,9.0,2026-03-14 21:05:13,37.08159,-121.59953,342.0,0.0,36.1,-12.6,,,,,21:05:13,10.8,-0.9,24.3,0.0,125.0,0.1,-0.02,1.0,,-33.0,25.0,0.0,30.03,1390.0,,,330.0,,,,,0.0,0.0,,,,,,,,,,,,,,,,,,,67.0,17.0,954.0,954.0,14.8,2.9,,2.9,25.6,,,24.5,0.0,0.0,-0.8,6.2,4.7,,,,,20.0,320.0,20.0,226.0,21.0,343.0,23.0,337.0,,,14.0,1.1,,25.6,-11.0,4.998,,,1.302,0.847,67.3,16.9,,,,,,954.0,2026-03-14 14:04:08-07:00
71.06,1.0,9.0,2026-03-14 21:05:14,37.08159,-121.59953,342.0,0.0,36.1,-12.6,,,,,21:05:14,10.7,-0.8,24.3,0.0,125.0,0.1,-0.02,1.0,,-35.0,25.0,0.0,30.03,1390.0,,,330.0,,,,,0.0,0.0,,,,,,,,,,,,,,,,,,,72.0,17.0,928.0,928.0,14.7,2.7,,2.7,25.6,,,24.5,0.0,0.0,-0.8,6.2,4.7,,,,,21.0,339.0,21.0,253.0,22.0,362.0,23.0,359.0,,,14.0,1.0,,25.6,-11.0,4.998,,,1.302,0.847,72.2,16.9,,,,,,928.0,2026-03-14 14:04:08-07:00
72.06,1.0,9.0,2026-03-14 21:05:15,37.08159,-121.59954,345.0,0.0,36.1,-12.6,,,,,21:05:15,10.7,-0.9,24.4,0.0,125.0,0.1,-0.02,1.0,,-6.0,25.0,0.0,30.03,1390.0,,,330.0,,,,,0.0,0.0,,,,,,,,,,,,,,,,,,,75.0,17.0,933.0,933.0,14.6,2.6,,2.6,25.6,,,24.5,0.0,0.0,-0.7,6.2,4.7,,,,,21.0,356.0,21.0,281.0,23.0,379.0,24.0,379.0,,,14.0,1.0,,25.6,-11.0,4.998,,,1.302,0.847,74.5,16.9,,,,,,933.0,2026-03-14 14:04:08-07:00
73.06,1.0,9.0,2026-03-14 21:05:16,37.08158,-121.59954,345.0,0.1,36.1,-12.6,,,,,21:05:16,10.6,-0.9,24.3,0.0,125.0,0.1,-0.02,1.0,,-28.0,25.0,0.0,30.03,1390.0,,,330.0,,,,,0.0,0.0,,,,,,,5.0,,,0.0,,,,,,,,,75.0,18.0,890.0,890.0,14.7,2.5,,2.5,25.6,,,24.5,0.0,0.0,19.6,6.2,4.7,,,,,22.0,370.0,22.0,304.0,23.0,394.0,25.0,397.0,,,14.0,1.0,,25.6,-11.0,4.998,,,1.304,0.847,75.3,17.7,,,,,,890.0,2026-03-14 14:04:08-07:00
74.06,1.0,9.0,2026-03-14 21:05:17,37.08158,-121.59954,346.0,0.0,36.1,-12.6,,,,,21:05:17,10.6,-0.9,24.2,0.0,125.0,0.1,-0.02,1.0,,-36.0,25.0,0.0,30.03,1390.0,,,330.0,,,,,0.0,0.0,,,,,,,5.0,,,0.0,,,,,,,,,76.0,18.0,891.0,891.0,14.9,2.4,,2.4,25.5,,,24.5,0.0,0.0,33.8,6.2,4.7,,,,,23.0,383.0,22.0,324.0,24.0,408.0,26.0,411.0,,,14.0,1.0,,25.5,-11.0,4.998,,,1.302,0.847,75.6,17.7,,,,,,891.0,2026-03-14 14:04:08-07:00
75.06,1.0,9.0,2026-03-14 21:05:18,37.08158,-121.59954,346.0,0.0,36.1,-12.6,,,,,21:05:18,10.6,-0.9,24.2,0.0,125.0,0.1,-0.02,1.0,,-39.0,25.0,0.0,30.03,1400.0,,,330.0,,,,,0.0,0.0,,,,,,,5.0,,,0.0,,,,,,,,,76.0,18.0,897.0,897.0,14.9,2.3,,2.3,25.6,,,24.5,0.0,0.0,42.1,6.2,4.7,,,,,23.0,395.0,23.0,340.0,24.0,420.0,26.0,424.0,,,14.0,1.0,,25.6,-11.0,4.998,,,1.302,0.847,75.7,17.7,,,,,,897.0,2026-03-14 14:04:08-07:00
76.06,1.0,9.0,2026-03-14 21:05:19,37.08158,-121.59954,346.0,0.1,36.1,-12.6,,,,,21:05:19,10.6,-0.8,24.2,0.0,125.0,0.1,-0.02,1.0,,-28.0,25.0,0.0,30.03,1400.0,,,330.0,,,,,0.0,0.0,,,,,,,5.0,,,0.0,,,,,3.0,0.0,0.0,1200.0,76.0,18.0,910.0,910.0,14.9,2.2,,2.2,25.6,,,24.5,0.0,0.0,46.3,6.2,4.7,,,,,23.0,406.0,23.0,355.0,24.0,430.0,27.0,436.0,,,14.0,1.0,,25.6,-11.0,4.998,,,1.304,0.847,76.0,17.6,,,,,,910.0,2026-03-14 14:04:08-07:00
77.06,1.0,9.0,2026-03-14 21:05:20,37.08158,-121.59954,346.0,0.1,36.1,-12.6,,,,,21:05:20,10.7,-0.8,24.2,0.0,125.0,0.1,-0.02,1.0,,15.0,25.0,0.0,30.03,1400.0,,,330.0,,,,,0.0,0.0,,,,,,,5.0,,,1.0,,,,,3.0,0.0,0.0,1200.0,76.0,17.0,919.0,919.0,14.8,2.2,,2.2,25.6,,,24.5,0.0,0.0,43.8,6.2,4.7,,,,,24.0,416.0,24.0,368.0,25.0,440.0,27.0,447.0,,,14.0,1.0,,25.6,-11.0,4.998,,,1.302,0.846,76.1,17.5,,,,,,919.0,2026-03-14 14:04:08-07:00
78.06,1.0,9.0,2026-03-14 21:05:21,37.08158,-121.59954,346.0,0.0,36.1,-12.6,,,,,21:05:21,10.7,-1.0,24.2,0.0,125.0,0.1,-0.02,1.0,,-1.0,25.0,0.0,30.03,1399.0,,,330.0,,,,,0.0,0.0,,,,,,,5.0,,,0.0,,,,,1.0,0.0,0.0,1200.0,76.0,17.0,934.0,934.0,14.5,2.2,,2.2,25.6,,,24.5,0.0,0.0,39.1,6.2,4.7,,,,,24.0,425.0,24.0,380.0,25.0,450.0,28.0,458.0,,,14.0,1.0,,25.6,-11.0,4.998,,,1.302,0.847,76.3,17.4,,,,,,934.0,2026-03-14 14:04:08-07:00
79.06,1.0,9.0,2026-03-14 21:05:22,37.08157,-121.59955,346.0,0.1,36.1,-12.6,,,,,21:05:22,10.7,-0.9,24.1,0.0,125.0,0.1,-0.02,1.0,,9.0,26.0,0.0,30.03,1400.0,,,330.0,,,,,0.0,0.0,,,,,,,5.0,,,0.0,,,,,1.0,0.0,0.0,1200.0,76.0,17.0,938.0,938.0,14.4,2.2,,2.2,25.6,,,24.5,0.0,0.0,33.9,6.2,4.7,,,,,25.0,433.0,25.0,392.0,26.0,459.0,28.0,469.0,,,14.0,1.0,,25.6,-11.0,4.998,,,1.304,0.846,76.4,17.3,,,,,,938.0,2026-03-14 14:04:08-07:00
80.06,1.0,8.0,2026-03-14 21:05:23,37.08157,-121.59955,339.0,0.1,36.1,-12.6,,,,,21:05:23,10.7,-1.0,24.1,0.0,125.0,0.1,-0.02,1.0,,38.0,26.0,0.0,30.03,1400.0,,,330.0,,,,,0.0,0.0,,,,,,,5.0,,,0.0,,,,,,,,,77.0,17.0,954.0,954.0,14.2,2.1,,2.1,25.6,,,24.5,0.0,0.0,29.0,6.2,4.7,,,,,25.0,441.0,25.0,404.0,26.0,469.0,29.0,478.0,,,14.0,1.0,,25.6,-11.0,4.998,,,1.304,0.846,76.5,17.3,,,,,,954.0,2026-03-14 14:04:08-07:00
81.06,1.0,8.0,2026-03-14 21:05:24,37.08157,-121.59955,339.0,0.0,36.1,-12.6,,,,,21:05:24,10.7,-0.9,24.1,0.0,125.0,0.1,-0.02,1.0,,36.0,26.0,0.0,30.03,1400.0,,,330.0,,,,,0.0,0.0,,,,,,,5.0,,,0.0,,,,,,,,,77.0,17.0,955.0,955.0,14.2,2.1,,2.1,25.6,,,24.5,0.0,0.0,24.7,6.2,4.7,,,,,25.0,447.0,25.0,415.0,26.0,477.0,29.0,487.0,,,14.0,1.0,,25.6,-11.0,4.998,,,1.302,0.847,76.6,17.2,,,,,,955.0,2026-03-14 14:04:08-07:00
82.06,1.0,8.0,2026-03-14 21:05:25,37.08157,-121.59956,339.0,0.0,36.1,-12.6,,,,,21:05:25,10.7,-0.9,24.2,0.0,125.0,0.1,-0.02,1.0,,19.0,26.0,0.0,30.03,1409.0,,,330.0,,,,,0.0,0.0,,,,,,,5.0,,,0.0,,,,,,,,,77.0,17.0,937.0,937.0,14.2,2.1,,2.1,25.6,,,24.5,0.0,0.0,21.2,6.2,4.7,,,,,25.0,454.0,26.0,425.0,27.0,489.0,30.0,497.0,,,14.0,1.0,,25.6,-11.0,4.998,,,1.302,0.845,76.5,17.2,,,,,,937.0,2026-03-14 14:04:08-07:00
83.06,1.0,8.0,2026-03-14 21:05:26,37.08157,-121.59956,339.0,0.0,36.1,-12.6,,,,,21:05:26,10.7,-0.9,24.2,0.0,125.0,0.1,-0.02,1.0,,21.0,26.0,0.0,30.03,1409.0,,,330.0,,,,,0.0,0.0,,,,,,,5.0,,,1.0,,,,,,,,,77.0,17.0,959.0,959.0,14.2,2.1,,2.1,25.6,,,24.5,0.0,0.0,18.6,6.2,4.7,,,,,26.0,460.0,26.0,434.0,27.0,498.0,30.0,504.0,,,14.0,1.0,,25.6,-11.0,4.998,,,1.302,0.846,76.7,17.2,,,,,,959.0,2026-03-14 14:04:08-07:00
84.06,1.0,8.0,2026-03-14 21:05:27,37.08157,-121.59956,339.0,0.0,36.1,-12.6,,,,,21:05:27,10.7,-0.9,24.2,0.0,125.0,0.1,-0.02,1.0,,28.0,26.0,0.0,30.03,1409.0,,,330.0,,,,,0.0,0.0,,,,,,,5.0,,,1.0,,,,,,,,,77.0,17.0,976.0,976.0,13.9,2.0,,2.0,25.7,,,24.5,0.0,0.0,16.4,6.2,4.7,,,,,27.0,465.0,27.0,441.0,28.0,505.0,31.0,512.0,,,15.0,0.0,,25.7,-11.0,4.998,,,1.302,0.846,76.9,17.1,,,,,,976.0,2026-03-14 14:04:08-07:00
85.06,1.0,8.0,2026-03-14 21:05:28,37.08156,-121.59955,340.0,0.0,36.1,-12.6,,,,,21:05:28,10.7,-1.0,24.2,0.0,125.0,0.1,-0.02,1.0,,54.0,26.0,0.0,30.03,1410.0,,,330.0,,,,,0.0,0.0,,,,,,,5.0,,,1.0,,,,,,,,,77.0,17.0,935.0,935.0,13.8,2.0,,2.0,25.6,,,24.5,0.0,0.0,14.8,6.2,4.7,,,,,27.0,471.0,27.0,449.0,28.0,516.0,32.0,519.0,,,15.0,0.0,,25.6,-11.0,4.998,,,1.304,0.846,76.8,17.1,,,,,,935.0,2026-03-14 14:04:08-07:00
86.06,2.0,8.0,2026-03-14 21:05:29,37.08156,-121.59955,338.0,0.0,36.1,-12.6,,,,,21:05:29,10.7,-1.0,24.2,0.0,125.0,0.1,-0.02,1.0,,51.0,26.0,0.0,30.03,1410.0,,,330.0,,,,,0.0,0.0,,,,,,,5.0,,,1.0,,,,,,,,,77.0,17.0,962.0,962.0,14.0,2.0,,2.0,25.6,,,24.5,0.0,0.0,13.4,6.2,4.7,,,,,27.0,475.0,28.0,457.0,29.0,527.0,32.0,526.0,,,14.0,0.0,,25.6,-11.0,4.998,,,1.302,0.846,76.8,17.1,,,,,,962.0,2026-03-14 14:04:08-07:00
87.06,2.0,8.0,2026-03-14 21:05:30,37.08156,-121.59955,338.0,0.0,36.1,-12.6,,,,,21:05:30,10.7,-0.9,24.2,0.0,125.0,0.1,-0.02,1.0,,39.0,26.0,0.0,30.03,1410.0,,,330.0,,,,,0.0,0.0,,,,,,,5.0,,,1.0,,,,,,,,,77.0,17.0,962.0,962.0,13.9,2.0,,2.0,25.6,,,24.5,0.0,0.0,12.3,6.2,4.7,,,,,28.0,481.0,28.0,463.0,29.0,532.0,32.0,534.0,,,14.0,0.0,,25.6,-11.0,4.998,,,1.304,0.846,76.9,17.1,,,,,,962.0,2026-03-14 14:04:08-07:00
88.06,2.0,8.0,2026-03-14 21:05:31,37.08156,-121.59955,339.0,0.0,36.1,-12.6,,,,,21:05:31,10.7,-0.9,24.3,0.0,125.0,0.1,-0.02,1.0,,50.0,26.0,0.0,30.03,1420.0,,,330.0,,,,,0.0,0.0,,,,,,,5.0,,,1.0,,,,,,,,,77.0,17.0,973.0,973.0,13.8,2.0,,2.0,25.7,,,24.5,0.0,0.0,11.1,6.2,4.7,,,,,28.0,486.0,29.0,470.0,30.0,539.0,33.0,539.0,,,14.0,0.0,,25.7,-11.0,4.998,,,1.302,0.846,77.0,17.1,,,,,,973.0,2026-03-14 14:04:08-07:00
89.06,2.0,9.0,2026-03-14 21:05:32,37.08155,-121.59956,338.0,0.1,36.1,-12.6,,,,,21:05:32,10.7,-0.9,24.2,0.0,125.0,0.0,-0.02,1.1,,26.0,26.0,0.0,30.03,1420.0,,,330.0,,,,,0.0,0.0,,,,,,,-3.0,,,99.0,,,,,,,,,77.0,17.0,994.0,994.0,13.6,2.0,,2.0,25.6,,,24.5,0.0,0.0,10.0,6.2,4.7,,,,,29.0,490.0,29.0,477.0,30.0,543.0,34.0,544.0,,,14.0,0.0,,25.6,-11.0,4.998,,,1.302,0.845,77.1,17.1,,,,,,994.0,2026-03-14 14:04:08-07:00
90.06,2.0,9.0,2026-03-14 21:05:33,37.08155,-121.59956,337.0,0.1,36.1,-12.6,,,,,21:05:33,10.7,-0.8,24.3,0.0,125.0,0.1,-0.02,1.0,,51.0,26.0,0.0,30.03,1420.0,,,330.0,,,,,0.0,0.0,,,,,,,-41.0,,,71.0,,,,,,,,,77.0,17.0,997.0,997.0,13.5,2.0,,2.0,25.6,,,24.5,0.0,0.0,9.2,6.2,4.7,,,,,29.0,494.0,30.0,482.0,31.0,547.0,34.0,548.0,,,14.0,0.0,,25.6,-11.0,4.998,,,1.302,0.845,77.1,17.1,,,,,,997.0,2026-03-14 14:04:08-07:00
91.06,2.0,9.0,2026-03-14 21:05:34,37.08155,-121.59956,337.0,0.0,36.1,-12.6,,,,,21:05:34,10.7,-0.8,24.2,0.0,125.0,0.0,-0.02,1.0,,38.0,26.0,0.0,30.03,1420.0,,,330.0,,,,,0.0,0.0,,,,,,,-13.0,,,53.0,,,,,,,,,77.0,17.0,1008.0,1008.0,13.4,2.0,,2.0,25.7,,,24.5,0.0,0.0,8.5,6.2,4.7,,,,,30.0,498.0,30.0,489.0,31.0,551.0,35.0,553.0,,,14.0,0.0,,25.7,-11.0,4.998,,,1.304,0.845,77.2,17.1,,,,,,1008.0,2026-03-14 14:04:08-07:00
92.06,2.0,9.0,2026-03-14 21:05:35,37.08155,-121.59956,337.0,0.1,36.1,-12.6,,,,,21:05:35,10.7,-0.8,24.2,0.0,125.0,0.0,-0.02,0.9,,24.0,26.0,0.0,30.03,1420.0,,,330.0,,,,,0.0,0.0,,,,,,,-11.0,,,51.0,,,,,,,,,77.0,17.0,995.0,995.0,13.3,2.0,,2.0,25.7,,,24.5,0.0,0.0,8.4,6.2,4.7,,,,,30.0,501.0,31.0,494.0,32.0,554.0,35.0,558.0,,,14.0,0.0,,25.7,-11.0,4.998,,,1.302,0.845,77.2,17.1,,,,,,995.0,2026-03-14 14:04:08-07:00
93.06,2.0,9.0,2026-03-14 21:05:36,37.08155,-121.59956,337.0,0.1,36.1,-12.6,,,,,21:05:36,10.7,-0.8,24.3,0.0,125.0,0.1,-0.02,1.0,,-28.0,26.0,0.0,30.03,1420.0,,,330.0,,,,,0.0,0.0,,,,,,,-11.0,,,51.0,,,,,,,,,77.0,17.0,997.0,997.0,13.2,2.0,,2.0,25.6,,,24.5,0.0,0.0,7.8,6.2,4.7,,,,,31.0,505.0,31.0,499.0,32.0,557.0,36.0,563.0,,,14.0,0.0,,25.6,-11.0,4.998,,,1.302,0.845,77.2,17.1,,,,,,997.0,2026-03-14 14:04:08-07:00
94.06,2.0,9.0,2026-03-14 21:05:37,37.08154,-121.59956,337.0,0.0,36.1,-12.6,,,,,21:05:37,10.7,-0.8,24.3,0.0,125.0,0.1,-0.01,1.0,,-31.0,26.0,0.0,30.03,1420.0,,,330.0,,,,,0.0,0.0,,,,,,,-10.0,,,51.0,,,,,,,,,77.0,17.0,1005.0,1005.0,13.2,2.0,,2.0,25.6,,,24.5,0.0,0.0,7.3,6.2,4.7,,,,,31.0,507.0,32.0,504.0,33.0,561.0,37.0,566.0,,,14.0,0.0,,25.6,-11.0,4.998,,,1.302,0.842,77.2,17.1,,,,,,1005.0,2026-03-14 14:04:08-07:00
95.06,2.0,9.0,2026-03-14 21:05:38,37.08154,-121.59956,339.0,0.0,36.1,-12.6,,,,,21:05:38,10.7,-0.9,24.3,0.0,125.0,0.1,-0.02,1.0,,37.0,26.0,0.0,30.03,1420.0,,,330.0,,,,,0.0,0.0,,,,,,,-9.0,,,50.0,,,,,,,,,77.0,17.0,1005.0,1005.0,13.1,2.0,,2.0,25.7,,,24.5,0.0,0.0,6.9,6.2,4.7,,,,,32.0,512.0,33.0,508.0,33.0,563.0,37.0,569.0,,,14.0,0.0,,25.7,-11.0,4.998,,,1.302,0.841,77.2,17.1,,,,,,1005.0,2026-03-14 14:04:08-07:00
96.06,2.0,9.0,2026-03-14 21:05:39,37.08154,-121.59956,340.0,0.0,36.1,-12.6,,,,,21:05:39,10.7,-0.9,24.3,0.0,125.0,0.1,-0.02,1.0,,41.0,26.0,0.0,30.03,1430.0,,,330.0,,,,,0.0,0.0,,,,,,,-9.0,,,50.0,,,,,,,,,77.0,17.0,1006.0,1006.0,13.0,2.0,,2.0,25.6,,,24.5,0.0,0.0,6.7,6.2,4.7,,,,,32.0,516.0,33.0,512.0,34.0,566.0,38.0,572.0,,,15.0,0.0,,25.6,-11.0,4.998,,,1.302,0.841,77.3,17.2,,,,,,1006.0,2026-03-14 14:04:08-07:00
97.06,2.0,9.0,2026-03-14 21:05:40,37.08154,-121.59956,340.0,0.0,36.1,-12.6,,,,,21:05:40,10.7,-0.9,24.3,0.0,126.0,0.1,-0.02,0.9,,52.0,26.0,0.0,30.03,1430.0,,,330.0,,,,,0.0,0.0,,,,,,,-9.0,,,49.0,,,,,,,,,77.0,17.0,1005.0,1005.0,13.1,2.0,,2.0,25.7,,,24.5,0.0,0.0,6.8,6.2,4.7,,,,,33.0,518.0,34.0,516.0,34.0,568.0,39.0,573.0,,,15.0,0.0,,25.7,-11.0,4.998,,,1.302,0.841,77.3,17.2,,,,,,1005.0,2026-03-14 14:04:08-07:00
98.06,2.0,9.0,2026-03-14 21:05:41,37.08151,-121.59957,340.0,0.0,36.1,-12.6,,,,,21:05:41,10.7,-0.9,24.3,0.0,126.0,0.0,-0.01,1.0,,1.0,26.0,0.0,30.03,1430.0,,,330.0,,,,,0.0,0.0,,,,,,,-9.0,,,49.0,,,,,,,,,77.0,17.0,1011.0,1011.0,13.0,2.0,,2.0,25.7,,,24.5,0.0,0.0,6.8,6.2,4.7,,,,,33.0,519.0,34.0,519.0,35.0,571.0,39.0,576.0,,,15.0,0.0,,25.7,-11.0,4.998,,,1.302,0.84,77.3,17.2,,,,,,1011.0,2026-03-14 14:04:08-07:00
99.06,2.0,9.0,2026-03-14 21:05:42,37.08152,-121.59957,327.0,0.0,36.1,-12.6,,,,,21:05:42,10.7,-1.0,24.3,0.0,126.0,0.1,-0.02,1.0,,-22.0,26.0,0.0,30.03,1432.0,,,330.0,,,,,0.0,0.0,,,,,,,-9.0,,,47.0,,,,,,,,,77.0,17.0,1020.0,1020.0,13.0,2.0,,2.0,25.6,,,24.5,0.0,0.0,6.7,6.2,4.7,,,,,34.0,521.0,35.0,527.0,36.0,574.0,40.0,577.0,,,15.0,0.0,,25.6,-11.0,4.998,,,1.302,0.84,77.3,17.2,,,,,,1020.0,2026-03-14 14:04:08-07:00
100.06,2.0,9.0,2026-03-14 21:05:43,37.08152,-121.59957,327.0,0.0,36.1,-12.6,,,,,21:05:43,10.7,-0.8,24.3,0.0,126.0,0.0,-0.01,1.0,,-33.0,26.0,0.0,30.03,1432.0,,,330.0,,,,,0.0,0.0,,,,,,,-8.0,,,47.0,,,,,,,,,77.0,17.0,1032.0,1032.0,12.9,2.0,,2.0,25.7,,,24.5,0.0,0.0,6.6,6.2,4.7,,,,,34.0,523.0,35.0,530.0,36.0,577.0,40.0,579.0,,,15.0,0.0,,25.7,-11.0,4.998,,,1.302,0.84,77.4,17.2,,,,,,1032.0,2026-03-14 14:04:08-07:00
101.06,2.0,9.0,2026-03-14 21:05:44,37.08152,-121.59957,329.0,0.0,36.1,-12.6,,,,,21:05:44,10.7,-0.8,24.2,0.0,126.0,0.0,-0.01,1.0,,-37.0,26.0,0.0,30.03,1432.0,,,330.0,,,,,0.0,0.0,,,,,,,-8.0,,,46.0,,,,,1.0,1.0,0.0,1200.0,77.0,17.0,1008.0,1008.0,12.8,2.0,,2.0,25.6,,,24.5,0.0,0.0,6.5,6.2,4.7,,,,,35.0,524.0,36.0,534.0,37.0,579.0,41.0,581.0,,,15.0,0.0,,25.6,-11.0,4.998,,,1.302,0.84,77.3,17.2,,,,,,1008.0,2026-03-14 14:04:08-07:00
102.06,2.0,9.0,2026-03-14 21:05:45,37.08151,-121.59959,337.0,0.1,36.1,-12.6,,,,,21:05:45,10.7,-0.8,24.3,0.0,126.0,0.1,-0.02,1.0,,-15.0,26.0,0.0,30.03,1432.0,,,330.0,,,,,0.0,0.0,,,,,,,-8.0,,,45.0,,,,,1.0,0.0,0.0,1200.0,77.0,17.0,994.0,994.0,12.9,2.0,,2.0,25.7,,,24.5,0.0,0.0,6.4,6.2,4.7,,,,,35.0,526.0,36.0,535.0,37.0,579.0,42.0,583.0,,,15.0,0.0,,25.7,-11.0,4.998,,,1.302,0.84,77.3,17.2,,,,,,994.0,2026-03-14 14:04:08-07:00
103.06,2.0,9.0,2026-03-14 21:05:46,37.08151,-121.59959,338.0,0.0,36.1,-12.6,,,,,21:05:46,10.7,-0.9,24.2,0.0,126.0,0.1,-0.02,1.0,,-48.0,26.0,0.0,30.03,1432.0,,,330.0,,,,,0.0,0.0,,,,,,,-8.0,,,44.0,,,,,1.0,0.0,0.0,1200.0,77.0,17.0,992.0,992.0,12.9,2.0,,2.0,25.6,,,24.5,0.0,0.0,6.3,6.2,4.7,,,,,36.0,528.0,37.0,536.0,38.0,580.0,42.0,585.0,,,15.0,0.0,,25.6,-11.0,4.998,,,1.304,0.84,77.2,17.2,,,,,,992.0,2026-03-14 14:04:08-07:00
104.06,2.0,9.0,2026-03-14 21:05:47,37.08151,-121.59959,339.0,0.0,36.1,-12.6,,,,,21:05:47,10.7,-1.0,24.3,0.0,126.0,0.1,-0.02,1.0,,-65.0,26.0,0.0,30.03,1433.0,,,330.0,,,,,0.0,0.0,,,,,,,-7.0,,,44.0,,,,,1.0,0.0,0.0,1200.0,77.0,17.0,989.0,989.0,13.1,2.0,,2.0,25.6,,,24.5,0.0,0.0,6.2,6.2,4.7,,,,,36.0,530.0,38.0,539.0,38.0,587.0,43.0,586.0,,,15.0,0.0,,25.6,-11.0,4.998,,,1.302,0.84,77.0,17.3,,,,,,989.0,2026-03-14 14:04:08-07:00
105.06,2.0,9.0,2026-03-14 21:05:48,37.08151,-121.59959,340.0,0.0,36.1,-12.6,,,,,21:05:48,10.7,-1.0,24.2,0.0,126.0,0.1,-0.02,0.9,,-28.0,26.0,0.0,30.03,1433.0,,,330.0,,,,,0.0,0.0,,,,,,,-7.0,,,44.0,,,,,1.0,0.0,0.0,1200.0,77.0,17.0,1003.0,1003.0,13.0,2.0,,2.0,25.6,,,24.5,0.0,0.0,6.2,6.2,4.7,,,,,37.0,531.0,38.0,541.0,39.0,587.0,44.0,588.0,,,15.0,0.0,,25.6,-11.0,4.998,,,1.302,0.84,77.2,17.3,,,,,,1003.0,2026-03-14 14:04:08-07:00
106.06,2.0,9.0,2026-03-14 21:05:49,37.08151,-121.59959,342.0,0.0,36.1,-12.6,,,,,21:05:49,10.7,-1.0,24.2,0.0,126.0,0.1,-0.02,0.9,,-2.0,26.0,0.0,30.03,1433.0,,,330.0,,,,,0.0,0.0,,,,,,,-7.0,,,44.0,,,,,1.0,0.0,0.0,1200.0,77.0,17.0,1001.0,1001.0,12.9,2.0,,2.0,25.7,,,24.5,0.0,0.0,6.1,6.2,4.7,,,,,37.0,533.0,39.0,541.0,40.0,587.0,44.0,589.0,,,15.0,0.0,,25.7,-11.0,4.998,,,1.302,0.84,77.2,17.3,,,,,,1001.0,2026-03-14 14:04:08-07:00
107.06,2.0,9.0,2026-03-14 21:05:50,37.08151,-121.59959,342.0,0.0,36.1,-12.6,,,,,21:05:50,10.6,-1.0,24.2,0.0,126.0,0.0,-0.01,1.0,,31.0,26.0,0.0,30.03,1442.0,,,330.0,,,,,0.0,0.0,,,,,,,-7.0,,,44.0,,,,,1.0,0.0,0.0,1200.0,77.0,17.0,998.0,998.0,12.9,2.0,,2.0,25.6,,,24.5,0.0,0.0,6.0,6.2,4.7,,,,,38.0,534.0,39.0,543.0,40.0,587.0,45.0,590.0,,,15.0,0.0,,25.6,-11.0,4.998,,,1.302,0.84,77.2,17.3,,,,,,998.0,2026-03-14 14:04:08-07:00
108.06,2.0,9.0,2026-03-14 21:05:51,37.08152,-121.59959,344.0,0.0,36.1,-12.6,,,,,21:05:51,10.7,-0.9,24.2,0.0,126.0,0.1,-0.02,1.0,,56.0,26.0,0.0,30.03,1442.0,,,330.0,,,,,0.0,0.0,,,,,,,-7.0,,,44.0,,,,,1.0,0.0,0.0,1200.0,77.0,17.0,1002.0,1002.0,12.8,2.0,,2.0,25.6,,,24.5,0.0,0.0,5.9,6.2,4.7,,,,,38.0,536.0,40.0,544.0,41.0,587.0,46.0,591.0,,,15.0,0.0,,25.6,-11.0,4.998,,,1.302,0.84,77.2,17.3,,,,,,1002.0,2026-03-14 14:04:08-07:00
109.06,2.0,9.0,2026-03-14 21:05:52,37.08152,-121.59959,345.0,0.1,36.1,-12.6,,,,,21:05:52,10.7,-1.1,24.2,0.0,126.0,0.1,-0.02,1.0,,31.0,26.0,0.0,30.03,1442.0,,,330.0,,,,,0.0,0.0,,,,,,,-7.0,,,44.0,,,,,1.0,0.0,0.0,1200.0,77.0,17.0,993.0,993.0,12.8,2.0,,2.0,25.7,,,24.5,0.0,0.0,5.8,6.2,4.7,,,,,39.0,537.0,41.0,546.0,41.0,588.0,46.0,592.0,,,15.0,0.0,,25.7,-11.0,4.998,,,1.302,0.84,77.2,17.3,,,,,,993.0,2026-03-14 14:04:08-07:00
110.06,2.0,9.0,2026-03-14 21:05:53,37.08152,-121.5996,347.0,0.1,36.1,-12.6,,,,,21:05:53,10.7,-1.0,24.1,0.0,126.0,0.0,-0.02,1.0,,44.0,26.0,0.0,30.03,1442.0,,,330.0,,,,,0.0,0.0,,,,,,,-6.0,,,43.0,,,,,1.0,0.0,0.0,1200.0,77.0,17.0,1000.0,1000.0,12.8,2.0,,2.0,25.6,,,24.5,0.0,0.0,5.7,6.2,4.7,,,,,39.0,539.0,41.0,548.0,42.0,589.0,47.0,593.0,,,15.0,0.0,,25.6,-11.0,4.998,,,1.302,0.84,77.1,17.4,,,,,,1000.0,2026-03-14 14:04:08-07:00
111.06,2.0,9.0,2026-03-14 21:05:54,37.08152,-121.5996,351.0,0.0,36.1,-12.6,,,,,21:05:54,10.7,-1.0,24.1,0.0,126.0,0.1,-0.02,1.0,,8.0,26.0,0.0,30.03,1442.0,,,330.0,,,,,0.0,0.0,,,,,,,-6.0,,,43.0,,,,,1.0,0.0,0.0,1200.0,77.0,17.0,1001.0,1001.0,12.9,2.0,,2.0,25.6,,,24.5,0.0,0.0,5.7,6.2,4.7,,,,,40.0,541.0,42.0,549.0,42.0,590.0,47.0,594.0,,,15.0,0.0,,25.6,-11.0,4.998,,,1.302,0.84,77.1,17.4,,,,,,1001.0,2026-03-14 14:04:08-07:00
112.06,2.0,9.0,2026-03-14 21:05:55,37.08152,-121.5996,352.0,0.0,36.1,-12.6,,,,,21:05:55,10.7,-1.0,24.2,0.0,126.0,0.1,-0.02,1.0,,1.0,26.0,0.0,30.03,1442.0,,,330.0,,,,,0.0,0.0,,,,,,,-6.0,,,42.0,,,,,1.0,0.0,0.0,1200.0,77.0,17.0,993.0,993.0,12.8,2.0,,2.0,25.6,,,24.5,0.0,0.0,5.6,6.2,4.7,,,,,41.0,542.0,42.0,550.0,43.0,591.0,48.0,595.0,,,15.0,0.0,,25.6,-11.0,4.998,,,1.302,0.84,77.1,17.4,,,,,,993.0,2026-03-14 14:04:08-07:00
113.06,2.0,9.0,2026-03-14 21:05:56,37.08153,-121.5996,354.0,0.0,36.1,-12.6,,,,,21:05:56,10.7,-1.1,24.1,0.0,126.0,0.1,-0.02,0.9,,-18.0,26.0,0.0,30.03,1442.0,,,330.0,,,,,0.0,0.0,,,,,,,-6.0,,,42.0,,,,,1.0,0.0,0.0,1200.0,77.0,17.0,997.0,997.0,12.8,2.0,,2.0,25.6,,,24.5,0.0,0.0,5.6,6.2,4.7,,,,,41.0,542.0,43.0,551.0,44.0,591.0,49.0,595.0,,,15.0,0.0,,25.6,-11.0,4.998,,,1.302,0.84,77.0,17.4,,,,,,997.0,2026-03-14 14:04:08-07:00
114.06,2.0,9.0,2026-03-14 21:05:57,37.0816,-121.59956,355.0,0.0,36.1,-12.6,,,,,21:05:57,10.7,-1.1,24.0,0.0,126.0,0.0,-0.02,1.0,,2.0,26.0,0.0,30.03,1442.0,,,330.0,,,,,0.0,0.0,,,,,,,-7.0,,,40.0,,,,,1.0,0.0,0.0,1200.0,77.0,17.0,999.0,999.0,12.8,2.0,,2.0,25.6,,,24.5,0.0,0.0,5.5,6.2,4.7,,,,,42.0,544.0,44.0,553.0,44.0,591.0,49.0,596.0,,,15.0,0.0,,25.6,-11.0,4.998,,,1.302,0.84,77.0,17.4,,,,,,999.0,2026-03-14 14:04:08-07:00
115.06,2.0,9.0,2026-03-14 21:05:58,37.0816,-121.59957,392.0,0.1,36.1,-12.6,,,,,21:05:58,10.7,-1.1,24.0,0.0,126.0,0.0,-0.02,1.0,,28.0,26.0,0.0,30.03,1442.0,,,330.0,,,,,0.0,0.0,,,,,,,-7.0,,,39.0,,,,,1.0,0.0,0.0,1200.0,77.0,17.0,1007.0,1007.0,12.8,2.0,,2.0,25.6,,,24.5,0.0,0.0,5.5,6.2,4.7,,,,,42.0,546.0,44.0,555.0,45.0,592.0,50.0,597.0,,,15.0,0.0,,25.6,-11.0,4.998,,,1.302,0.839,77.1,17.4,,,,,,1007.0,2026-03-14 14:04:08-07:00
116.06,2.0,9.0,2026-03-14 21:05:59,37.0816,-121.59957,392.0,0.1,36.1,-12.6,,,,,21:05:59,10.7,-1.0,24.0,0.0,126.0,0.1,-0.02,0.9,,69.0,26.0,0.0,30.03,1442.0,,,330.0,,,,,0.0,0.0,,,,,,,-7.0,,,39.0,,,,,1.0,0.0,0.0,1200.0,77.0,17.0,1013.0,1013.0,12.7,2.0,,2.0,25.6,,,24.5,0.0,0.0,5.4,6.2,4.7,,,,,43.0,547.0,45.0,557.0,46.0,592.0,51.0,597.0,,,15.0,0.0,,25.6,-11.0,4.998,,,1.302,0.839,77.1,17.5,,,,,,1013.0,2026-03-14 14:04:08-07:00
117.06,2.0,9.0,2026-03-14 21:06:00,37.08161,-121.59957,392.0,0.1,36.1,-12.6,,,,,21:06:00,10.7,-1.0,24.0,0.0,126.0,0.0,-0.02,1.0,,62.0,26.0,0.0,30.03,1442.0,,,330.0,,,,,0.0,0.0,,,,,,,-7.0,,,39.0,,,,,1.0,0.0,0.0,1200.0,77.0,17.0,1008.0,1008.0,12.7,2.0,,2.0,25.6,,,24.5,0.0,0.0,5.4,6.2,4.7,,,,,43.0,548.0,46.0,559.0,46.0,593.0,51.0,598.0,,,15.0,0.0,,25.6,-11.0,4.998,,,1.304,0.837,77.2,17.5,,,,,,1008.0,2026-03-14 14:04:08-07:00
118.06,2.0,9.0,2026-03-14 21:06:01,37.08161,-121.59956,391.0,0.0,36.1,-12.6,,,,,21:06:01,10.7,-1.0,24.0,0.0,127.0,0.0,-0.02,1.0,,55.0,26.0,0.0,30.03,1442.0,,,330.0,,,,,0.0,0.0,,,,,,,-7.0,,,39.0,,,,,1.0,0.0,0.0,1200.0,77.0,17.0,1001.0,1001.0,12.7,2.0,,2.0,25.6,,,24.5,0.0,0.0,5.3,6.2,4.7,,,,,44.0,550.0,46.0,560.0,47.0,593.0,52.0,600.0,,,15.0,0.0,,25.6,-11.0,2.065,,,1.302,0.839,77.1,17.5,,,,,,1001.0,2026-03-14 14:04:08-07:00
119.06,2.0,9.0,2026-03-14 21:06:02,37.08161,-121.59956,390.0,0.0,36.1,-12.6,,,,,21:06:02,10.7,-0.9,24.1,0.0,127.0,0.1,-0.02,0.9,,19.0,26.0,0.0,30.03,1443.0,,,330.0,,,,,0.0,0.0,,,,,,,-7.0,,,39.0,,,,,1.0,0.0,0.0,1200.0,77.0,18.0,1000.0,1000.0,12.6,2.0,,2.0,25.6,,,24.5,0.0,0.0,5.3,6.2,4.7,,,,,45.0,551.0,47.0,561.0,47.0,594.0,53.0,600.0,,,15.0,0.0,,25.6,-11.0,4.99,,,1.302,0.839,77.1,17.5,,,,,,1000.0,2026-03-14 14:04:08-07:00
120.06,2.0,9.0,2026-03-14 21:06:03,37.08161,-121.59956,390.0,0.1,36.1,-12.6,,,,,21:06:03,10.7,-1.0,24.0,0.0,130.0,0.0,-0.02,1.0,,75.0,26.0,0.0,30.03,1443.0,,,330.0,,,,,0.0,0.0,,,,,,,-7.0,,,39.0,,,,,1.0,0.0,0.0,1200.0,77.0,18.0,1009.0,1009.0,12.7,2.0,,2.0,25.6,,,24.5,0.0,0.0,5.3,6.2,4.7,,,,,45.0,552.0,47.0,563.0,48.0,594.0,53.0,602.0,,,15.0,0.0,,25.6,-11.0,4.998,,,1.302,0.837,77.0,17.6,,,,,,1009.0,2026-03-14 14:04:08-07:00
121.06,2.0,9.0,2026-03-14 21:06:04,37.08161,-121.59956,391.0,0.1,36.1,-12.6,,,,,21:06:04,10.7,-1.0,24.0,0.0,131.0,0.0,-0.02,1.0,,91.0,26.0,0.0,30.03,1443.0,,,330.0,,,,,0.0,0.0,,,,,,,-7.0,,,39.0,,,,,1.0,0.0,0.0,1200.0,77.0,18.0,1012.0,1012.0,12.6,1.9,,1.9,25.6,,,24.5,0.0,0.0,5.2,6.2,4.7,,,,,46.0,553.0,48.0,563.0,49.0,596.0,54.0,603.0,,,15.0,0.0,,25.6,-11.0,4.998,,,1.302,0.837,77.1,17.6,,,,,,1012.0,2026-03-14 14:04:08-07:00
122.06,2.0,9.0,2026-03-14 21:06:05,37.08161,-121.59957,391.0,0.1,36.1,-12.6,,,,,21:06:05,10.7,-1.0,24.0,0.0,131.0,0.1,-0.02,1.0,,22.0,26.0,0.0,30.03,1448.0,,,330.0,,,,,0.0,0.0,,,,,,,-7.0,,,39.0,,,,,1.0,0.0,0.0,1200.0,77.0,18.0,1016.0,1016.0,12.6,1.9,,1.9,25.6,,,24.5,0.0,0.0,5.2,6.2,4.7,,,,,46.0,554.0,49.0,565.0,49.0,596.0,55.0,603.0,,,15.0,0.0,,25.6,-11.0,4.998,,,1.302,0.839,77.1,17.6,,,,,,1016.0,2026-03-14 14:04:08-07:00
123.06,2.0,9.0,2026-03-14 21:06:06,37.08162,-121.59957,391.0,0.1,36.1,-12.6,,,,,21:06:06,10.7,-0.9,24.1,0.0,131.0,0.1,-0.02,1.0,,25.0,26.0,0.0,30.03,1448.0,,,330.0,,,,,0.0,0.0,,,,,,,-7.0,,,39.0,,,,,1.0,0.0,0.0,1200.0,77.0,18.0,1018.0,1018.0,12.6,1.9,,1.9,25.6,,,24.5,0.0,0.0,5.2,6.2,4.7,,,,,47.0,556.0,49.0,567.0,50.0,597.0,55.0,604.0,,,15.0,0.0,,25.6,-11.0,0.0,,,1.302,0.839,77.2,17.6,,,,,,1018.0,2026-03-14 14:04:08-07:00
124.06,2.0,9.0,2026-03-14 21:06:07,37.08162,-121.59957,391.0,0.0,36.1,-12.6,,,,,21:06:07,10.7,-1.0,24.0,0.0,132.0,0.1,-0.02,1.0,,63.0,26.0,0.0,30.03,1448.0,,,330.0,,,,,0.0,0.0,,,,,,,-7.0,,,38.0,,,,,1.0,0.0,0.0,1200.0,77.0,18.0,1008.0,1008.0,12.6,1.9,,1.9,25.6,,,24.5,0.0,0.0,5.1,6.2,4.7,,,,,47.0,557.0,50.0,568.0,50.0,598.0,56.0,605.0,,,15.0,0.0,,25.6,-11.0,0.0,,,1.302,0.839,77.0,17.6,,,,,,1008.0,2026-03-14 14:04:08-07:00
125.06,2.0,9.0,2026-03-14 21:06:08,37.08163,-121.59959,392.0,0.1,36.1,-12.6,,,,,21:06:08,10.7,-1.0,24.0,0.0,132.0,0.0,-0.01,0.9,,38.0,26.0,0.0,30.03,1449.0,,,330.0,,,,,0.0,0.0,,,,,,,-7.0,,,38.0,,,,,1.0,0.0,0.0,1200.0,77.0,18.0,1014.0,1014.0,12.6,1.9,,1.9,25.6,,,24.5,0.0,0.0,5.1,6.2,4.7,,,,,48.0,558.0,50.0,569.0,51.0,598.0,56.0,607.0,,,15.0,0.0,,25.6,-11.0,0.0,,,1.302,0.839,77.0,17.7,,,,,,1014.0,2026-03-14 14:04:08-07:00
126.06,2.0,9.0,2026-03-14 21:06:09,37.08163,-121.59959,392.0,0.0,36.1,-12.6,,,,,21:06:09,10.8,-1.0,24.0,0.0,132.0,0.0,-0.02,1.0,,12.0,26.0,0.0,30.03,1449.0,,,330.0,,,,,0.0,0.0,,,,,,,-7.0,,,38.0,,,,,1.0,0.0,0.0,1200.0,77.0,18.0,1008.0,1008.0,12.6,1.9,,1.9,25.6,,,24.5,0.0,0.0,5.0,6.2,4.7,,,,,49.0,559.0,51.0,570.0,52.0,599.0,57.0,607.0,,,15.0,0.0,,25.6,-11.0,0.0,,,1.302,0.839,77.0,17.7,,,,,,1008.0,2026-03-14 14:04:08-07:00
127.06,2.0,9.0,2026-03-14 21:06:10,37.08163,-121.59959,392.0,0.1,36.1,-12.6,,,,,21:06:10,10.8,-1.0,24.4,0.0,132.0,0.3,-0.02,1.1,,18.0,26.0,0.0,30.03,1450.0,,,330.0,,,,,0.0,0.0,,,,,,,-48.0,,,28.0,,,,,1.0,0.0,0.0,1200.0,77.0,18.0,1021.0,1021.0,12.7,1.9,,1.9,25.7,,,24.5,0.0,0.0,5.0,6.2,4.7,,,,,49.0,560.0,52.0,572.0,52.0,600.0,58.0,609.0,,,15.0,0.0,,25.7,-11.0,0.0,,,1.302,0.839,77.0,17.7,,,,,,1021.0,2026-03-14 14:04:08-07:00
128.06,2.0,9.0,2026-03-14 21:06:11,37.08163,-121.59959,393.0,0.2,36.1,-12.6,,,,,21:06:11,10.8,-1.1,24.7,0.0,132.0,0.4,-0.02,1.0,,17.0,26.0,0.0,30.03,1450.0,,,330.0,,,,,0.0,0.0,,,,,,,-54.0,,,53.0,,,,,1.0,0.0,0.0,1200.0,77.0,18.0,1015.0,1015.0,12.6,1.9,,1.9,25.6,,,24.5,0.0,0.0,5.0,6.2,4.7,,,,,50.0,562.0,52.0,573.0,53.0,602.0,58.0,608.0,,,15.0,0.0,,25.6,-11.0,0.0,,,1.304,0.839,77.0,17.7,,,,,,1015.0,2026-03-14 14:04:08-07:00
129.06,2.0,9.0,2026-03-14 21:06:12,37.08163,-121.59959,395.0,0.4,36.1,-12.6,,,,,21:06:12,10.9,-1.1,25.6,0.0,132.0,0.7,-0.02,1.0,,1.0,26.0,0.0,30.03,1450.0,,,330.0,,,,,0.0,0.0,,,,,,,-4.0,,,103.0,,,,,1.0,0.0,0.0,1200.0,77.0,18.0,1021.0,1021.0,12.6,1.9,,1.9,25.7,,,24.5,0.0,0.0,5.0,6.2,4.7,,,,,50.0,562.0,53.0,573.0,54.0,604.0,59.0,610.0,,,15.0,0.0,,25.7,-11.0,0.0,,,1.302,0.84,77.0,17.8,,,,,,1021.0,2026-03-14 14:04:08-07:00
130.06,2.0,9.0,2026-03-14 21:06:13,37.08164,-121.59959,395.0,1.0,36.7,-12.6,,,,,21:06:13,11.1,-1.1,27.5,0.0,132.0,1.4,-0.02,0.9,,-24.0,26.0,0.0,30.03,1449.0,,,330.0,,,,,0.0,0.0,,,,,,,-4.0,,,103.0,,,,,1.0,0.0,0.0,1200.0,77.0,18.0,1018.0,1018.0,12.5,1.9,,1.9,25.6,,,24.5,0.0,0.0,5.0,6.2,4.7,,,,,51.0,563.0,54.0,574.0,54.0,604.0,60.0,611.0,,,15.0,0.0,,25.6,-11.0,0.0,,,1.245,0.839,77.1,17.8,,,,,,1018.0,2026-03-14 14:04:08-07:00
131.06,2.0,9.0,2026-03-14 21:06:14,37.08164,-121.59958,394.0,2.0,47.2,-12.6,,,,,21:06:14,11.4,-1.0,30.0,0.0,132.0,2.2,-0.02,1.0,,-23.0,26.0,0.0,30.03,1449.0,,,330.0,,,,,0.0,0.0,,,,,,,-4.0,,,100.0,,,,,1.0,0.0,0.0,1200.0,77.0,18.0,1008.0,1008.0,12.6,1.9,,1.9,25.7,,,24.5,0.0,0.0,4.9,6.2,4.7,,,,,51.0,564.0,54.0,576.0,55.0,604.0,60.0,611.0,,,15.0,0.0,,25.7,-11.0,0.0,,,1.263,0.839,76.9,17.8,,,,,,1008.0,2026-03-14 14:04:08-07:00
132.06,2.0,9.0,2026-03-14 21:06:15,37.08163,-121.59958,401.0,2.4,51.3,-12.6,,,,,21:06:15,11.0,-1.5,32.1,0.0,132.0,2.4,-0.03,0.9,,-48.0,26.0,0.0,30.03,1449.0,,,330.0,,,,,0.0,0.0,,,,,,,-4.0,,,99.0,,,,,1.0,0.0,0.0,1200.0,76.0,18.0,964.0,964.0,12.5,1.9,,1.9,25.7,,,24.5,0.0,0.0,4.9,6.2,4.7,,,,,52.0,565.0,55.0,576.0,55.0,603.0,61.0,610.0,,,15.0,0.0,,25.7,-11.0,0.0,,,1.329,0.84,76.3,17.8,,,,,,964.0,2026-03-14 14:04:08-07:00
133.06,2.0,9.0,2026-03-14 21:06:16,37.08164,-121.59956,400.0,2.9,53.5,-12.6,,,,,21:06:16,10.4,-2.0,34.2,0.0,132.0,2.2,-0.03,0.9,,-36.0,26.0,0.0,30.03,1450.0,,,330.0,,,,,0.0,0.0,,,,,,,-4.0,,,99.0,,,,,1.0,0.0,0.0,1200.0,75.0,18.0,948.0,948.0,12.5,1.9,,1.9,25.7,,,24.5,0.0,0.0,4.9,6.2,4.7,,,,,53.0,565.0,55.0,576.0,56.0,602.0,62.0,608.0,,,15.0,0.0,,25.7,-11.0,0.0,,,1.326,0.839,75.4,17.9,,,,,,948.0,2026-03-14 14:04:08-07:00
134.06,2.0,9.0,2026-03-14 21:06:17,37.08165,-121.59955,400.0,3.0,55.3,-12.6,,,,,21:06:17,10.4,-1.7,36.4,0.0,132.0,2.1,-0.04,1.0,,-51.0,26.0,0.0,30.03,1450.0,,,330.0,,,,,0.0,0.0,,,,,,,-4.0,,,99.0,,,,,1.0,0.0,0.0,1200.0,75.0,18.0,942.0,942.0,12.7,1.8,,1.8,25.7,,,24.5,0.0,0.0,4.8,6.2,4.7,,,,,53.0,564.0,56.0,574.0,57.0,599.0,62.0,605.0,,,15.0,0.0,,25.7,-11.0,0.0,,,1.418,0.839,75.0,17.9,,,,,,942.0,2026-03-14 14:04:08-07:00
135.06,2.0,9.0,2026-03-14 21:06:18,37.08165,-121.59953,399.0,2.8,58.1,-12.6,,,,,21:06:18,10.6,-0.5,39.0,0.0,132.0,2.5,-0.02,0.9,,-15.0,26.0,0.0,30.03,1450.0,,,330.0,,,,,0.0,0.0,,,,,,,-4.0,,,99.0,,,,,1.0,0.0,0.0,1200.0,75.0,18.0,942.0,942.0,12.6,1.8,,1.8,25.7,,,24.5,0.0,0.0,4.8,6.2,4.7,,,,,54.0,564.0,57.0,573.0,57.0,598.0,63.0,603.0,,,15.0,0.0,,25.7,-11.0,0.0,,,1.41,0.84,74.9,17.9,,,,,,942.0,2026-03-14 14:04:08-07:00
136.06,2.0,9.0,2026-03-14 21:06:19,37.08166,-121.59953,398.0,2.7,57.7,-12.6,,,,,21:06:19,10.8,0.0,41.7,0.0,132.0,2.6,-0.01,0.9,,-58.0,26.0,0.0,30.03,1449.0,,,330.0,,,,,0.0,0.0,,,,,,,-4.0,,,98.0,,,,,1.0,0.0,0.0,1200.0,75.0,18.0,936.0,936.0,12.7,1.8,,1.8,25.7,,,24.5,0.0,0.0,4.8,6.2,4.7,,,,,54.0,564.0,57.0,572.0,58.0,596.0,63.0,601.0,,,15.0,0.0,,25.7,-11.0,0.0,,,1.359,0.84,74.6,17.9,,,,,,936.0,2026-03-14 14:04:08-07:00
137.06,2.0,9.0,2026-03-14 21:06:20,37.08166,-121.59951,398.0,2.7,56.3,-12.6,,,,,21:06:20,11.2,0.1,44.7,0.0,132.0,2.9,-0.0,1.0,,-55.0,26.0,0.0,30.03,1450.0,,,330.0,,,,,0.0,0.0,,,,,,,-4.0,,,98.0,,,,,1.0,0.0,0.0,1200.0,74.0,18.0,938.0,938.0,12.7,1.7,,1.7,25.7,,,24.5,0.0,0.0,4.8,6.2,4.7,,,,,55.0,564.0,58.0,571.0,58.0,595.0,64.0,599.0,,,15.0,0.0,,25.7,-11.0,0.0,,,1.36,0.839,74.5,18.0,,,,,,938.0,2026-03-14 14:04:08-07:00
138.06,2.0,9.0,2026-03-14 21:06:21,37.08167,-121.59949,397.0,2.9,63.4,-12.6,,,,,21:06:21,11.4,0.3,47.9,0.0,132.0,3.2,0.0,0.9,,-41.0,26.0,0.0,30.03,1450.0,,,330.0,,,,,0.0,0.0,,,,,,,-5.0,,,103.0,,,,,1.0,0.0,0.0,1200.0,74.0,18.0,929.0,929.0,12.7,1.7,,1.7,25.7,,,24.5,0.0,0.0,4.7,6.2,4.7,,,,,56.0,564.0,58.0,570.0,59.0,594.0,65.0,596.0,,,15.0,0.0,,25.7,-11.0,0.0,,,1.304,0.84,74.3,18.0,,,,,,929.0,2026-03-14 14:04:08-07:00
139.06,2.0,9.0,2026-03-14 21:06:22,37.08167,-121.59948,397.0,2.8,62.3,-12.6,,,,,21:06:22,11.2,0.5,50.7,0.0,132.0,3.1,0.0,0.9,,-18.0,26.0,0.0,30.03,1450.0,,,330.0,,,,,0.0,0.0,,,,,,,-6.0,,,103.0,,,,,1.0,0.0,0.0,1200.0,74.0,18.0,929.0,929.0,12.7,1.7,,1.7,25.7,,,24.5,0.0,0.0,4.7,6.2,4.7,,,,,56.0,564.0,59.0,570.0,59.0,593.0,65.0,595.0,,,15.0,0.0,,25.7,-11.0,0.0,,,1.302,0.84,74.2,18.0,,,,,,929.0,2026-03-14 14:04:08-07:00
140.06,2.0,9.0,2026-03-14 21:06:23,37.08168,-121.59946,396.0,2.7,61.8,-12.6,,,,,21:06:23,11.1,0.6,53.4,0.0,132.0,3.0,0.0,1.0,,-11.0,26.0,0.0,30.03,1449.0,,,330.0,,,,,0.0,0.0,,,,,,,-6.0,,,103.0,,,,,1.0,0.0,0.0,1200.0,74.0,18.0,926.0,926.0,12.7,1.7,,1.7,25.6,,,24.5,0.0,0.0,4.7,6.2,4.7,,,,,57.0,564.0,59.0,568.0,60.0,592.0,66.0,594.0,,,15.0,0.0,,25.6,-11.0,0.0,,,1.302,0.839,74.1,18.0,,,,,,926.0,2026-03-14 14:04:08-07:00
141.06,2.0,9.0,2026-03-14 21:06:24,37.08168,-121.59945,395.0,2.8,67.0,-12.6,,,,,21:06:24,11.1,0.5,55.5,0.0,132.0,2.6,0.0,1.0,,-20.0,26.0,0.0,30.03,1450.0,,,330.0,,,,,0.0,0.0,,,,,,,-6.0,,,103.0,,,,,1.0,0.0,0.0,1200.0,74.0,18.0,939.0,939.0,12.6,1.7,,1.7,25.7,,,24.5,0.0,0.0,4.7,6.2,4.7,,,,,57.0,564.0,60.0,568.0,61.0,591.0,66.0,592.0,,,15.0,0.0,,25.7,-11.0,0.0,,,1.246,0.839,74.2,18.1,,,,,,939.0,2026-03-14 14:04:08-07:00
142.06,2.0,9.0,2026-03-14 21:06:25,37.08168,-121.59943,394.0,3.1,67.4,-12.6,,,,,21:06:25,11.0,0.3,57.2,0.0,132.0,2.1,0.0,1.0,,-8.0,26.0,0.0,30.03,1450.0,,,330.0,,,,,0.0,0.0,,,,,,,-6.0,,,101.0,,,,,1.0,0.0,0.0,1200.0,74.0,18.0,943.0,943.0,12.6,1.7,,1.7,25.7,,,24.5,0.0,0.0,4.6,6.2,4.7,,,,,58.0,564.0,60.0,568.0,61.0,591.0,67.0,591.0,,,15.0,0.0,,25.7,-11.0,0.0,,,1.089,0.839,74.2,18.1,,,,,,943.0,2026-03-14 14:04:08-07:00
143.06,2.0,9.0,2026-03-14 21:06:26,37.08169,-121.59941,391.0,3.0,74.1,-12.6,,,,,21:06:26,11.1,0.1,58.4,0.0,132.0,1.8,-0.01,0.9,,-5.0,26.0,0.0,30.03,1450.0,,,330.0,,,,,0.0,0.0,,,,,,,-6.0,,,100.0,,,,,1.0,0.0,0.0,1200.0,74.0,18.0,915.0,915.0,12.5,1.7,,1.7,25.7,,,24.5,0.0,0.0,4.6,6.2,4.7,,,,,58.0,564.0,61.0,567.0,62.0,591.0,67.0,590.0,,,15.0,0.0,,25.7,-11.0,0.0,,,1.091,0.84,74.0,18.1,,,,,,915.0,2026-03-14 14:04:08-07:00
144.06,2.0,9.0,2026-03-14 21:06:27,37.08169,-121.5994,390.0,2.9,73.2,-12.6,,,,,21:06:27,11.1,-0.6,56.9,0.0,132.0,-0.1,-0.01,0.9,,-46.0,26.0,0.0,30.03,1449.0,,,330.0,,,,,0.0,0.0,,,,,,,-6.0,,,97.0,,,,,1.0,0.0,0.0,1200.0,73.0,18.0,899.0,899.0,12.5,1.6,,1.6,25.7,,,24.5,0.0,0.0,4.6,6.2,4.7,,,,,59.0,563.0,62.0,566.0,62.0,591.0,68.0,588.0,,,15.0,0.0,,25.7,-11.0,0.0,,,1.091,0.839,73.3,18.2,,,,,,899.0,2026-03-14 14:04:08-07:00
145.06,2.0,9.0,2026-03-14 21:06:28,37.0817,-121.59938,388.0,3.3,71.6,-12.6,,,,,21:06:28,11.4,-0.9,55.8,0.0,131.0,-0.8,-0.0,1.1,,-55.0,26.0,0.0,30.03,1449.0,,,330.0,,,,,0.0,0.0,,,,,,,-5.0,,,97.0,,,,,1.0,0.0,0.0,1200.0,73.0,18.0,905.0,905.0,12.6,1.6,,1.6,25.7,,,24.5,0.0,0.0,4.6,6.2,4.7,,,,,59.0,563.0,62.0,567.0,63.0,590.0,69.0,587.0,,,15.0,0.0,,25.7,-11.0,0.0,,,0.925,0.839,73.0,18.2,,,,,,905.0,2026-03-14 14:04:08-07:00
146.06,2.0,9.0,2026-03-14 21:06:29,37.0817,-121.59936,387.0,3.7,69.1,-12.6,,,,,21:06:29,11.5,-1.1,55.1,0.0,130.0,-0.7,-0.01,0.8,,-8.0,26.0,0.0,30.03,1449.0,,,330.0,,,,,0.0,0.0,,,,,,,-5.0,,,97.0,,,,,1.0,0.0,0.0,1200.0,73.0,18.0,905.0,905.0,12.7,1.6,,1.6,25.7,,,24.5,0.0,0.0,4.6,6.2,4.7,,,,,60.0,562.0,63.0,565.0,63.0,589.0,69.0,586.0,,,15.0,0.0,,25.7,-11.0,0.0,,,0.929,0.84,73.0,18.2,,,,,,905.0,2026-03-14 14:04:08-07:00
