Session Time,GPS Fix Quality,Number of Satellites,GPS Date & Time,Latitude (deg),Longitude (deg),GPS Altitude (feet),Ground Speed (knots),Ground Track (deg),Mag Var (deg),Cross Track Error (NM),Destination Waypoint ID,Range to Destination (NM),Bearing to Destination (deg),System Time,Pitch (deg),Roll (deg),Magnetic Heading (deg),Indicated Airspeed (knots),Pressure Altitude (ft),Turn Rate (deg/s),Lateral Accel (g),Vertical Accel(g),Angle of Attack (%),Vertical Speed (ft/min),OAT (deg C),True Airspeed (knots),Barometer Setting (inHg),Density Altitude (ft),Wind Direction (deg),Wind Speed (knots),Heading Bug (deg),Altitude Bug (ft),Airspeed Bug (knots),Vertical Speed Bug (ft/min),Course (deg),CDI Source Type,CDI Source Port,CDI Scale (NM),CDI Deflection (%),Glideslope (%),AP Engaged,AP Roll Mode,AP Roll Force,AP Roll Position (steps),AP Roll Slip (bool),AP Pitch Force,AP Pitch Position (steps),AP Pitch Slip (bool),AP Yaw Force,AP Yaw Position,AP Yaw Slip (bool),Transponder Status,Transponder Reply (bool),Transponder Identing (bool),Transponder Code (octal),Oil Pressure (PSI),Oil Temp (deg C),RPM L,RPM R,Manifold Pressure (inHg),Fuel Flow 1 (gal/hr),Fuel Flow 2 (gal/hr),Total Fuel Flow (gal/hr),Fuel Pressure (PSI),Fuel Level L (gal),Fuel Level R (gal),Fuel Remaining (gal),Volts 1,Volts 2,Amps,Hobbs Time,Tach Time,Thermocouple 1 (deg C),Thermocouple 2 (deg C),Thermocouple 3 (deg C),Thermocouple 4 (deg C),CHT 4 (deg C),EGT 4 (deg C),CHT 3 (deg C),EGT 3 (deg C),CHT 2 (deg C),EGT 2 (deg C),CHT 1 (deg C),EGT 1 (deg C),Thermocouple 13 (deg C),Thermocouple 14 (deg C),ELEV POSITION (%),CO PPM PRESSURE (PSI),GP Input 3,FUEL PRESSURE (PSI),AILERN POSITION (%),CANOPY CONTACT (V),GP Input 7,GP Input 8,LEFT LEVEL (Sensor V),RIGHT LEVEL (Sensor V),OIL PRESSURE (PSI),OIL TEMPERATURE (deg C),GP Input 13,Contacts,Percent Power,EGT Leaning State,Unnamed: 103,RPM,Flight ID
0.06,1.0,9.0,2026-01-04 22:43:52,37.08162,-121.59948,257.0,0.0,337.8,-12.7,,,,,22:43:52,,,,,,,,,,,13.0,,,,,,230.0,,110.0,0.0,,0.0,0.0,,,,,,,,,,,,,,,,,,,,,,,,,,,,,,38.2,,,,0.6,0.2,,,,,,,,,,,,,,,,,,,,,,,,,,,,,,,,,2026-01-04 14:43:52-08:00
1.06,1.0,9.0,2026-01-04 22:43:53,37.08162,-121.59948,256.0,0.0,337.8,-12.6,,,,,22:43:52,11.0,0.3,240.9,0.0,338.0,-0.0,0.01,0.9,,-55.0,13.0,0.0,29.88,157.0,,,230.0,,110.0,0.0,,0.0,0.0,,,,,,,,,,,,,,,,,,,,,0.0,0.0,,,,0.0,,,,38.2,0.0,0.0,-0.2,0.6,0.2,,,,,13.0,13.0,12.0,13.0,13.0,13.0,12.0,13.0,,,-10.0,254.5,,28.8,-1.0,4.998,,,0.656,0.703,0.0,53.2,,,,,,0.0,2026-01-04 14:43:52-08:00
2.06,1.0,9.0,2026-01-04 22:43:54,37.08162,-121.59949,255.0,0.0,337.8,-12.6,,,,,22:43:53,11.0,0.2,241.0,0.0,336.0,-0.0,0.01,1.0,,-70.0,13.0,0.0,29.88,157.0,,,230.0,,110.0,0.0,,0.0,0.0,,,,,,,,,,,,,,,,,,,,,0.0,0.0,,,,0.0,,,,38.2,0.0,0.0,-0.3,0.6,0.2,,,,,13.0,14.0,13.0,13.0,13.0,14.0,13.0,14.0,,,-10.0,254.5,,28.8,0.0,4.998,,,0.656,0.703,0.0,53.2,,,,,,0.0,2026-01-04 14:43:52-08:00
3.06,1.0,9.0,2026-01-04 22:43:55,37.08162,-121.59949,255.0,0.0,337.8,-12.6,,,,,22:43:54,11.0,0.2,241.0,0.0,335.0,-0.0,0.01,1.0,,-82.0,13.0,0.0,29.88,157.0,,,230.0,,110.0,0.0,,0.0,0.0,,,,,,,,,,,,,,,,,,,,,0.0,0.0,,,,0.0,,,,38.2,0.0,0.0,-0.3,0.6,0.2,,,,,13.0,13.0,12.0,13.0,13.0,13.0,12.0,13.0,,,-10.0,254.5,,27.4,0.0,4.998,,,0.656,0.703,0.0,12.0,,,,,,0.0,2026-01-04 14:43:52-08:00
4.06,1.0,9.0,2026-01-04 22:43:56,37.08162,-121.59949,254.0,0.0,337.8,-12.6,,,,,22:43:56,11.0,0.2,241.0,0.0,334.0,-0.0,0.0,1.0,,-61.0,13.0,0.0,29.88,153.0,,,230.0,,110.0,0.0,,0.0,0.0,,,,,,,,,,,,,,,,,,,,,0.0,0.0,,0.0,,0.0,,,,38.2,0.0,0.0,-0.3,0.6,0.2,,,,,13.0,14.0,13.0,13.0,13.0,14.0,13.0,14.0,,,-10.0,254.5,,26.8,0.0,4.998,,,0.656,0.703,0.0,12.0,,,,,,0.0,2026-01-04 14:43:52-08:00
5.06,1.0,9.0,2026-01-04 22:43:57,37.08162,-121.59949,254.0,0.0,337.8,-12.6,,,,,22:43:56,11.0,0.3,241.0,0.0,334.0,-0.0,0.01,1.0,,-51.0,13.0,0.0,29.88,153.0,,,230.0,,,,,0.0,0.0,,,,,,,,,,,,,,,,,,,0.0,12.0,0.0,0.0,30.0,0.0,,0.0,26.5,,,38.2,0.0,0.0,-0.3,0.6,0.2,,,,,13.0,13.0,12.0,13.0,13.0,13.0,12.0,13.0,,,-10.0,254.5,,26.5,0.0,4.998,,,0.656,0.703,0.0,12.0,,,,,,0.0,2026-01-04 14:43:52-08:00
6.06,1.0,9.0,2026-01-04 22:43:58,37.08162,-121.59949,253.0,0.0,337.8,-12.6,,,,,22:43:57,11.0,0.3,241.0,0.0,332.0,-0.0,0.0,1.0,,-64.0,13.0,0.0,29.88,153.0,,,230.0,,,,,0.0,0.0,,,,,,,,,,,,,,,,,,,0.0,12.0,0.0,0.0,30.0,0.0,,0.0,26.1,,,38.2,0.0,0.0,-0.3,0.6,0.2,,,,,13.0,13.0,12.0,13.0,13.0,13.0,12.0,13.0,,,-10.0,254.5,,26.1,0.0,4.998,,,0.656,0.703,0.0,12.0,,,,,,0.0,2026-01-04 14:43:52-08:00
7.06,1.0,9.0,2026-01-04 22:43:59,37.08162,-121.59949,252.0,0.1,337.8,-12.6,,,,,22:43:58,11.0,0.3,241.0,0.0,331.0,-0.0,0.01,1.0,,-56.0,13.0,0.0,29.88,149.0,,,230.0,,,,,0.0,0.0,,,,,,,,,,,,,,,,,,,0.0,12.0,0.0,0.0,30.0,0.0,,0.0,25.7,,,38.2,0.0,0.0,-0.3,0.6,0.2,,,,,13.0,13.0,12.0,13.0,13.0,13.0,12.0,13.0,,,-10.0,254.5,,25.7,0.0,4.998,,,0.656,0.703,0.0,12.0,,,,,,0.0,2026-01-04 14:43:52-08:00
8.06,1.0,9.0,2026-01-04 22:44:00,37.08161,-121.59949,252.0,0.0,337.8,-12.6,,,,,22:43:59,11.0,0.3,241.0,0.0,330.0,-0.0,0.01,1.0,,-68.0,13.0,0.0,29.88,149.0,,,230.0,,,,,0.0,0.0,,,,,,,,,,,,,,,,,,,0.0,12.0,0.0,0.0,30.0,0.0,,0.0,25.3,,,38.2,0.0,0.0,-0.3,0.6,0.2,,,,,13.0,13.0,12.0,13.0,13.0,13.0,12.0,13.0,,,-10.0,254.5,,25.3,0.0,4.998,,,0.656,0.703,0.0,12.0,,,,,,0.0,2026-01-04 14:43:52-08:00
9.06,1.0,9.0,2026-01-04 22:44:01,37.08161,-121.59949,251.0,0.0,337.8,-12.6,,,,,22:44:00,11.0,0.2,241.1,0.0,329.0,-0.0,0.01,1.0,,-64.0,13.0,0.0,29.88,149.0,,,230.0,,,,,0.0,0.0,,,,,,,,,,,,,,,,,,,0.0,12.0,0.0,0.0,30.0,0.0,,0.0,24.9,,,38.2,0.0,0.0,-0.3,0.6,0.2,,,,,13.0,13.0,12.0,13.0,13.0,13.0,12.0,13.0,,,-10.0,254.5,,24.9,0.0,4.998,,,0.656,0.703,0.0,12.0,,,,,,0.0,2026-01-04 14:43:52-08:00
10.06,1.0,9.0,2026-01-04 22:44:02,37.08161,-121.59949,251.0,0.0,337.8,-12.6,,,,,22:44:01,11.0,0.3,241.1,0.0,327.0,-0.0,0.01,1.0,,-82.0,13.0,0.0,29.88,145.0,,,230.0,,,,,0.0,0.0,,,,,,,,,,,,,,,,,,,0.0,12.0,0.0,0.0,30.0,0.0,,0.0,24.6,,,38.2,0.0,0.0,-0.3,0.6,0.2,,,,,13.0,13.0,12.0,13.0,13.0,13.0,12.0,13.0,,,-10.0,254.5,,24.6,0.0,4.998,,,0.656,0.703,0.0,12.0,,,,,,0.0,2026-01-04 14:43:52-08:00
11.06,1.0,9.0,2026-01-04 22:44:03,37.08161,-121.59949,250.0,0.0,337.8,-12.6,,,,,22:44:02,11.0,0.3,241.1,0.0,327.0,-0.0,0.01,1.0,,-50.0,13.0,0.0,29.88,145.0,,,230.0,,,,,0.0,0.0,,,,,,,,,,,,,,,,,,,0.0,12.0,0.0,0.0,30.0,0.0,,0.0,24.2,,,38.2,0.0,0.0,-0.3,0.6,0.2,,,,,13.0,13.0,12.0,13.0,13.0,13.0,12.0,13.0,,,-10.0,254.5,,24.2,0.0,4.998,,,0.656,0.703,0.0,12.0,,,,,,0.0,2026-01-04 14:43:52-08:00
12.06,1.0,9.0,2026-01-04 22:44:04,37.08161,-121.59949,249.0,0.0,337.8,-12.6,,,,,22:44:03,11.0,0.3,241.1,0.0,327.0,-0.0,0.01,1.0,,-29.0,13.0,0.0,29.88,145.0,,,230.0,,,,,0.0,0.0,,,,,,,,,,,,,,,,,,,0.0,12.0,0.0,0.0,30.0,0.0,,0.0,23.9,,,38.2,0.0,0.0,-0.3,0.6,0.2,,,,,13.0,13.0,12.0,13.0,13.0,13.0,12.0,13.0,,,-10.0,254.5,,23.9,0.0,4.998,,,0.656,0.703,0.0,12.0,,,,,,0.0,2026-01-04 14:43:52-08:00
13.06,1.0,9.0,2026-01-04 22:44:05,37.08161,-121.59949,248.0,0.0,337.8,-12.6,,,,,22:44:04,11.0,0.3,241.1,0.0,327.0,-0.0,0.01,1.0,,-5.0,13.0,0.0,29.88,144.0,,,230.0,,,,,0.0,0.0,,,,,,,,,,,,,,,,,,,0.0,12.0,0.0,0.0,30.0,0.0,,0.0,23.6,,,38.2,0.0,0.0,-0.4,0.6,0.2,,,,,13.0,13.0,12.0,13.0,13.0,13.0,12.0,13.0,,,-10.0,254.5,,23.6,0.0,4.998,,,0.656,0.703,0.0,12.0,,,,,,0.0,2026-01-04 14:43:52-08:00
14.06,1.0,9.0,2026-01-04 22:44:06,37.08161,-121.59949,248.0,0.0,337.8,-12.6,,,,,22:44:05,11.0,0.2,241.1,0.0,327.0,-0.0,0.0,1.0,,-14.0,13.0,0.0,29.88,144.0,,,230.0,,,,,0.0,0.0,,,,,,,,,,,,,,,,,,,0.0,12.0,0.0,0.0,30.0,0.0,,0.0,23.3,,,38.2,0.0,0.0,-0.4,0.6,0.2,,,,,13.0,13.0,12.0,13.0,13.0,13.0,12.0,13.0,,,-10.0,254.5,,23.3,0.0,4.998,,,0.656,0.703,0.0,12.0,,,,,,0.0,2026-01-04 14:43:52-08:00
15.06,1.0,9.0,2026-01-04 22:44:07,37.08161,-121.59949,247.0,0.0,337.8,-12.6,,,,,22:44:06,11.1,0.2,241.1,0.0,327.0,-0.0,0.0,1.0,,8.0,13.0,0.0,29.88,144.0,,,230.0,,,,,0.0,0.0,,,,,,,,,,,,,,,,,,,0.0,12.0,0.0,0.0,30.0,0.0,,0.0,23.0,,,38.2,0.0,0.0,-0.4,0.6,0.2,,,,,13.0,13.0,12.0,13.0,13.0,13.0,12.0,13.0,,,-10.0,254.5,,23.0,0.0,4.998,,,0.656,0.703,0.0,12.0,,,,,,0.0,2026-01-04 14:43:52-08:00
16.06,1.0,9.0,2026-01-04 22:44:08,37.08161,-121.59949,246.0,0.0,337.8,-12.6,,,,,22:44:07,11.0,0.3,241.0,0.0,327.0,-0.0,0.01,1.0,,-8.0,13.0,0.0,29.88,144.0,,,230.0,,,,,0.0,0.0,,,,,,,,,,,,,,,,,,,0.0,12.0,0.0,0.0,30.0,0.0,,0.0,22.7,,,38.2,0.0,0.0,-0.4,0.6,0.2,,,,,13.0,13.0,12.0,13.0,13.0,13.0,12.0,13.0,,,-10.0,254.5,,22.7,0.0,4.998,,,0.656,0.703,0.0,12.0,,,,,,0.0,2026-01-04 14:43:52-08:00
17.06,1.0,9.0,2026-01-04 22:44:09,37.08161,-121.59949,245.0,0.0,337.8,-12.6,,,,,22:44:08,11.1,0.2,241.1,0.0,326.0,0.0,0.0,1.0,,-25.0,13.0,0.0,29.88,144.0,,,230.0,,,,,0.0,0.0,,,,,,,,,,,,,,,,,,,0.0,12.0,0.0,0.0,30.0,0.0,,0.0,22.4,,,38.2,0.0,0.0,-0.4,0.6,0.2,,,,,13.0,13.0,12.0,13.0,13.0,13.0,12.0,13.0,,,-10.0,254.5,,22.4,0.0,4.998,,,0.656,0.703,0.0,12.0,,,,,,0.0,2026-01-04 14:43:52-08:00
18.06,1.0,9.0,2026-01-04 22:44:10,37.08161,-121.59949,244.0,0.0,337.8,-12.6,,,,,22:44:09,11.0,0.2,241.1,0.0,326.0,-0.0,0.0,1.0,,-43.0,13.0,0.0,29.88,144.0,,,230.0,,,,,0.0,0.0,,,,,,,,,,,,,,,,,,,0.0,12.0,0.0,0.0,30.0,0.0,,0.0,22.1,,,38.2,0.0,0.0,-0.4,0.6,0.2,,,,,13.0,13.0,12.0,13.0,13.0,13.0,12.0,13.0,,,-10.0,254.5,,22.1,0.0,4.998,,,0.656,0.703,0.0,12.0,,,,,,0.0,2026-01-04 14:43:52-08:00
19.06,1.0,9.0,2026-01-04 22:44:11,37.08161,-121.59949,244.0,0.0,337.8,-12.6,,,,,22:44:10,11.0,0.2,241.1,0.0,326.0,-0.0,0.0,1.0,,-40.0,13.0,0.0,29.88,142.0,,,230.0,,,,,0.0,0.0,,,,,,,,,,,,,,,,,,,0.0,12.0,0.0,0.0,30.0,0.0,,0.0,21.8,,,38.2,0.0,0.0,-0.4,0.6,0.2,,,,,13.0,13.0,12.0,13.0,13.0,13.0,12.0,13.0,,,-10.0,254.5,,21.8,0.0,4.998,,,0.656,0.703,0.0,12.0,,,,,,0.0,2026-01-04 14:43:52-08:00
20.06,1.0,9.0,2026-01-04 22:44:12,37.08161,-121.59949,244.0,0.0,337.8,-12.6,,,,,22:44:11,11.0,0.3,241.1,0.0,325.0,0.0,0.0,1.0,,-18.0,13.0,0.0,29.88,142.0,,,230.0,,,,,0.0,0.0,,,,,,,,,,,,,,,,,,,0.0,12.0,0.0,0.0,30.0,0.0,,0.0,21.6,,,38.2,0.0,0.0,-0.4,0.6,0.2,,,,,13.0,14.0,13.0,13.0,13.0,14.0,13.0,13.0,,,-10.0,254.5,,21.6,0.0,4.998,,,0.656,0.703,0.0,12.0,,,,,,0.0,2026-01-04 14:43:52-08:00
21.06,1.0,9.0,2026-01-04 22:44:13,37.08161,-121.59949,244.0,0.1,337.8,-12.6,,,,,22:44:12,11.0,0.3,241.1,0.0,323.0,-0.0,0.01,1.0,,-64.0,13.0,0.0,29.88,142.0,,,230.0,,,,,0.0,0.0,,,,,,,,,,,,,,,,,,,0.0,12.0,0.0,0.0,30.0,0.0,,0.0,21.3,,,38.2,0.0,0.0,-0.4,0.6,0.2,,,,,13.0,13.0,12.0,13.0,13.0,13.0,12.0,13.0,,,-10.0,254.5,,21.3,0.0,4.998,,,0.656,0.703,0.0,12.0,,,,,,0.0,2026-01-04 14:43:52-08:00
22.06,1.0,9.0,2026-01-04 22:44:14,37.08161,-121.59949,244.0,0.0,337.8,-12.6,,,,,22:44:13,11.0,0.3,241.1,0.0,323.0,0.0,0.0,1.0,,-40.0,13.0,0.0,29.88,139.0,,,230.0,,,,,0.0,0.0,,,,,,,,,,,,,,,,,,,0.0,12.0,0.0,0.0,30.0,0.0,,0.0,21.1,,,38.2,0.0,0.0,-0.4,0.6,0.2,,,,,13.0,14.0,13.0,13.0,13.0,14.0,13.0,14.0,,,-10.0,254.5,,21.1,0.0,4.998,,,0.656,0.703,0.0,12.0,,,,,,0.0,2026-01-04 14:43:52-08:00
23.06,1.0,9.0,2026-01-04 22:44:15,37.08161,-121.59949,244.0,0.0,337.8,-12.6,,,,,22:44:14,11.0,0.3,241.1,0.0,322.0,-0.0,0.0,1.0,,-65.0,13.0,0.0,29.88,139.0,,,230.0,,,,,0.0,0.0,,,,,,,,,,,,,,,,,,,0.0,12.0,0.0,0.0,30.0,0.0,,0.0,20.8,,,38.2,0.0,0.0,-0.4,0.6,0.2,,,,,13.0,13.0,12.0,13.0,13.0,13.0,12.0,13.0,,,-10.0,254.5,,20.8,0.0,4.998,,,0.656,0.703,0.0,12.0,,,,,,0.0,2026-01-04 14:43:52-08:00
24.06,1.0,9.0,2026-01-04 22:44:16,37.08161,-121.59949,244.0,0.0,337.8,-12.6,,,,,22:44:15,11.0,0.3,241.1,0.0,321.0,-0.0,0.0,1.0,,-48.0,13.0,0.0,29.88,139.0,,,230.0,,,,,0.0,0.0,,,,,,,,,,,,,,,,,,,0.0,12.0,0.0,0.0,30.0,0.0,,0.0,20.6,,,38.2,0.0,0.0,-0.4,0.6,0.2,,,,,13.0,13.0,12.0,13.0,13.0,13.0,12.0,13.0,,,-10.0,254.5,,20.6,0.0,4.998,,,0.656,0.703,0.0,12.0,,,,,,0.0,2026-01-04 14:43:52-08:00
25.06,1.0,9.0,2026-01-04 22:44:17,37.08161,-121.59949,244.0,0.0,337.8,-12.6,,,,,22:44:16,11.0,0.1,241.1,0.0,320.0,-0.0,0.0,1.0,,-55.0,13.0,0.0,29.88,136.0,,,230.0,,,,,0.0,0.0,,,,,,,,,,,,,,,,,,,0.0,12.0,0.0,0.0,30.0,0.0,,0.0,20.4,,,38.2,0.0,0.0,-0.4,0.6,0.2,,,,,13.0,14.0,13.0,13.0,13.0,14.0,13.0,14.0,,,-10.0,254.5,,20.4,0.0,4.998,,,0.656,0.703,0.0,12.0,,,,,,0.0,2026-01-04 14:43:52-08:00
26.06,1.0,10.0,2026-01-04 22:44:18,37.08163,-121.59949,248.0,0.0,337.8,-12.6,,,,,22:44:17,11.0,0.2,241.1,0.0,320.0,-0.1,0.01,1.0,,-15.0,13.0,0.0,29.88,136.0,,,230.0,,,,,0.0,0.0,,,,,,,,,,,,,,,,,,,0.0,12.0,0.0,0.0,30.0,0.0,,0.0,20.1,,,38.2,0.0,0.0,-0.4,0.6,0.2,,,,,13.0,14.0,13.0,13.0,13.0,14.0,13.0,14.0,,,-10.0,254.5,,20.1,0.0,1.499,,,0.656,0.703,0.0,12.0,,,,,,0.0,2026-01-04 14:43:52-08:00
27.06,1.0,10.0,2026-01-04 22:44:19,37.08162,-121.59949,248.0,0.1,337.8,-12.6,,,,,22:44:18,11.0,0.2,241.2,0.0,319.0,-0.0,0.01,1.0,,-46.0,13.0,0.0,29.88,136.0,,,230.0,,,,,0.0,0.0,,,,,,,,,,,,,,,,,,,0.0,12.0,0.0,0.0,30.0,0.0,,0.0,19.9,,,38.2,0.0,0.0,-0.4,0.6,0.2,,,,,13.0,14.0,13.0,13.0,13.0,14.0,13.0,13.0,,,-10.0,254.5,,19.9,0.0,0.001,,,0.656,0.703,0.0,12.0,,,,,,0.0,2026-01-04 14:43:52-08:00
28.06,1.0,10.0,2026-01-04 22:44:20,37.08162,-121.59949,249.0,0.0,337.8,-12.6,,,,,22:44:19,11.0,0.3,241.1,0.0,318.0,-0.0,0.01,1.0,,-38.0,13.0,0.0,29.88,133.0,,,230.0,,,,,0.0,0.0,,,,,,,,,,,,,,,,,,,0.0,12.0,0.0,0.0,30.0,0.0,,0.0,19.7,,,38.2,0.0,0.0,-0.4,0.6,0.2,,,,,13.0,14.0,13.0,13.0,13.0,14.0,13.0,13.0,,,-10.0,254.5,,19.7,0.0,0.0,,,0.656,0.703,0.0,12.0,,,,,,0.0,2026-01-04 14:43:52-08:00
29.06,1.0,10.0,2026-01-04 22:44:21,37.08162,-121.59949,251.0,0.0,337.8,-12.6,,,,,22:44:20,11.0,0.3,241.2,0.0,316.0,0.0,0.01,1.0,,-78.0,13.0,0.0,29.88,134.0,,,230.0,,,,,0.0,0.0,,,,,,,,,,,,,,,,,,,0.0,12.0,0.0,0.0,30.0,0.0,,0.0,19.5,,,38.2,0.0,0.0,-0.4,0.6,0.2,,,,,13.0,13.0,12.0,13.0,13.0,13.0,12.0,13.0,,,-10.0,254.5,,19.5,0.0,0.0,,,0.656,0.703,0.0,12.0,,,,,,0.0,2026-01-04 14:43:52-08:00
30.06,1.0,10.0,2026-01-04 22:44:22,37.08162,-121.5995,253.0,0.0,337.8,-12.6,,,,,22:44:21,11.0,0.2,241.1,0.0,314.0,-0.0,0.01,1.0,,-82.0,13.0,0.0,29.88,134.0,,,230.0,,,,,0.0,0.0,,,,,,,,,,,,,,,,,,,0.0,12.0,0.0,0.0,30.0,0.0,,0.0,19.3,,,38.2,0.0,0.0,-0.4,0.6,0.2,,,,,13.0,14.0,13.0,13.0,13.0,14.0,13.0,13.0,,,-10.0,254.5,,19.3,0.0,0.0,,,0.656,0.703,0.0,12.0,,,,,,0.0,2026-01-04 14:43:52-08:00
31.06,1.0,10.0,2026-01-04 22:44:23,37.08162,-121.5995,256.0,0.0,337.8,-12.6,,,,,22:44:22,11.1,0.2,241.1,0.0,313.0,-0.0,0.01,1.0,,-59.0,13.0,0.0,29.88,134.0,,,230.0,,,,,0.0,0.0,,,,,,,,,,,,,,,,,,,0.0,12.0,0.0,0.0,30.0,0.0,,0.0,19.1,,,38.2,0.0,0.0,-0.4,0.6,0.2,,,,,13.0,13.0,12.0,13.0,13.0,13.0,12.0,13.0,,,-10.0,254.4,,19.1,0.0,0.0,,,0.656,0.703,0.0,12.0,,,,,,0.0,2026-01-04 14:43:52-08:00
32.06,1.0,10.0,2026-01-04 22:44:24,37.08162,-121.5995,258.0,0.0,337.8,-12.6,,,,,22:44:23,11.1,0.2,241.1,0.0,311.0,-0.1,0.01,1.0,,-98.0,13.0,0.0,29.88,133.0,,,230.0,,,,,0.0,0.0,,,,,,,,,,,,,,,,,,,0.0,12.0,0.0,0.0,30.0,0.0,,0.0,18.9,,,38.2,0.0,0.0,-0.4,0.6,0.2,,,,,13.0,14.0,13.0,13.0,13.0,14.0,13.0,13.0,,,-10.0,254.4,,18.9,0.0,0.0,,,0.656,0.703,0.0,12.0,,,,,,0.0,2026-01-04 14:43:52-08:00
33.06,1.0,10.0,2026-01-04 22:44:25,37.08162,-121.59951,261.0,0.0,337.8,-12.6,,,,,22:44:24,11.0,0.2,241.1,0.0,309.0,-0.0,0.01,1.0,,-117.0,13.0,0.0,29.88,131.0,,,230.0,,,,,0.0,0.0,,,,,,,,,,,,,,,,,,,0.0,12.0,0.0,0.0,30.0,0.0,,0.0,18.7,,,38.2,0.0,0.0,-0.4,0.6,0.2,,,,,13.0,14.0,13.0,13.0,13.0,14.0,13.0,13.0,,,-10.0,254.4,,18.7,0.0,0.0,,,0.656,0.703,0.0,12.0,,,,,,0.0,2026-01-04 14:43:52-08:00
34.06,1.0,10.0,2026-01-04 22:44:26,37.08162,-121.59951,264.0,0.0,337.8,-12.6,,,,,22:44:25,11.0,0.2,241.2,0.0,308.0,-0.0,0.0,1.0,,-106.0,13.0,0.0,29.88,129.0,,,230.0,,,,,0.0,0.0,,,,,,,,,,,,,,,,,,,0.0,12.0,0.0,0.0,30.0,0.0,,0.0,18.5,,,38.2,0.0,0.0,-0.4,0.6,0.2,,,,,13.0,14.0,13.0,13.0,13.0,14.0,13.0,13.0,,,-10.0,254.4,,18.5,0.0,0.0,,,0.656,0.703,0.0,12.0,,,,,,0.0,2026-01-04 14:43:52-08:00
35.06,1.0,10.0,2026-01-04 22:44:27,37.08162,-121.59952,266.0,0.0,337.8,-12.6,,,,,22:44:26,11.0,0.2,241.2,0.0,305.0,-0.0,0.0,1.0,,-124.0,13.0,0.0,29.88,126.0,,,230.0,,,,,0.0,0.0,,,,,,,,,,,,,,,,,,,0.0,12.0,0.0,0.0,30.0,0.0,,0.0,18.3,,,38.2,0.0,0.0,-0.4,0.6,0.2,,,,,13.0,14.0,13.0,13.0,13.0,14.0,13.0,14.0,,,-10.0,254.4,,18.3,0.0,0.0,,,0.656,0.703,0.0,12.0,,,,,,0.0,2026-01-04 14:43:52-08:00
36.06,1.0,10.0,2026-01-04 22:44:28,37.08162,-121.59952,269.0,0.0,337.8,-12.6,,,,,22:44:27,11.0,0.2,241.2,0.0,303.0,-0.0,0.0,1.0,,-101.0,13.0,0.0,29.88,124.0,,,230.0,,,,,0.0,0.0,,,,,,,,,,,,,,,,,,,0.0,12.0,0.0,0.0,30.0,0.0,,0.0,18.1,,,38.2,0.0,0.0,-0.4,0.6,0.2,,,,,13.0,14.0,13.0,14.0,13.0,14.0,13.0,14.0,,,-10.0,254.4,,18.1,0.0,0.0,,,0.656,0.703,0.0,12.0,,,,,,0.0,2026-01-04 14:43:52-08:00
37.06,1.0,10.0,2026-01-04 22:44:29,37.08162,-121.59952,272.0,0.0,337.8,-12.6,,,,,22:44:28,11.0,0.2,241.2,0.0,303.0,-0.0,0.01,1.0,,-78.0,13.0,0.0,29.88,124.0,,,230.0,,,,,0.0,0.0,,,,,,,,,,,,,,,,,,,0.0,12.0,0.0,0.0,30.0,0.0,,0.0,17.9,,,38.2,0.0,0.0,-0.4,0.6,0.2,,,,,13.0,14.0,13.0,14.0,13.0,14.0,13.0,14.0,,,-10.0,254.4,,17.9,0.0,0.0,,,0.656,0.703,0.0,12.0,,,,,,0.0,2026-01-04 14:43:52-08:00
38.06,1.0,10.0,2026-01-04 22:44:30,37.08162,-121.59953,275.0,0.0,337.8,-12.6,,,,,22:44:29,11.1,0.2,241.2,0.0,303.0,-0.0,0.0,1.0,,-66.0,13.0,0.0,29.88,123.0,,,230.0,,,,,0.0,0.0,,,,,,,,,,,,,,,,,,,0.0,12.0,0.0,0.0,30.0,0.0,,0.0,17.8,,,38.2,0.0,0.0,-0.4,0.6,0.2,,,,,13.0,14.0,13.0,13.0,13.0,14.0,13.0,13.0,,,-10.0,254.4,,17.8,0.0,0.0,,,0.656,0.703,0.0,12.0,,,,,,0.0,2026-01-04 14:43:52-08:00
39.06,1.0,10.0,2026-01-04 22:44:31,37.08162,-121.59962,353.0,0.0,337.8,-12.6,,,,,22:44:30,11.1,0.2,241.2,0.0,303.0,-0.0,0.0,1.0,,-22.0,13.0,0.0,29.88,123.0,,,230.0,,,,,0.0,0.0,,,,,,,,,,,,,,,,,,,0.0,12.0,0.0,0.0,30.0,0.0,,0.0,17.6,,,38.2,0.0,0.0,-0.4,0.6,0.2,,,,,13.0,14.0,13.0,13.0,13.0,14.0,13.0,13.0,,,-10.0,254.4,,17.6,0.0,0.0,,,0.656,0.703,0.0,12.0,,,,,,0.0,2026-01-04 14:43:52-08:00
40.06,1.0,10.0,2026-01-04 22:44:32,37.08162,-121.59962,351.0,0.0,337.8,-12.6,,,,,22:44:31,11.1,0.1,241.2,0.0,303.0,-0.0,0.01,1.0,,-5.0,13.0,0.0,29.88,123.0,,,230.0,,,,,0.0,0.0,,,,,,,,,,,,,,,,,,,0.0,12.0,0.0,0.0,30.0,0.0,,0.0,17.4,,,38.2,0.0,0.0,-0.4,0.6,0.2,,,,,13.0,14.0,13.0,13.0,13.0,14.0,13.0,13.0,,,-10.0,254.4,,17.4,0.0,0.0,,,0.656,0.703,0.0,12.0,,,,,,0.0,2026-01-04 14:43:52-08:00
41.06,1.0,10.0,2026-01-04 22:44:33,37.08162,-121.59962,349.0,0.0,337.8,-12.6,,,,,22:44:32,11.1,0.2,241.2,0.0,303.0,-0.0,0.0,1.0,,-18.0,13.0,0.0,29.88,125.0,,,230.0,,,,,0.0,0.0,,,,,,,,,,,,,,,,,,,0.0,12.0,0.0,0.0,30.0,0.0,,0.0,17.3,,,38.2,0.0,0.0,-0.4,0.6,0.2,,,,,13.0,14.0,13.0,14.0,13.0,14.0,13.0,14.0,,,-9.0,254.4,,17.3,0.0,0.0,,,0.656,0.703,0.0,12.0,,,,,,0.0,2026-01-04 14:43:52-08:00
42.06,1.0,10.0,2026-01-04 22:44:34,37.08162,-121.59962,348.0,0.0,337.8,-12.6,,,,,22:44:33,11.1,0.2,241.2,0.0,300.0,-0.0,0.0,1.0,,-55.0,13.0,0.0,29.88,120.0,,,230.0,,,,,0.0,0.0,,,,,,,,,,,,,,,,,,,0.0,12.0,0.0,0.0,30.0,0.0,,0.0,17.1,,,38.2,0.0,0.0,-0.4,0.6,0.2,,,,,13.0,14.0,13.0,13.0,13.0,14.0,13.0,13.0,,,-10.0,230.5,,17.1,0.0,0.0,,,0.656,0.703,0.0,12.0,,,,,,0.0,2026-01-04 14:43:52-08:00
43.06,1.0,10.0,2026-01-04 22:44:35,37.08162,-121.59962,346.0,0.0,337.8,-12.6,,,,,22:44:34,11.0,0.2,241.2,0.0,299.0,-0.0,0.0,1.0,,-41.0,13.0,0.0,29.88,120.0,,,230.0,,,,,0.0,0.0,,,,,,,,,,,,,,,,,,,0.0,12.0,0.0,0.0,30.0,0.0,,0.0,16.9,,,38.2,0.0,0.0,-0.4,0.6,0.2,,,,,13.0,14.0,13.0,13.0,13.0,14.0,13.0,13.0,,,-10.0,179.4,,16.9,0.0,0.0,,,0.656,0.703,0.0,12.0,,,,,,0.0,2026-01-04 14:43:52-08:00
44.06,1.0,10.0,2026-01-04 22:44:36,37.08162,-121.59961,344.0,0.0,337.8,-12.6,,,,,22:44:35,11.1,0.2,241.2,0.0,299.0,-0.0,0.01,1.0,,-59.0,13.0,0.0,29.88,118.0,,,230.0,,,,,0.0,0.0,,,,,,,,,,,,,,,,,,,0.0,12.0,0.0,0.0,30.0,0.0,,0.0,16.8,,,38.2,0.0,0.0,-0.4,0.6,0.2,,,,,13.0,14.0,13.0,13.0,13.0,14.0,13.0,14.0,,,-10.0,139.7,,16.8,0.0,0.0,,,0.656,0.703,0.0,12.0,,,,,,0.0,2026-01-04 14:43:52-08:00
45.06,1.0,10.0,2026-01-04 22:44:37,37.08162,-121.59961,342.0,0.0,337.8,-12.6,,,,,22:44:36,11.1,0.2,241.2,0.0,299.0,-0.0,0.0,1.0,,-40.0,13.0,0.0,29.88,118.0,,,230.0,,,,,0.0,0.0,,,,,,,,,,,,,,,,,,,0.0,12.0,0.0,0.0,30.0,0.5,,0.5,5.3,,,38.2,0.0,0.0,-0.4,0.6,0.2,,,,,13.0,14.0,13.0,13.0,13.0,14.0,13.0,13.0,,,-10.0,108.8,,5.3,0.0,0.0,,,0.656,0.703,0.0,12.0,,,,,,0.0,2026-01-04 14:43:52-08:00
46.06,1.0,10.0,2026-01-04 22:44:38,37.08162,-121.5996,340.0,0.0,337.8,-12.6,,,,,22:44:37,11.1,0.2,241.2,0.0,299.0,-0.0,0.0,1.0,,-5.0,13.0,0.0,29.88,118.0,,,230.0,,,,,0.0,0.0,,,,,,,,,,,,,,,,,,,0.0,12.0,0.0,0.0,30.0,0.6,,0.6,3.9,,,38.2,0.0,0.0,-0.4,0.6,0.2,,,,,13.0,14.0,13.0,13.0,13.0,14.0,13.0,13.0,,,-10.0,84.8,,3.9,0.0,0.0,,,0.656,0.703,0.0,12.0,,,,,,0.0,2026-01-04 14:43:52-08:00
47.06,1.0,10.0,2026-01-04 22:44:39,37.08162,-121.5996,338.0,0.0,337.8,-12.6,,,,,22:44:38,11.1,0.2,241.2,0.0,299.0,-0.0,0.0,1.0,,-2.0,13.0,0.0,29.88,119.0,,,230.0,,,,,0.0,0.0,,,,,,,,,,,,,,,,,,,0.0,12.0,0.0,0.0,30.0,1.5,,1.5,24.2,,,38.2,0.0,0.0,-0.4,0.6,0.2,,,,,13.0,14.0,13.0,14.0,13.0,14.0,13.0,14.0,,,-10.0,66.1,,24.2,0.0,0.0,,,0.656,0.703,0.0,12.0,,,,,,0.0,2026-01-04 14:43:52-08:00
48.06,1.0,10.0,2026-01-04 22:44:40,37.08162,-121.59959,336.0,0.0,337.8,-12.6,,,,,22:44:39,11.1,0.2,241.2,0.0,299.0,-0.1,0.0,1.0,,25.0,13.0,0.0,29.88,118.0,,,230.0,,,,,0.0,0.0,,,,,,,,,,,,,,,,,,,0.0,12.0,0.0,0.0,30.0,2.3,,2.3,30.9,,,38.2,0.0,0.0,-0.3,0.6,0.2,,,,,13.0,14.0,13.0,13.0,13.0,14.0,13.0,13.0,,,-10.0,51.6,,30.9,0.0,0.0,,,0.656,0.703,0.0,12.0,,,,,,0.0,2026-01-04 14:43:52-08:00
49.06,1.0,10.0,2026-01-04 22:44:41,37.08162,-121.59959,334.0,0.0,337.8,-12.6,,,,,22:44:40,11.1,0.2,241.3,0.0,299.0,-0.0,0.01,1.0,,15.0,13.0,0.0,29.88,118.0,,,230.0,,,,,0.0,0.0,,,,,,,,,,,,,,,,,,,0.0,12.0,0.0,0.0,30.0,2.9,,2.9,32.1,,,38.2,0.0,0.0,-0.3,0.6,0.2,,,,,13.0,14.0,13.0,14.0,13.0,14.0,13.0,14.0,,,-10.0,40.3,,32.1,0.0,0.0,,,0.656,0.703,0.0,12.0,,,,,,0.0,2026-01-04 14:43:52-08:00
50.06,1.0,10.0,2026-01-04 22:44:42,37.08162,-121.59959,332.0,0.0,337.8,-12.6,,,,,22:44:41,11.1,0.2,241.3,0.0,299.0,-0.0,0.0,1.0,,8.0,13.0,0.0,29.88,118.0,,,230.0,,,,,0.0,0.0,,,,,,,,,,,,,,,,,,,0.0,12.0,0.0,0.0,30.0,2.9,,2.9,33.6,,,38.2,0.0,0.0,-0.3,0.6,0.2,,,,,13.0,14.0,13.0,14.0,13.0,14.0,13.0,14.0,,,-10.0,31.5,,33.6,0.0,0.0,,,0.656,0.703,0.0,12.0,,,,,,0.0,2026-01-04 14:43:52-08:00
51.06,1.0,10.0,2026-01-04 22:44:43,37.08162,-121.59959,330.0,0.0,337.8,-12.6,,,,,22:44:42,11.1,0.2,241.3,0.0,299.0,-0.0,0.0,1.0,,20.0,13.0,0.0,29.88,119.0,,,230.0,,,,,0.0,0.0,,,,,,,,,,,,,,,,,,,0.0,12.0,0.0,0.0,30.0,2.6,,2.6,32.9,,,38.2,0.0,0.0,-0.3,0.6,0.2,,,,,13.0,14.0,13.0,13.0,13.0,14.0,13.0,13.0,,,-10.0,24.7,,32.9,0.0,0.0,,,0.656,0.703,0.0,12.0,,,,,,0.0,2026-01-04 14:43:52-08:00
52.06,1.0,10.0,2026-01-04 22:44:44,37.08162,-121.59959,328.0,0.0,337.8,-12.6,,,,,22:44:43,11.1,0.1,241.3,0.0,299.0,-0.0,0.0,1.0,,47.0,13.0,0.0,29.88,119.0,,,230.0,,,,,0.0,0.0,,,,,,,,,,,,,,,,,,,0.0,12.0,0.0,0.0,30.0,2.6,,2.6,32.6,,,38.2,0.0,0.0,-0.3,0.6,0.2,,,,,13.0,14.0,13.0,14.0,13.0,14.0,13.0,14.0,,,-10.0,19.4,,32.6,0.0,0.0,,,0.656,0.703,0.0,12.0,,,,,,0.0,2026-01-04 14:43:52-08:00
53.06,1.0,10.0,2026-01-04 22:44:45,37.08162,-121.59958,326.0,0.0,337.8,-12.6,,,,,22:44:44,11.1,0.1,241.3,0.0,299.0,-0.0,0.0,1.0,,18.0,13.0,0.0,29.88,119.0,,,230.0,,,,,0.0,0.0,,,,,,,,,,,,,,,,,,,0.0,12.0,0.0,0.0,30.0,0.0,,0.0,32.4,,,38.2,0.0,0.0,-0.4,0.6,0.2,,,,,13.0,14.0,13.0,13.0,13.0,14.0,13.0,13.0,,,-10.0,15.3,,32.4,1.0,0.0,,,0.656,0.703,0.0,12.0,,,,,,0.0,2026-01-04 14:43:52-08:00
54.06,1.0,10.0,2026-01-04 22:44:46,37.08162,-121.59958,324.0,0.0,337.8,-12.6,,,,,22:44:45,11.1,0.1,241.3,0.0,299.0,-0.0,0.0,1.0,,41.0,13.0,0.0,29.88,119.0,,,230.0,,,,,0.0,0.0,,,,,,,,,,,,,,,,,,,0.0,12.0,0.0,0.0,30.0,0.0,,0.0,32.2,,,38.2,0.0,0.0,-0.4,0.6,0.2,,,,,13.0,14.0,13.0,14.0,13.0,14.0,13.0,14.0,,,-10.0,12.1,,32.2,1.0,0.0,,,0.656,0.703,0.0,12.0,,,,,,0.0,2026-01-04 14:43:52-08:00
55.06,1.0,10.0,2026-01-04 22:44:47,37.08162,-121.59958,322.0,0.0,337.8,-12.6,,,,,22:44:46,11.1,0.2,241.3,0.0,299.0,-0.0,0.0,1.0,,16.0,13.0,0.0,29.88,119.0,,,230.0,,,,,0.0,0.0,,,,,,,,,,,,,,,,,,,0.0,12.0,0.0,0.0,30.0,0.0,,0.0,32.0,,,38.2,0.0,0.0,-0.4,0.6,0.2,,,,,13.0,14.0,13.0,14.0,13.0,14.0,13.0,14.0,,,-10.0,9.6,,32.0,1.0,0.0,,,0.656,0.703,0.0,12.0,,,,,,0.0,2026-01-04 14:43:52-08:00
56.06,1.0,10.0,2026-01-04 22:44:48,37.08162,-121.59957,321.0,0.0,337.8,-12.6,,,,,22:44:47,11.1,0.2,241.2,0.0,299.0,-0.0,0.01,1.0,,47.0,13.0,0.0,29.88,119.0,,,230.0,,,,,0.0,0.0,,,,,,,,,,,,,,,,,,,0.0,12.0,0.0,0.0,30.0,0.0,,0.0,31.9,,,38.2,0.0,0.0,-0.4,0.6,0.2,,,,,13.0,14.0,13.0,14.0,13.0,14.0,13.0,14.0,,,-10.0,7.7,,31.9,1.0,0.0,,,0.656,0.703,0.0,12.0,,,,,,0.0,2026-01-04 14:43:52-08:00
57.06,1.0,10.0,2026-01-04 22:44:49,37.0816,-121.59956,327.0,0.0,337.8,-12.6,,,,,22:44:48,11.1,0.2,241.2,0.0,299.0,-0.0,0.0,1.0,,23.0,13.0,0.0,29.88,119.0,,,230.0,,,,,0.0,0.0,,,,,,,,,,,,,,,,,,,0.0,12.0,0.0,0.0,30.0,0.0,,0.0,31.7,,,38.2,0.0,0.0,-0.4,0.6,0.2,,,,,13.0,14.0,13.0,13.0,13.0,14.0,13.0,13.0,,,-10.0,6.2,,31.7,1.0,0.0,,,0.656,0.703,0.0,12.0,,,,,,0.0,2026-01-04 14:43:52-08:00
58.06,1.0,10.0,2026-01-04 22:44:50,37.0816,-121.59956,325.0,0.0,337.8,-12.6,,,,,22:44:49,11.0,0.3,241.2,0.0,299.0,-0.0,0.01,1.0,,43.0,13.0,0.0,29.88,119.0,,,230.0,,,,,0.0,0.0,,,,,,,,,,,,,,,,,,,0.0,12.0,0.0,0.0,30.0,0.0,,0.0,31.6,,,38.2,0.0,0.0,-0.4,0.6,0.2,,,,,13.0,14.0,13.0,13.0,13.0,14.0,13.0,13.0,,,-10.0,5.0,,31.6,1.0,0.0,,,0.656,0.703,0.0,12.0,,,,,,0.0,2026-01-04 14:43:52-08:00
59.06,1.0,10.0,2026-01-04 22:44:51,37.0816,-121.59956,324.0,0.0,337.8,-12.6,,,,,22:44:50,11.1,0.2,241.2,0.0,299.0,-0.0,0.01,1.0,,14.0,13.0,0.0,29.88,119.0,,,230.0,,,,,0.0,0.0,,,,,,,,,,,,,,,,,,,0.0,12.0,0.0,0.0,30.0,0.0,,0.0,31.4,,,38.2,0.0,0.0,-0.4,0.6,0.2,,,,,13.0,14.0,13.0,13.0,13.0,14.0,13.0,13.0,,,-10.0,4.1,,31.4,1.0,0.0,,,0.656,0.703,0.0,12.0,,,,,,0.0,2026-01-04 14:43:52-08:00
60.06,1.0,10.0,2026-01-04 22:44:52,37.0816,-121.59956,323.0,0.0,337.8,-12.6,,,,,22:44:51,11.1,0.2,241.2,0.0,299.0,-0.0,0.01,1.0,,11.0,13.0,0.0,29.88,119.0,,,230.0,,,,,0.0,0.0,,,,,,,,,,,,,,,,,,,0.0,12.0,0.0,0.0,30.0,0.0,,0.0,31.3,,,38.2,0.0,0.0,-0.4,0.6,0.2,,,,,13.0,14.0,13.0,14.0,13.0,14.0,13.0,14.0,,,-10.0,3.4,,31.3,1.0,0.0,,,0.656,0.703,0.0,12.0,,,,,,0.0,2026-01-04 14:43:52-08:00
61.06,1.0,10.0,2026-01-04 22:44:53,37.0816,-121.59956,322.0,0.0,337.8,-12.6,,,,,22:44:52,11.1,0.2,241.2,0.0,299.0,-0.0,0.0,1.0,,5.0,13.0,0.0,29.88,119.0,,,230.0,,,,,0.0,0.0,,,,,,,,,,,,,,,,,,,0.0,12.0,0.0,0.0,30.0,0.0,,0.0,31.1,,,38.2,0.0,0.0,-0.4,0.6,0.2,,,,,13.0,14.0,13.0,13.0,13.0,14.0,13.0,13.0,,,-10.0,2.9,,31.1,1.0,0.0,,,0.656,0.703,0.0,12.0,,,,,,0.0,2026-01-04 14:43:52-08:00
62.06,1.0,10.0,2026-01-04 22:44:54,37.0816,-121.59956,321.0,0.0,337.8,-12.6,,,,,22:44:53,11.1,0.2,241.2,0.0,299.0,-0.0,0.0,1.0,,-14.0,13.0,0.0,29.88,119.0,,,230.0,,,,,0.0,0.0,,,,,,,,,,,,,,,,,,,0.0,12.0,0.0,0.0,30.0,0.0,,0.0,31.0,,,38.2,0.0,0.0,-0.4,0.6,0.2,,,,,13.0,14.0,13.0,13.0,13.0,14.0,13.0,13.0,,,-10.0,2.4,,31.0,1.0,0.0,,,0.656,0.703,0.0,12.0,,,,,,0.0,2026-01-04 14:43:52-08:00
63.06,1.0,10.0,2026-01-04 22:44:55,37.0816,-121.59956,321.0,0.0,337.8,-12.6,,,,,22:44:54,11.1,0.2,241.2,0.0,299.0,-0.0,0.01,1.0,,-18.0,13.0,0.0,29.88,119.0,,,230.0,,,,,0.0,0.0,,,,,,,,,,,,,,,,,,,0.0,12.0,0.0,0.0,30.0,0.0,,0.0,30.9,,,38.2,0.0,0.0,-0.4,0.6,0.2,,,,,13.0,14.0,13.0,13.0,13.0,14.0,13.0,13.0,,,-10.0,2.1,,30.9,1.0,0.0,,,0.656,0.703,0.0,12.0,,,,,,0.0,2026-01-04 14:43:52-08:00
64.06,1.0,10.0,2026-01-04 22:44:56,37.0816,-121.59956,320.0,0.0,337.8,-12.6,,,,,22:44:55,11.1,0.2,241.1,0.0,299.0,-0.0,0.0,1.0,,-15.0,13.0,0.0,29.88,121.0,,,230.0,,,,,0.0,0.0,,,,,,,,,,,,,,,,,,,0.0,12.0,0.0,0.0,30.0,0.0,,0.0,30.8,,,38.2,0.0,0.0,-0.4,0.6,0.2,,,,,13.0,14.0,13.0,13.0,13.0,14.0,13.0,13.0,,,-10.0,1.9,,30.8,1.0,0.0,,,0.656,0.703,0.0,12.0,,,,,,0.0,2026-01-04 14:43:52-08:00
65.06,1.0,10.0,2026-01-04 22:44:57,37.0816,-121.59956,320.0,0.0,337.8,-12.6,,,,,22:44:56,11.1,0.2,241.2,0.0,299.0,-0.0,0.0,1.0,,-3.0,13.0,0.0,29.88,121.0,,,230.0,,,,,0.0,0.0,,,,,,,,,,,,,,,,,,,0.0,12.0,0.0,0.0,30.0,0.0,,0.0,30.6,,,38.2,0.0,0.0,-0.4,0.6,0.2,,,,,13.0,14.0,13.0,13.0,13.0,14.0,13.0,13.0,,,-10.0,1.7,,30.6,1.0,0.0,,,0.656,0.703,0.0,12.0,,,,,,0.0,2026-01-04 14:43:52-08:00
66.06,1.0,10.0,2026-01-04 22:44:58,37.0816,-121.59956,320.0,0.0,337.8,-12.6,,,,,22:44:57,11.1,0.2,241.2,0.0,299.0,-0.0,0.0,1.0,,-34.0,13.0,0.0,29.88,121.0,,,230.0,,,,,0.0,0.0,,,,,,,,,,,,,,,,,,,0.0,12.0,0.0,0.0,30.0,0.0,,0.0,30.5,,,38.2,0.0,0.0,-0.4,0.6,0.2,,,,,13.0,14.0,13.0,13.0,13.0,14.0,13.0,13.0,,,-10.0,1.5,,30.5,1.0,0.0,,,0.656,0.703,0.0,12.0,,,,,,0.0,2026-01-04 14:43:52-08:00
67.06,1.0,10.0,2026-01-04 22:44:59,37.0816,-121.59956,320.0,0.0,337.8,-12.6,,,,,22:44:58,11.1,0.2,241.2,0.0,299.0,-0.0,0.0,1.0,,-33.0,13.0,0.0,29.88,119.0,,,230.0,,,,,0.0,0.0,,,,,,,,,,,,,,,,,,,0.0,12.0,0.0,0.0,30.0,0.0,,0.0,30.4,,,38.2,0.0,0.0,-0.4,0.6,0.2,,,,,13.0,14.0,13.0,13.0,13.0,14.0,13.0,13.0,,,-10.0,1.4,,30.4,1.0,0.0,,,0.656,0.703,0.0,12.0,,,,,,0.0,2026-01-04 14:43:52-08:00
68.06,1.0,10.0,2026-01-04 22:45:00,37.0816,-121.59956,320.0,0.0,337.8,-12.6,,,,,22:44:59,11.1,0.2,241.2,0.0,299.0,-0.0,0.0,1.0,,-50.0,13.0,0.0,29.88,121.0,,,230.0,,,,,0.0,0.0,,,,,,,,,,,,,,,,,,,0.0,12.0,0.0,0.0,30.0,0.0,,0.0,30.3,,,38.2,0.0,0.0,-0.4,0.6,0.2,,,,,13.0,14.0,13.0,13.0,13.0,14.0,13.0,13.0,,,-10.0,1.3,,30.3,1.0,0.0,,,0.656,0.703,0.0,12.0,,,,,,0.0,2026-01-04 14:43:52-08:00
69.06,1.0,10.0,2026-01-04 22:45:01,37.0816,-121.59956,320.0,0.0,337.8,-12.6,,,,,22:45:00,11.1,0.2,241.3,0.0,299.0,0.0,0.0,1.0,,-25.0,13.0,0.0,29.88,121.0,,,230.0,,,,,0.0,0.0,,,,,,,,,,,,,,,,,,,0.0,12.0,0.0,0.0,30.0,0.0,,0.0,30.2,,,38.2,0.0,0.0,-0.4,0.6,0.2,,,,,13.0,14.0,13.0,13.0,13.0,14.0,13.0,13.0,,,-10.0,1.2,,30.2,1.0,0.0,,,0.656,0.703,0.0,12.0,,,,,,0.0,2026-01-04 14:43:52-08:00
70.06,1.0,10.0,2026-01-04 22:45:02,37.0816,-121.59956,321.0,0.0,337.8,-12.6,,,,,22:45:01,11.1,0.2,241.3,0.0,299.0,-0.0,0.0,1.0,,-20.0,13.0,0.0,29.88,121.0,,,230.0,,,,,0.0,0.0,,,,,,,,,,,,,,,,,,,0.0,12.0,0.0,0.0,30.0,0.0,,0.0,30.0,,,38.2,0.0,0.0,-0.4,0.6,0.2,,,,,13.0,14.0,13.0,13.0,13.0,14.0,13.0,13.0,,,-10.0,1.2,,30.0,1.0,0.0,,,0.656,0.703,0.0,12.0,,,,,,0.0,2026-01-04 14:43:52-08:00
71.06,1.0,10.0,2026-01-04 22:45:03,37.0816,-121.59956,321.0,0.0,337.8,-12.6,,,,,22:45:02,11.1,0.2,241.3,0.0,299.0,-0.0,0.0,1.0,,-37.0,13.0,0.0,29.88,121.0,,,230.0,,,,,0.0,0.0,,,,,,,,,,,,,,,,,,,0.0,12.0,0.0,0.0,30.0,0.0,,0.0,29.9,,,38.2,0.0,0.0,-0.4,0.6,0.2,,,,,13.0,14.0,13.0,14.0,13.0,14.0,13.0,14.0,,,-10.0,1.1,,29.9,1.0,0.0,,,0.656,0.703,0.0,12.0,,,,,,0.0,2026-01-04 14:43:52-08:00
72.06,1.0,10.0,2026-01-04 22:45:04,37.0816,-121.59956,321.0,0.0,337.8,-12.6,,,,,22:45:03,11.1,0.3,241.2,0.0,299.0,-0.0,0.0,1.0,,-45.0,13.0,0.0,29.88,121.0,,,230.0,,,,,0.0,0.0,,,,,,,,,,,,,,,,,,,0.0,12.0,0.0,0.0,30.0,0.0,,0.0,29.8,,,38.2,0.0,0.0,-0.4,0.6,0.2,,,,,13.0,14.0,13.0,13.0,13.0,14.0,13.0,13.0,,,-10.0,1.1,,29.8,1.0,0.0,,,0.656,0.703,0.0,12.0,,,,,,0.0,2026-01-04 14:43:52-08:00
73.06,1.0,10.0,2026-01-04 22:45:05,37.0816,-121.59956,322.0,0.1,337.8,-12.6,,,,,22:45:04,11.1,0.3,241.3,0.0,299.0,-0.0,0.0,1.0,,-37.0,13.0,0.0,29.88,121.0,,,230.0,,,,,0.0,0.0,,,,,,,,,,,,,,,,,,,0.0,12.0,0.0,0.0,30.0,0.0,,0.0,29.7,,,38.2,0.0,0.0,-0.4,0.6,0.2,,,,,13.0,14.0,13.0,13.0,13.0,14.0,13.0,13.0,,,-10.0,1.1,,29.7,1.0,0.0,,,0.656,0.703,0.0,12.0,,,,,,0.0,2026-01-04 14:43:52-08:00
74.06,1.0,10.0,2026-01-04 22:45:06,37.0816,-121.59956,322.0,0.0,337.8,-12.6,,,,,22:45:05,11.2,0.3,241.3,0.0,299.0,-0.0,0.0,1.0,,-30.0,13.0,0.0,29.88,121.0,,,230.0,,,,,0.0,0.0,,,,,,,,,,,,,,,,,,,0.0,12.0,0.0,0.0,30.0,0.0,,0.0,29.6,,,38.2,0.0,0.0,-0.4,0.6,0.2,,,,,13.0,14.0,13.0,14.0,13.0,14.0,13.0,14.0,,,-10.0,1.0,,29.6,1.0,0.0,,,0.656,0.703,0.0,12.0,,,,,,0.0,2026-01-04 14:43:52-08:00
75.06,1.0,10.0,2026-01-04 22:45:07,37.0816,-121.59956,322.0,0.1,337.8,-12.6,,,,,22:45:06,11.2,0.2,241.3,0.0,298.0,-0.0,0.0,1.0,,-31.0,13.0,0.0,29.88,121.0,,,230.0,,,,,0.0,0.0,,,,,,,,,,,,,,,,,,,0.0,12.0,0.0,0.0,30.0,0.0,,0.0,29.6,,,38.2,0.0,0.0,-0.4,0.6,0.2,,,,,13.0,14.0,13.0,14.0,13.0,14.0,13.0,14.0,,,-10.0,1.0,,29.6,1.0,0.0,,,0.656,0.703,0.0,12.0,,,,,,0.0,2026-01-04 14:43:52-08:00
76.06,1.0,10.0,2026-01-04 22:45:08,37.0816,-121.59956,323.0,0.0,337.8,-12.6,,,,,22:45:07,11.2,0.2,241.4,0.0,298.0,-0.0,0.0,1.0,,-38.0,13.0,0.0,29.88,121.0,,,230.0,,,,,0.0,0.0,,,,,,,,,,,,,,,,,,,0.0,12.0,0.0,0.0,30.0,0.0,,0.0,29.5,,,38.2,0.0,0.0,-0.4,0.6,0.2,,,,,13.0,14.0,13.0,14.0,13.0,14.0,13.0,14.0,,,-10.0,1.0,,29.5,1.0,0.0,,,0.656,0.703,0.0,12.0,,,,,,0.0,2026-01-04 14:43:52-08:00
77.06,1.0,10.0,2026-01-04 22:45:09,37.0816,-121.59956,323.0,0.0,337.8,-12.6,,,,,22:45:08,11.2,0.2,241.4,0.0,298.0,-0.0,0.0,1.0,,-35.0,13.0,0.0,29.88,128.0,,,230.0,,,,,0.0,0.0,,,,,,,,,,,,,,,,,,,0.0,12.0,0.0,0.0,30.0,0.0,,0.0,29.4,,,38.2,0.0,0.0,-0.4,0.6,0.2,,,,,13.0,14.0,13.0,14.0,13.0,14.0,13.0,14.0,,,-10.0,1.0,,29.4,1.0,0.0,,,0.656,0.703,0.0,12.0,,,,,,0.0,2026-01-04 14:43:52-08:00
78.06,1.0,10.0,2026-01-04 22:45:10,37.0816,-121.59956,324.0,0.0,337.8,-12.6,,,,,22:45:09,11.2,0.2,241.4,0.0,297.0,-0.0,0.01,1.0,,-24.0,13.0,0.0,29.88,127.0,,,230.0,,,,,0.0,0.0,,,,,,,,,,,,,,,,,,,0.0,12.0,0.0,0.0,30.0,0.0,,0.0,29.3,,,38.2,0.0,0.0,-0.4,0.6,0.2,,,,,13.0,14.0,13.0,14.0,13.0,14.0,13.0,14.0,,,-10.0,1.0,,29.3,1.0,0.0,,,0.656,0.703,0.0,12.0,,,,,,0.0,2026-01-04 14:43:52-08:00
79.06,1.0,10.0,2026-01-04 22:45:11,37.0816,-121.59956,324.0,0.0,337.8,-12.6,,,,,22:45:10,11.2,0.2,241.4,0.0,297.0,0.0,0.0,1.0,,-7.0,13.0,0.0,29.88,127.0,,,230.0,,,,,0.0,0.0,,,,,,,,,,,,,,,,,,,0.0,12.0,0.0,0.0,30.0,0.0,,0.0,29.2,,,38.2,0.0,0.0,-0.4,0.6,0.2,,,,,13.0,14.0,13.0,14.0,13.0,14.0,13.0,14.0,,,-10.0,1.0,,29.2,1.0,0.0,,,0.656,0.703,0.0,12.1,,,,,,0.0,2026-01-04 14:43:52-08:00
80.06,1.0,10.0,2026-01-04 22:45:12,37.0816,-121.59956,324.0,0.0,337.8,-12.6,,,,,22:45:11,11.2,0.2,241.4,0.0,297.0,0.0,0.0,1.0,,22.0,13.0,0.0,29.88,127.0,,,230.0,,,,,0.0,0.0,,,,,,,,,,,,,,,,,,,0.0,12.0,0.0,0.0,30.0,0.0,,0.0,29.1,,,38.2,0.0,0.0,-0.4,0.6,0.2,,,,,13.0,14.0,13.0,14.0,13.0,14.0,13.0,14.0,,,-10.0,1.0,,29.1,1.0,0.0,,,0.656,0.703,0.0,12.1,,,,,,0.0,2026-01-04 14:43:52-08:00
81.06,1.0,10.0,2026-01-04 22:45:13,37.0816,-121.59956,325.0,0.0,337.8,-12.6,,,,,22:45:12,11.2,0.3,241.4,0.0,297.0,-0.0,0.0,1.0,,40.0,13.0,0.0,29.88,127.0,,,230.0,,,,,0.0,0.0,,,,,,,,,,,,,,,,,,,0.0,12.0,0.0,0.0,30.0,0.0,,0.0,29.0,,,38.2,0.0,0.0,-0.4,0.6,0.2,,,,,13.0,14.0,13.0,14.0,13.0,14.0,13.0,14.0,,,-10.0,1.0,,29.0,1.0,0.0,,,0.656,0.703,0.0,12.0,,,,,,0.0,2026-01-04 14:43:52-08:00
82.06,2.0,10.0,2026-01-04 22:45:14,37.08161,-121.59956,325.0,0.0,337.8,-12.6,,,,,22:45:13,11.2,0.3,241.5,0.0,297.0,-0.0,0.01,1.0,,15.0,13.0,0.0,29.88,127.0,,,230.0,,,,,0.0,0.0,,,,,,,,,,,,,,,,,,,0.0,11.0,193.0,193.0,29.9,0.0,,0.0,29.1,,,38.2,0.0,0.0,-0.4,0.6,0.2,,,,,10.0,12.0,10.0,10.0,10.0,10.0,10.0,10.0,,,-10.0,1.0,,29.1,1.0,0.0,,,0.656,0.702,0.0,10.6,,,,,,193.0,2026-01-04 14:43:52-08:00
83.06,2.0,10.0,2026-01-04 22:45:15,37.08161,-121.59956,326.0,0.0,337.8,-12.6,,,,,22:45:14,11.1,0.3,241.5,0.0,297.0,0.0,0.0,1.0,,12.0,13.0,0.0,29.88,127.0,,,230.0,,,,,0.0,0.0,,,,,,,,,,,,,,,,,,,1.0,12.0,840.0,840.0,22.8,0.9,,0.9,23.3,,,38.2,0.0,0.0,-0.5,0.6,0.2,,,,,13.0,42.0,12.0,37.0,13.0,32.0,12.0,34.0,,,-10.0,1.0,,23.3,1.0,0.0,,,0.665,0.703,0.6,11.8,,,,,,840.0,2026-01-04 14:43:52-08:00
84.06,2.0,10.0,2026-01-04 22:45:16,37.08161,-121.59956,326.0,0.1,337.8,-12.6,,,,,22:45:15,11.2,0.3,241.5,0.0,297.0,0.0,0.0,1.0,,78.0,13.0,0.0,29.88,129.0,,,230.0,,,,,0.0,0.0,,,,,,,,,,,,,,,,,,,3.0,12.0,988.0,988.0,17.5,1.7,,1.7,23.4,,,38.2,0.0,0.0,-0.4,0.6,0.2,,,,,14.0,95.0,13.0,63.0,13.0,71.0,13.0,65.0,,,-10.0,1.0,,23.4,1.0,0.0,,,0.659,0.703,2.6,12.1,,,,,,988.0,2026-01-04 14:43:52-08:00
85.06,2.0,10.0,2026-01-04 22:45:17,37.08161,-121.59956,326.0,0.1,337.8,-12.6,,,,,22:45:16,11.2,0.3,241.5,0.0,297.0,-0.0,0.01,1.0,,38.0,13.0,0.0,29.88,129.0,,,230.0,,,,,0.0,0.0,,,,,,,,,,,,,,,,,,,5.0,12.0,1020.0,1020.0,16.4,2.3,,2.3,23.8,,,38.2,0.0,0.0,-0.4,0.6,0.2,,,,,14.0,150.0,13.0,85.0,14.0,109.0,14.0,94.0,,,-10.0,1.0,,23.8,1.0,0.0,,,0.662,0.703,5.4,12.1,,,,,,1020.0,2026-01-04 14:43:52-08:00
86.06,2.0,10.0,2026-01-04 22:45:18,37.08161,-121.59956,326.0,0.0,337.8,-12.6,,,,,22:45:17,11.2,0.4,241.5,0.0,297.0,-0.0,0.01,1.0,,8.0,13.0,0.0,29.88,129.0,,,230.0,,,,,0.0,0.0,,,,,,,,,,,,,,,,,,,9.0,12.0,1039.0,1039.0,16.0,2.7,,2.7,24.0,,,38.2,0.0,0.0,-0.4,0.6,0.2,,,,,15.0,196.0,14.0,110.0,14.0,142.0,15.0,123.0,,,-10.0,1.0,,24.0,1.0,0.0,,,0.659,0.703,9.0,12.1,,,,,,1039.0,2026-01-04 14:43:52-08:00
87.06,2.0,10.0,2026-01-04 22:45:19,37.0816,-121.59956,336.0,0.1,337.8,-12.6,,,,,22:45:18,11.2,0.3,241.4,0.0,297.0,-0.0,0.0,1.0,,-5.0,13.0,0.0,29.88,129.0,,,230.0,,,,,0.0,0.0,,,,,,,,,,,,,,,,,,,14.0,12.0,1071.0,1071.0,15.7,2.9,,2.9,24.1,,,38.2,0.0,0.0,-0.4,0.6,0.2,,,,,15.0,237.0,14.0,137.0,15.0,173.0,16.0,149.0,,,-10.0,0.0,,24.1,1.0,0.0,,,0.662,0.703,13.7,12.1,,,,,,1071.0,2026-01-04 14:43:52-08:00
88.06,2.0,10.0,2026-01-04 22:45:20,37.0816,-121.59956,336.0,0.0,337.8,-12.6,,,,,22:45:19,11.2,0.4,241.4,0.0,297.0,-0.0,0.0,0.9,,-9.0,13.0,0.0,29.88,129.0,,,230.0,,,,,0.0,0.0,,,,,,,,,,,,,,,,,,,20.0,12.0,1125.0,1125.0,15.2,3.1,,3.1,24.3,,,38.2,0.0,0.0,-0.4,0.6,0.2,,,,,16.0,270.0,15.0,173.0,15.0,202.0,17.0,174.0,,,-10.0,0.0,,24.3,1.0,0.0,,,0.658,0.703,19.9,12.1,,,,,,1125.0,2026-01-04 14:43:52-08:00
89.06,2.0,10.0,2026-01-04 22:45:21,37.0816,-121.59957,334.0,0.0,337.8,-12.6,,,,,22:45:20,11.1,0.4,241.4,0.0,297.0,-0.0,0.01,1.0,,2.0,13.0,0.0,29.88,129.0,,,230.0,,,,,0.0,0.0,,,,,,,,,,,,,,,,,,,28.0,12.0,1152.0,1152.0,14.8,3.2,,3.2,24.4,,,38.2,0.0,0.0,-0.4,0.6,0.2,,,,,16.0,300.0,15.0,204.0,16.0,229.0,17.0,198.0,,,-10.0,0.0,,24.4,2.0,0.0,,,0.662,0.703,28.1,12.1,,,,,,1152.0,2026-01-04 14:43:52-08:00
90.06,2.0,10.0,2026-01-04 22:45:22,37.0816,-121.59957,333.0,0.0,337.8,-12.6,,,,,22:45:21,11.1,0.4,241.4,0.0,297.0,-0.0,0.0,1.0,,34.0,13.0,0.0,29.88,129.0,,,230.0,,,,,0.0,0.0,,,,,,,,,,,,,,,,,,,38.0,12.0,1152.0,1152.0,14.3,3.3,,3.3,24.6,,,38.2,0.0,0.0,-0.4,0.6,0.2,,,,,16.0,327.0,15.0,231.0,16.0,255.0,18.0,221.0,,,-10.0,0.0,,24.6,1.0,0.0,,,0.663,0.703,38.3,12.1,,,,,,1152.0,2026-01-04 14:43:52-08:00
91.06,2.0,10.0,2026-01-04 22:45:23,37.0816,-121.59957,332.0,0.0,337.8,-12.6,,,,,22:45:22,11.1,0.4,241.3,0.0,297.0,-0.0,0.01,1.0,,41.0,13.0,0.0,29.88,129.0,,,230.0,,,,,0.0,0.0,,,,,,,,,,,,,,,,,,,49.0,12.0,1120.0,1120.0,13.9,3.3,,3.3,24.8,,,38.2,0.0,0.0,-0.4,0.6,0.2,,,,,17.0,348.0,16.0,255.0,17.0,279.0,18.0,242.0,,,-10.0,0.0,,24.8,1.0,0.0,,,0.66,0.703,49.3,12.2,,,,,,1120.0,2026-01-04 14:43:52-08:00
92.06,2.0,10.0,2026-01-04 22:45:24,37.0816,-121.59957,332.0,0.0,337.8,-12.6,,,,,22:45:23,11.1,0.4,241.3,0.0,297.0,-0.0,0.0,1.0,,60.0,13.0,0.0,29.88,129.0,,,230.0,,,,,0.0,0.0,,,,,,,,,,,,,,,,,,,59.0,12.0,1112.0,1112.0,13.7,3.3,,3.3,24.9,,,38.2,0.0,0.0,-0.4,0.6,0.2,,,,,17.0,367.0,16.0,278.0,17.0,300.0,19.0,261.0,,,-10.0,0.0,,24.9,2.0,0.0,,,0.657,0.703,59.3,12.2,,,,,,1112.0,2026-01-04 14:43:52-08:00
93.06,2.0,10.0,2026-01-04 22:45:25,37.0816,-121.59957,331.0,0.0,337.8,-12.6,,,,,22:45:24,11.1,0.4,241.3,0.0,297.0,-0.0,0.0,1.0,,63.0,13.0,0.0,29.88,129.0,,,230.0,,,,,0.0,0.0,,,,,,,,,,,,,,,,,,,67.0,12.0,1086.0,1086.0,13.4,3.2,,3.2,25.0,,,38.2,0.0,0.0,-0.4,0.6,0.2,,,,,18.0,383.0,17.0,298.0,18.0,320.0,19.0,279.0,,,-10.0,0.0,,25.0,1.0,0.0,,,0.654,0.703,66.6,12.2,,,,,,1086.0,2026-01-04 14:43:52-08:00
94.06,2.0,10.0,2026-01-04 22:45:26,37.0816,-121.59957,331.0,0.0,337.8,-12.6,,,,,22:45:25,11.2,0.4,241.4,0.0,297.0,0.0,-0.0,0.9,,28.0,13.0,0.0,29.88,129.0,,,230.0,,,,,0.0,0.0,,,,,,,,,,,,,,,,,,,71.0,12.0,1067.0,1067.0,13.3,3.2,,3.2,25.0,,,38.2,0.0,0.0,-0.4,0.6,0.2,,,,,18.0,397.0,17.0,316.0,18.0,338.0,20.0,295.0,,,-10.0,0.0,,25.0,1.0,0.0,,,0.656,0.703,71.0,12.2,,,,,,1067.0,2026-01-04 14:43:52-08:00
95.06,2.0,10.0,2026-01-04 22:45:27,37.0816,-121.59957,332.0,0.0,337.8,-12.6,,,,,22:45:26,11.1,0.4,241.4,0.0,297.0,-0.0,0.0,1.0,,39.0,13.0,0.0,29.88,129.0,,,230.0,,,,,0.0,0.0,,,,,,,,,,,,,,,,,,,73.0,12.0,1044.0,1044.0,13.3,3.1,,3.1,25.1,,,38.2,0.0,0.0,-0.4,0.6,0.2,,,,,19.0,409.0,18.0,332.0,19.0,352.0,21.0,310.0,,,-10.0,0.0,,25.1,1.0,0.0,,,0.657,0.703,73.2,12.2,,,,,,1044.0,2026-01-04 14:43:52-08:00
96.06,2.0,10.0,2026-01-04 22:45:28,37.0816,-121.59957,333.0,0.0,337.8,-12.6,,,,,22:45:27,11.2,0.3,241.4,0.0,297.0,-0.0,0.0,1.0,,26.0,13.0,0.0,29.88,129.0,,,230.0,,,,,0.0,0.0,,,,,,,,,,,,,,,,,,,74.0,12.0,1009.0,1009.0,13.2,3.0,,3.0,25.1,,,38.2,0.0,0.0,-0.4,0.6,0.2,,,,,20.0,418.0,18.0,347.0,19.0,365.0,21.0,323.0,,,-10.0,0.0,,25.1,1.0,0.0,,,0.656,0.703,74.2,12.2,,,,,,1009.0,2026-01-04 14:43:52-08:00
97.06,2.0,10.0,2026-01-04 22:45:29,37.0816,-121.59957,333.0,0.0,337.8,-12.6,,,,,22:45:28,11.2,0.2,241.4,0.0,297.0,-0.0,0.0,1.0,,40.0,13.0,0.0,29.88,129.0,,,230.0,,,,,0.0,0.0,,,,,,,,,,,,,,,,,,,75.0,12.0,1006.0,1006.0,13.1,2.9,,2.9,25.1,,,38.2,0.0,0.0,-0.4,0.6,0.2,,,,,20.0,427.0,19.0,361.0,20.0,376.0,22.0,335.0,,,-10.0,0.0,,25.1,2.0,0.0,,,0.656,0.703,74.8,12.2,,,,,,1006.0,2026-01-04 14:43:52-08:00
98.06,2.0,10.0,2026-01-04 22:45:30,37.0816,-121.59956,330.0,0.1,337.8,-12.6,,,,,22:45:29,11.2,0.3,241.5,0.0,298.0,-0.0,0.0,1.0,,35.0,13.0,0.0,29.88,129.0,,,230.0,,,,,0.0,0.0,,,,,,,,,,,,,,,,,,,75.0,12.0,1001.0,1001.0,13.1,2.9,,2.9,25.2,,,38.2,0.0,0.0,-0.4,0.6,0.2,,,,,21.0,435.0,19.0,373.0,20.0,385.0,22.0,346.0,,,-10.0,0.0,,25.2,1.0,0.0,,,0.656,0.703,75.0,12.3,,,,,,1001.0,2026-01-04 14:43:52-08:00
99.06,2.0,10.0,2026-01-04 22:45:31,37.0816,-121.59957,332.0,0.0,337.8,-12.6,,,,,22:45:30,11.2,0.3,241.4,0.0,299.0,-0.0,0.0,1.0,,39.0,13.0,0.0,29.88,131.0,,,230.0,,,,,0.0,0.0,,,,,,,,,,,,,,,,,,,75.0,12.0,1007.0,1007.0,13.1,2.8,,2.8,25.2,,,38.2,0.0,0.0,-0.4,0.6,0.2,,,,,21.0,442.0,20.0,383.0,21.0,395.0,23.0,358.0,,,-10.0,0.0,,25.2,1.0,0.0,,,0.654,0.703,75.2,12.3,,,,,,1007.0,2026-01-04 14:43:52-08:00
100.06,2.0,10.0,2026-01-04 22:45:32,37.0816,-121.59957,332.0,0.0,337.8,-12.6,,,,,22:45:31,11.2,0.3,241.4,0.0,299.0,-0.0,0.0,0.9,,52.0,13.0,0.0,29.88,131.0,,,230.0,,,,,0.0,0.0,,,,,,,,,,,,,,,,,,,75.0,12.0,987.0,987.0,13.1,2.8,,2.8,25.2,,,38.2,0.0,0.0,-0.4,0.6,0.2,,,,,22.0,447.0,21.0,391.0,21.0,403.0,23.0,367.0,,,-10.0,0.0,,25.2,2.0,0.0,,,0.653,0.703,75.2,12.3,,,,,,987.0,2026-01-04 14:43:52-08:00
101.06,2.0,10.0,2026-01-04 22:45:33,37.0816,-121.59957,331.0,0.0,337.8,-12.6,,,,,22:45:32,11.1,0.3,241.4,0.0,301.0,-0.0,0.0,1.0,,57.0,13.0,0.0,29.88,131.0,,,230.0,,,,,0.0,0.0,,,,,,,,,,,,,,,,,,,75.0,12.0,976.0,976.0,13.1,2.7,,2.7,25.2,,,38.2,0.0,0.0,-0.4,0.6,0.2,,,,,22.0,453.0,21.0,400.0,22.0,410.0,24.0,377.0,,,-10.0,0.0,,25.2,2.0,0.0,,,0.654,0.703,75.3,12.3,,,,,,976.0,2026-01-04 14:43:52-08:00
102.06,2.0,10.0,2026-01-04 22:45:34,37.0816,-121.59957,330.0,0.0,337.8,-12.6,,,,,22:45:33,11.1,0.3,241.4,0.0,301.0,0.0,0.0,1.0,,44.0,13.0,0.0,29.88,134.0,,,230.0,,,,,0.0,0.0,,,,,,,,,,,,,,,,,,,75.0,12.0,985.0,985.0,13.1,2.7,,2.7,25.3,,,38.2,0.0,0.0,-0.4,0.6,0.2,,,,,23.0,458.0,22.0,407.0,22.0,416.0,24.0,385.0,,,-10.0,0.0,,25.3,2.0,0.0,,,0.654,0.703,75.4,12.3,,,,,,985.0,2026-01-04 14:43:52-08:00
103.06,2.0,10.0,2026-01-04 22:45:35,37.0816,-121.59957,330.0,0.0,337.8,-12.6,,,,,22:45:34,11.2,0.3,241.4,0.0,302.0,0.0,0.0,1.0,,42.0,13.0,0.0,29.88,134.0,,,230.0,,,,,0.0,0.0,,,,,,,,,,,,,,,,,,,75.0,12.0,956.0,956.0,13.0,2.6,,2.6,25.3,,,38.2,0.0,0.0,-0.4,0.6,0.2,,,,,24.0,464.0,22.0,412.0,23.0,421.0,25.0,393.0,,,-10.0,0.0,,25.3,2.0,0.0,,,0.654,0.703,75.4,12.4,,,,,,956.0,2026-01-04 14:43:52-08:00
104.06,2.0,10.0,2026-01-04 22:45:36,37.08158,-121.59956,332.0,0.0,337.8,-12.6,,,,,22:45:35,11.2,0.3,241.4,0.0,303.0,-0.0,0.01,1.0,,34.0,13.0,0.0,29.88,134.0,,,230.0,,,,,0.0,0.0,,,,,,,,,,,,,,,,,,,75.0,12.0,951.0,951.0,13.1,2.6,,2.6,25.3,,,38.2,0.0,0.0,-0.4,0.6,0.2,,,,,24.0,468.0,23.0,418.0,23.0,427.0,25.0,401.0,,,-10.0,0.0,,25.3,2.0,0.0,,,0.66,0.703,75.4,12.4,,,,,,951.0,2026-01-04 14:43:52-08:00
105.06,2.0,10.0,2026-01-04 22:45:37,37.08158,-121.59956,332.0,0.0,337.8,-12.6,,,,,22:45:36,11.1,0.3,241.4,0.0,303.0,-0.0,0.0,1.0,,12.0,13.0,0.0,29.88,136.0,,,230.0,,,,,0.0,0.0,,,,,,,,,,,,,,,,,,,75.0,12.0,938.0,938.0,13.1,2.6,,2.6,25.3,,,38.2,0.0,0.0,-0.4,0.6,0.2,,,,,25.0,472.0,23.0,423.0,24.0,431.0,26.0,408.0,,,-10.0,0.0,,25.3,2.0,0.0,,,0.657,0.703,75.4,12.4,,,,,,938.0,2026-01-04 14:43:52-08:00
106.06,2.0,10.0,2026-01-04 22:45:38,37.08158,-121.59957,329.0,0.0,337.8,-12.6,,,,,22:45:37,11.1,0.2,241.3,0.0,303.0,-0.0,0.0,1.0,,12.0,13.0,0.0,29.88,136.0,,,230.0,,,,,0.0,0.0,,,,,,,,,,,,,,,,,,,75.0,12.0,924.0,924.0,13.2,2.5,,2.5,25.3,,,38.2,0.0,0.0,-0.4,0.6,0.2,,,,,25.0,475.0,24.0,427.0,24.0,436.0,26.0,415.0,,,-10.0,0.0,,25.3,2.0,0.0,,,0.658,0.703,75.4,12.4,,,,,,924.0,2026-01-04 14:43:52-08:00
107.06,2.0,10.0,2026-01-04 22:45:39,37.08158,-121.59957,329.0,0.0,337.8,-12.6,,,,,22:45:38,11.1,0.2,241.3,0.0,303.0,-0.0,0.01,1.0,,21.0,13.0,0.0,29.88,136.0,,,230.0,,,,,0.0,0.0,,,,,,,,,,,,,,,,,,,75.0,12.0,904.0,904.0,13.3,2.5,,2.5,25.4,,,38.2,0.0,0.0,-0.4,0.6,0.2,,,,,26.0,477.0,24.0,430.0,24.0,441.0,27.0,422.0,,,-10.0,0.0,,25.4,2.0,0.0,,,0.658,0.703,75.3,12.4,,,,,,904.0,2026-01-04 14:43:52-08:00
108.06,2.0,10.0,2026-01-04 22:45:40,37.08158,-121.59957,330.0,0.0,337.8,-12.6,,,,,22:45:39,11.1,0.3,241.3,0.0,303.0,-0.0,0.01,1.0,,24.0,13.0,0.0,29.88,137.0,,,230.0,,,,,0.0,0.0,,,,,,,,,,,,,,,,,,,75.0,12.0,905.0,905.0,13.4,2.4,,2.4,25.4,,,38.2,0.0,0.0,-0.4,0.6,0.2,,,,,27.0,478.0,25.0,433.0,25.0,444.0,27.0,429.0,,,-10.0,0.0,,25.4,2.0,0.0,,,0.659,0.702,75.3,12.4,,,,,,905.0,2026-01-04 14:43:52-08:00
109.06,2.0,10.0,2026-01-04 22:45:41,37.08158,-121.59957,330.0,0.0,337.8,-12.6,,,,,22:45:40,11.1,0.3,241.3,0.0,304.0,-0.0,0.01,1.0,,42.0,13.0,0.0,29.88,138.0,,,230.0,,,,,0.0,0.0,,,,,,,,,,,,,,,,,,,75.0,12.0,901.0,901.0,13.6,2.4,,2.4,25.4,,,38.2,0.0,0.0,-0.4,0.6,0.2,,,,,27.0,478.0,25.0,437.0,25.0,447.0,28.0,435.0,,,-10.0,0.0,,25.4,2.0,0.0,,,0.657,0.703,75.3,12.4,,,,,,901.0,2026-01-04 14:43:52-08:00
110.06,2.0,10.0,2026-01-04 22:45:42,37.08158,-121.59957,330.0,0.1,337.8,-12.6,,,,,22:45:41,11.1,0.2,241.3,0.0,304.0,-0.0,0.01,1.0,,2.0,13.0,0.0,29.88,139.0,,,230.0,,,,,0.0,0.0,,,,,,,,,,,,,,,,,,,75.0,12.0,898.0,898.0,13.6,2.4,,2.4,25.4,,,38.2,0.0,0.0,-0.4,0.6,0.2,,,,,28.0,479.0,26.0,440.0,26.0,450.0,28.0,440.0,,,-10.0,0.0,,25.4,2.0,0.0,,,0.657,0.702,75.3,12.5,,,,,,898.0,2026-01-04 14:43:52-08:00
111.06,2.0,10.0,2026-01-04 22:45:43,37.08158,-121.59957,330.0,0.1,337.8,-12.6,,,,,22:45:42,11.1,0.2,241.3,0.0,304.0,-0.0,0.0,1.0,,-5.0,13.0,0.0,29.88,139.0,,,230.0,,,,,0.0,0.0,,,,,,,,,,,,,,,,,,,75.0,12.0,895.0,895.0,13.7,2.4,,2.4,25.4,,,38.2,0.0,0.0,-0.4,0.6,0.2,,,,,28.0,481.0,27.0,443.0,27.0,453.0,28.0,446.0,,,-10.0,0.0,,25.4,2.0,0.0,,,0.662,0.703,75.3,12.5,,,,,,895.0,2026-01-04 14:43:52-08:00
112.06,2.0,10.0,2026-01-04 22:45:44,37.08158,-121.59957,330.0,0.0,337.8,-12.6,,,,,22:45:43,11.1,0.2,241.3,0.0,304.0,-0.0,0.0,1.0,,3.0,13.0,0.0,29.88,139.0,,,230.0,,,,,0.0,0.0,,,,,,,,,,,,,,,,,,,75.0,12.0,886.0,886.0,13.7,2.3,,2.3,25.4,,,38.2,0.0,0.0,-0.4,0.6,0.2,,,,,29.0,482.0,27.0,446.0,27.0,456.0,29.0,451.0,,,-10.0,0.0,,25.4,2.0,0.0,,,0.662,0.702,75.2,12.5,,,,,,886.0,2026-01-04 14:43:52-08:00
113.06,2.0,10.0,2026-01-04 22:45:45,37.08158,-121.59957,330.0,0.0,337.8,-12.6,,,,,22:45:44,11.1,0.3,241.3,0.0,304.0,-0.0,0.01,1.0,,3.0,13.0,0.0,29.88,139.0,,,230.0,,,,,0.0,0.0,,,,,,,,,,,,,,,,,,,75.0,12.0,890.0,890.0,13.8,2.3,,2.3,25.4,,,38.2,0.0,0.0,-0.4,0.6,0.2,,,,,29.0,485.0,28.0,448.0,28.0,459.0,29.0,455.0,,,-10.0,0.0,,25.4,2.0,0.0,,,0.66,0.702,75.2,12.5,,,,,,890.0,2026-01-04 14:43:52-08:00
114.06,2.0,10.0,2026-01-04 22:45:46,37.08158,-121.59957,328.0,0.1,337.8,-12.6,,,,,22:45:45,11.2,0.2,241.3,0.0,304.0,-0.0,0.01,1.0,,2.0,13.0,0.0,29.88,139.0,,,230.0,,,,,0.0,0.0,,,,,,,,,,,,,,,,,,,75.0,13.0,881.0,881.0,13.8,2.3,,2.3,25.4,,,38.2,0.0,0.0,-0.4,0.6,0.2,,,,,30.0,486.0,28.0,450.0,28.0,462.0,30.0,459.0,,,-10.0,0.0,,25.4,2.0,0.0,,,0.659,0.702,75.2,12.5,,,,,,881.0,2026-01-04 14:43:52-08:00
115.06,2.0,10.0,2026-01-04 22:45:47,37.08158,-121.59957,328.0,0.0,337.8,-12.6,,,,,22:45:46,11.1,0.3,241.4,0.0,304.0,-0.0,0.01,1.0,,22.0,13.0,0.0,29.88,139.0,,,230.0,,,,,0.0,0.0,,,,,,,,,,,,,,,,,,,75.0,13.0,877.0,877.0,13.8,2.3,,2.3,25.4,,,38.1,0.0,0.0,-0.4,0.6,0.2,,,,,31.0,488.0,29.0,453.0,28.0,464.0,30.0,462.0,,,-10.0,0.0,,25.4,2.0,0.0,,,0.663,0.702,75.2,12.5,,,,,,877.0,2026-01-04 14:43:52-08:00
116.06,2.0,10.0,2026-01-04 22:45:48,37.08158,-121.59957,333.0,0.0,337.8,-12.6,,,,,22:45:47,11.1,0.3,241.4,0.0,304.0,0.0,0.0,1.0,,5.0,13.0,0.0,29.88,147.0,,,230.0,,,,,0.0,0.0,,,,,,,,,,,,,,,,,,,75.0,13.0,881.0,881.0,14.0,2.2,,2.2,25.5,,,38.1,0.0,0.0,-0.4,0.6,0.2,,,,,31.0,488.0,29.0,455.0,29.0,467.0,31.0,466.0,,,-10.0,0.0,,25.5,2.0,0.0,,,0.667,0.702,75.2,12.6,,,,,,881.0,2026-01-04 14:43:52-08:00
117.06,2.0,10.0,2026-01-04 22:45:49,37.08158,-121.59958,331.0,0.0,337.8,-12.6,,,,,22:45:48,11.2,0.3,241.4,0.0,304.0,0.0,0.0,1.0,,3.0,13.0,0.0,29.88,147.0,,,230.0,,,,,0.0,0.0,,,,,,,,,,,,,,,,,,,75.0,13.0,879.0,879.0,14.0,2.2,,2.2,25.4,,,38.1,0.0,0.0,-0.4,0.6,0.2,,,,,32.0,489.0,30.0,458.0,29.0,469.0,31.0,469.0,,,-10.0,0.0,,25.4,2.0,0.0,,,0.665,0.702,75.2,12.6,,,,,,879.0,2026-01-04 14:43:52-08:00
118.06,2.0,10.0,2026-01-04 22:45:50,37.08158,-121.59958,330.0,0.0,337.8,-12.6,,,,,22:45:49,11.2,0.3,241.5,0.0,304.0,0.0,0.0,1.0,,6.0,13.0,0.0,29.88,147.0,,,230.0,,,,,0.0,0.0,,,,,,,,,,,,,,,,,,,75.0,13.0,874.0,874.0,14.0,2.2,,2.2,25.5,,,38.1,0.0,0.0,-0.4,0.6,0.2,,,,,32.0,491.0,30.0,460.0,30.0,470.0,32.0,472.0,,,-10.0,0.0,,25.5,2.0,0.0,,,0.665,0.702,75.2,12.6,,,,,,874.0,2026-01-04 14:43:52-08:00
119.06,2.0,10.0,2026-01-04 22:45:51,37.08158,-121.59958,331.0,0.0,337.8,-12.6,,,,,22:45:50,11.2,0.3,241.4,0.0,304.0,-0.0,0.0,1.0,,2.0,13.0,0.0,29.88,139.0,,,230.0,,,,,0.0,0.0,,,,,,,,,,,,,,,,,,,75.0,13.0,891.0,891.0,14.0,2.2,,2.2,25.5,,,38.1,0.0,0.0,-0.4,0.6,0.2,,,,,33.0,491.0,31.0,463.0,30.0,472.0,32.0,475.0,,,-10.0,0.0,,25.5,2.0,0.0,,,0.667,0.703,75.2,12.6,,,,,,891.0,2026-01-04 14:43:52-08:00
120.06,2.0,10.0,2026-01-04 22:45:52,37.08158,-121.59958,332.0,0.0,337.8,-12.6,,,,,22:45:51,11.2,0.2,241.4,0.0,304.0,-0.0,0.0,1.0,,19.0,13.0,0.0,29.88,139.0,,,230.0,,,,,0.0,0.0,,,,,,,,,,,,,,,,,,,75.0,13.0,889.0,889.0,14.0,2.2,,2.2,25.5,,,38.1,0.0,0.0,-0.4,0.6,0.2,,,,,33.0,493.0,31.0,465.0,31.0,474.0,33.0,477.0,,,-10.0,0.0,,25.5,2.0,0.0,,,0.665,0.702,75.2,12.6,,,,,,889.0,2026-01-04 14:43:52-08:00
121.06,2.0,10.0,2026-01-04 22:45:53,37.08158,-121.59958,332.0,0.1,337.8,-12.6,,,,,22:45:52,11.2,0.2,241.4,0.0,305.0,-0.0,0.0,1.0,,-8.0,13.0,0.0,29.88,140.0,,,230.0,,,,,0.0,0.0,,,,,,,,,,,,,,,,,,,75.0,13.0,904.0,904.0,14.0,2.2,,2.2,25.6,,,38.1,0.0,0.0,-0.4,0.6,0.2,,,,,34.0,494.0,32.0,467.0,31.0,475.0,33.0,479.0,,,-10.0,0.0,,25.6,2.0,0.0,,,0.665,0.703,75.2,12.6,,,,,,904.0,2026-01-04 14:43:52-08:00
122.06,2.0,10.0,2026-01-04 22:45:54,37.08158,-121.59958,332.0,0.0,337.8,-12.6,,,,,22:45:53,11.2,0.3,241.4,0.0,305.0,-0.0,0.01,1.0,,-16.0,13.0,0.0,29.88,140.0,,,230.0,,,,,0.0,0.0,,,,,,,,,,,,,,,,,,,75.0,13.0,904.0,904.0,13.8,2.2,,2.2,25.6,,,38.1,0.0,0.0,-0.4,0.6,0.2,,,,,34.0,497.0,32.0,469.0,32.0,477.0,34.0,480.0,,,-10.0,0.0,,25.6,2.0,0.0,,,0.663,0.703,75.2,12.7,,,,,,904.0,2026-01-04 14:43:52-08:00
123.06,2.0,10.0,2026-01-04 22:45:55,37.08158,-121.59958,332.0,0.1,337.8,-12.6,,,,,22:45:54,11.2,0.2,241.5,0.0,305.0,-0.0,0.01,1.0,,3.0,13.0,0.0,29.88,140.0,,,230.0,,,,,0.0,0.0,,,,,,,,,,,,,,,,,,,75.0,13.0,896.0,896.0,13.8,2.1,,2.1,25.6,,,38.1,0.0,0.0,-0.4,0.6,0.2,,,,,35.0,498.0,33.0,471.0,32.0,478.0,34.0,482.0,,,-10.0,0.0,,25.6,2.0,0.0,,,0.667,0.702,75.2,12.7,,,,,,896.0,2026-01-04 14:43:52-08:00
124.06,2.0,10.0,2026-01-04 22:45:56,37.08158,-121.59958,332.0,0.0,337.8,-12.6,,,,,22:45:55,11.2,0.2,241.5,0.0,305.0,-0.0,0.01,1.0,,2.0,13.0,0.0,29.88,148.0,,,230.0,,,,,0.0,0.0,,,,,,,,,,,,,,,,,,,75.0,13.0,741.0,741.0,13.5,2.1,,2.1,25.8,,,38.1,0.0,0.0,-0.4,0.6,0.2,,,,,36.0,500.0,33.0,473.0,33.0,480.0,35.0,483.0,,,-10.0,0.0,,25.8,2.0,0.0,,,0.664,0.702,75.0,12.7,,,,,,741.0,2026-01-04 14:43:52-08:00
125.06,2.0,10.0,2026-01-04 22:45:57,37.08158,-121.59958,332.0,0.0,337.8,-12.6,,,,,22:45:56,11.2,0.2,241.5,0.0,305.0,-0.0,0.01,1.0,,-28.0,13.0,0.0,29.88,148.0,,,230.0,,,,,0.0,0.0,,,,,,,,,,,,,,,,,,,74.0,13.0,811.0,811.0,15.0,2.0,,2.0,25.6,,,38.1,0.0,0.0,-0.4,0.6,0.2,,,,,36.0,499.0,34.0,470.0,33.0,480.0,35.0,482.0,,,-10.0,0.0,,25.6,2.0,0.0,,,0.664,0.703,73.5,12.7,,,,,,811.0,2026-01-04 14:43:52-08:00
126.06,2.0,10.0,2026-01-04 22:45:58,37.08158,-121.59958,330.0,0.0,337.8,-12.6,,,,,22:45:57,11.2,0.3,241.5,0.0,305.0,-0.0,0.01,1.0,,-25.0,13.0,0.0,29.88,148.0,,,230.0,,,,,0.0,0.0,,,,,,,,,,,,,,,,,,,74.0,13.0,844.0,844.0,14.1,1.9,,1.9,25.7,,,38.1,0.0,0.0,-0.4,0.6,0.2,,,,,37.0,501.0,34.0,471.0,34.0,482.0,36.0,483.0,,,-10.0,0.0,,25.7,2.0,0.0,,,0.67,0.703,74.5,12.7,,,,,,844.0,2026-01-04 14:43:52-08:00
127.06,2.0,10.0,2026-01-04 22:45:59,37.08158,-121.59958,330.0,0.0,337.8,-12.6,,,,,22:45:58,11.2,0.2,241.5,0.0,305.0,-0.0,0.01,1.0,,-31.0,13.0,0.0,29.88,150.0,,,230.0,,,,,0.0,0.0,,,,,,,,,,,,,,,,,,,75.0,13.0,839.0,839.0,13.8,1.9,,1.9,25.7,,,38.1,0.0,0.0,-0.4,0.6,0.2,,,,,37.0,501.0,35.0,473.0,34.0,485.0,36.0,484.0,,,-10.0,0.0,,25.7,2.0,0.0,,,0.667,0.703,74.7,12.7,,,,,,839.0,2026-01-04 14:43:52-08:00
128.06,2.0,10.0,2026-01-04 22:46:00,37.08159,-121.59958,329.0,0.0,337.8,-12.6,,,,,22:45:59,11.2,0.3,241.4,0.0,305.0,-0.0,0.01,1.0,,-46.0,13.0,0.0,29.88,150.0,,,230.0,,,,,0.0,0.0,,,,,,,,,,,,,,,,,,,75.0,13.0,844.0,844.0,13.7,1.8,,1.8,25.7,,,38.1,0.0,0.0,-0.4,0.6,0.2,,,,,38.0,502.0,35.0,474.0,35.0,486.0,37.0,485.0,,,-10.0,0.0,,25.7,2.0,0.0,,,0.659,0.703,74.8,12.8,,,,,,844.0,2026-01-04 14:43:52-08:00
129.06,2.0,10.0,2026-01-04 22:46:01,37.08159,-121.59958,329.0,0.0,337.8,-12.6,,,,,22:46:00,11.2,0.2,241.4,0.0,305.0,-0.0,0.0,1.0,,-83.0,13.0,0.0,29.88,148.0,,,230.0,,,,,0.0,0.0,,,,,,,,,,,,,,,,,,,75.0,13.0,838.0,838.0,13.6,1.8,,1.8,25.7,,,38.1,0.0,0.0,-0.4,0.6,0.2,,,,,38.0,503.0,36.0,475.0,35.0,488.0,38.0,485.0,,,-10.0,0.0,,25.7,2.0,0.0,,,0.66,0.703,74.9,12.8,,,,,,838.0,2026-01-04 14:43:52-08:00
130.06,2.0,10.0,2026-01-04 22:46:02,37.08159,-121.59958,329.0,0.0,337.8,-12.6,,,,,22:46:01,11.2,0.2,241.5,0.0,305.0,-0.0,0.0,1.0,,-60.0,13.0,0.0,29.88,148.0,,,230.0,,,,,0.0,0.0,,,,,,,,,,,,,,,,,,,75.0,13.0,835.0,835.0,13.6,1.8,,1.8,25.7,,,38.1,0.0,0.0,-0.4,0.6,0.2,,,,,39.0,503.0,36.0,476.0,36.0,489.0,38.0,486.0,,,-10.0,0.0,,25.7,2.0,0.0,,,0.663,0.703,74.8,12.8,,,,,,835.0,2026-01-04 14:43:52-08:00
131.06,2.0,10.0,2026-01-04 22:46:03,37.08159,-121.59958,329.0,0.0,337.8,-12.6,,,,,22:46:02,11.2,0.3,241.4,0.0,305.0,-0.0,0.0,1.0,,-36.0,13.0,0.0,29.88,148.0,,,230.0,,,,,0.0,0.0,,,,,,,,,,,,,,,,,,,75.0,13.0,826.0,826.0,13.5,1.7,,1.7,25.7,,,38.1,0.0,0.0,-0.4,0.6,0.2,,,,,39.0,504.0,37.0,477.0,36.0,490.0,38.0,486.0,,,-10.0,0.0,,25.7,2.0,0.0,,,0.657,0.703,74.8,12.8,,,,,,826.0,2026-01-04 14:43:52-08:00
132.06,2.0,10.0,2026-01-04 22:46:04,37.08159,-121.59958,330.0,0.0,337.8,-12.6,,,,,22:46:03,11.2,0.3,241.4,0.0,305.0,-0.0,0.0,1.0,,-35.0,13.0,0.0,29.88,150.0,,,230.0,,,,,0.0,0.0,,,,,,,,,,,,,,,,,,,75.0,13.0,811.0,811.0,13.4,1.7,,1.7,25.7,,,38.1,0.0,0.0,-0.4,0.6,0.2,,,,,40.0,505.0,37.0,477.0,37.0,492.0,39.0,486.0,,,-10.0,0.0,,25.7,2.0,0.0,,,0.656,0.703,74.8,12.9,,,,,,811.0,2026-01-04 14:43:52-08:00
133.06,2.0,10.0,2026-01-04 22:46:05,37.0816,-121.59958,330.0,0.1,337.8,-12.6,,,,,22:46:04,11.2,0.3,241.4,0.0,305.0,-0.0,0.0,1.0,,-8.0,13.0,0.0,29.88,150.0,,,230.0,,,,,0.0,0.0,,,,,,,,,,,,,,,,,,,75.0,13.0,782.0,782.0,13.4,1.7,,1.7,25.8,,,38.1,0.0,0.0,-0.4,0.6,0.2,,,,,40.0,505.0,38.0,478.0,37.0,492.0,39.0,486.0,,,-10.0,0.0,,25.8,2.0,0.0,,,0.654,0.703,74.6,12.9,,,,,,782.0,2026-01-04 14:43:52-08:00
134.06,2.0,10.0,2026-01-04 22:46:06,37.0816,-121.59958,330.0,0.0,337.8,-12.6,,,,,22:46:05,11.2,0.3,241.5,0.0,305.0,0.0,0.0,1.0,,-6.0,13.0,0.0,29.88,150.0,,,230.0,,,,,0.0,0.0,,,,,,,,,,,,,,,,,,,74.0,13.0,770.0,770.0,13.4,1.6,,1.6,25.7,,,38.1,0.0,0.0,-0.4,0.6,0.2,,,,,41.0,506.0,38.0,479.0,38.0,492.0,40.0,486.0,,,-9.0,0.0,,25.7,2.0,0.0,,,0.654,0.703,74.4,12.9,,,,,,770.0,2026-01-04 14:43:52-08:00
135.06,2.0,10.0,2026-01-04 22:46:07,37.0816,-121.59958,330.0,0.0,337.8,-12.6,,,,,22:46:06,11.2,0.3,241.4,0.0,305.0,0.0,0.0,1.0,,18.0,13.0,0.0,29.88,150.0,,,230.0,,,,,0.0,0.0,,,,,,,,,,,,,,,,,,,74.0,13.0,750.0,750.0,13.5,1.6,,1.6,25.7,,,38.1,0.0,0.0,-0.4,0.6,0.2,,,,,41.0,508.0,38.0,479.0,38.0,492.0,40.0,486.0,,,-10.0,0.0,,25.7,2.0,0.0,,,0.654,0.703,74.2,12.9,,,,,,750.0,2026-01-04 14:43:52-08:00
136.06,2.0,10.0,2026-01-04 22:46:08,37.0816,-121.59958,330.0,0.0,337.8,-12.6,,,,,22:46:07,11.2,0.3,241.4,0.0,305.0,-0.0,0.01,1.0,,29.0,13.0,0.0,29.88,150.0,,,230.0,,,,,0.0,0.0,,,,,,,,,,,,,,,,,,,74.0,13.0,749.0,749.0,13.8,1.6,,1.6,25.7,,,38.1,0.0,0.0,-0.4,0.6,0.2,,,,,42.0,510.0,39.0,481.0,39.0,493.0,41.0,486.0,,,-10.0,0.0,,25.7,2.0,0.0,,,0.654,0.703,73.9,12.9,,,,,,749.0,2026-01-04 14:43:52-08:00
137.06,2.0,10.0,2026-01-04 22:46:09,37.0816,-121.59958,328.0,0.1,337.8,-12.6,,,,,22:46:08,11.1,0.3,241.4,0.0,305.0,-0.0,0.01,1.0,,12.0,13.0,0.0,29.88,150.0,,,230.0,,,,,0.0,0.0,,,,,,,,,,,,,,,,,,,74.0,13.0,748.0,748.0,13.8,1.5,,1.5,25.7,,,38.1,0.0,0.0,-0.4,0.6,0.2,,,,,42.0,512.0,39.0,482.0,39.0,494.0,41.0,486.0,,,-9.0,0.0,,25.7,2.0,0.0,,,0.654,0.703,73.9,13.0,,,,,,748.0,2026-01-04 14:43:52-08:00
138.06,2.0,10.0,2026-01-04 22:46:10,37.0816,-121.59959,327.0,0.0,337.8,-12.6,,,,,22:46:09,11.1,0.3,241.3,0.0,305.0,-0.0,0.01,1.0,,28.0,13.0,0.0,29.88,150.0,,,230.0,,,,,0.0,0.0,,,,,,,,,,,,,,,,,,,74.0,13.0,757.0,757.0,14.0,1.5,,1.5,25.7,,,38.1,0.0,0.0,-0.4,0.6,0.2,,,,,42.0,513.0,40.0,482.0,40.0,494.0,42.0,486.0,,,-10.0,0.0,,25.7,2.0,0.0,,,0.653,0.703,73.9,13.0,,,,,,757.0,2026-01-04 14:43:52-08:00
139.06,2.0,10.0,2026-01-04 22:46:11,37.0816,-121.59959,327.0,0.0,337.8,-12.6,,,,,22:46:10,11.1,0.3,241.3,0.0,305.0,-0.0,0.0,1.0,,42.0,13.0,0.0,29.88,150.0,,,230.0,,,,,0.0,0.0,,,,,,,,,,,,,,,,,,,74.0,13.0,765.0,765.0,13.8,1.5,,1.5,25.8,,,38.1,0.0,0.0,-0.4,0.6,0.2,,,,,43.0,514.0,40.0,483.0,40.0,494.0,42.0,486.0,,,-9.0,0.0,,25.8,2.0,0.0,,,0.653,0.702,74.0,13.0,,,,,,765.0,2026-01-04 14:43:52-08:00
140.06,2.0,10.0,2026-01-04 22:46:12,37.0816,-121.59959,327.0,0.0,337.8,-12.6,,,,,22:46:11,11.1,0.2,241.3,0.0,305.0,-0.1,0.0,1.0,,34.0,13.0,0.0,29.88,150.0,,,230.0,,,,,0.0,0.0,,,,,,,,,,,,,,,,,,,74.0,13.0,755.0,755.0,13.8,1.5,,1.5,25.8,,,38.1,0.0,0.0,-0.4,0.6,0.2,,,,,44.0,516.0,41.0,483.0,41.0,495.0,43.0,486.0,,,-10.0,0.0,,25.8,2.0,0.0,,,0.653,0.702,73.9,13.0,,,,,,755.0,2026-01-04 14:43:52-08:00
141.06,2.0,10.0,2026-01-04 22:46:13,37.0816,-121.59959,326.0,0.0,337.8,-12.6,,,,,22:46:12,11.1,0.2,241.3,0.0,305.0,-0.0,0.0,0.9,,15.0,13.0,0.0,29.88,150.0,,,230.0,,,,,0.0,0.0,,,,,,,,,,,,,,,,,,,74.0,13.0,747.0,747.0,13.8,1.5,,1.5,25.7,,,38.1,0.0,0.0,-0.4,0.6,0.2,,,,,44.0,518.0,41.0,484.0,41.0,496.0,43.0,486.0,,,-10.0,0.0,,25.7,2.0,0.0,,,0.653,0.702,73.8,13.1,,,,,,747.0,2026-01-04 14:43:52-08:00
142.06,2.0,10.0,2026-01-04 22:46:14,37.0816,-121.59959,326.0,0.0,337.8,-12.6,,,,,22:46:13,11.1,0.2,241.2,0.0,305.0,-0.0,0.0,1.0,,42.0,13.0,0.0,29.88,150.0,,,230.0,,,,,0.0,0.0,,,,,,,,,,,,,,,,,,,74.0,13.0,764.0,764.0,13.9,1.5,,1.5,25.8,,,38.1,0.0,0.0,-0.4,0.6,0.2,,,,,45.0,520.0,42.0,486.0,42.0,498.0,44.0,486.0,,,-10.0,0.0,,25.8,2.0,0.0,,,0.653,0.702,73.7,13.1,,,,,,764.0,2026-01-04 14:43:52-08:00
143.06,2.0,10.0,2026-01-04 22:46:15,37.0816,-121.59959,327.0,0.0,337.8,-12.6,,,,,22:46:14,11.1,0.2,241.3,0.0,305.0,-0.0,0.0,1.0,,-5.0,13.0,0.0,29.88,150.0,,,230.0,,,,,0.0,0.0,,,,,,,,,,,,,,,,,,,74.0,13.0,773.0,773.0,13.9,1.5,,1.5,25.8,,,38.1,0.0,0.0,-0.4,0.6,0.2,,,,,45.0,520.0,42.0,487.0,42.0,498.0,44.0,486.0,,,-10.0,0.0,,25.8,2.0,0.0,,,0.653,0.703,73.9,13.1,,,,,,773.0,2026-01-04 14:43:52-08:00
144.06,2.0,10.0,2026-01-04 22:46:16,37.08161,-121.59958,328.0,0.0,337.8,-12.6,,,,,22:46:15,11.1,0.3,241.2,0.0,305.0,-0.0,0.0,1.0,,5.0,13.0,0.0,29.88,150.0,,,230.0,,,,,0.0,0.0,,,,,,,,,,,,,,,,,,,74.0,13.0,764.0,764.0,13.8,1.4,,1.4,25.7,,,38.1,0.0,0.0,-0.4,0.6,0.2,,,,,46.0,521.0,43.0,488.0,43.0,499.0,45.0,486.0,,,-9.0,0.0,,25.7,2.0,0.0,,,0.653,0.703,73.9,13.1,,,,,,764.0,2026-01-04 14:43:52-08:00
145.06,2.0,10.0,2026-01-04 22:46:17,37.08161,-121.59958,327.0,0.1,337.8,-12.6,,,,,22:46:16,11.1,0.3,241.2,0.0,305.0,-0.0,0.0,1.0,,-12.0,13.0,0.0,29.88,150.0,,,230.0,,,,,0.0,0.0,,,,,,,,,,,,,,,,,,,74.0,13.0,768.0,768.0,13.7,1.4,,1.4,25.8,,,38.1,0.0,0.0,-0.4,0.6,0.2,,,,,46.0,522.0,43.0,489.0,43.0,500.0,45.0,486.0,,,-10.0,0.0,,25.8,2.0,0.0,,,0.654,0.703,73.9,13.1,,,,,,768.0,2026-01-04 14:43:52-08:00
146.06,2.0,10.0,2026-01-04 22:46:18,37.08161,-121.59958,328.0,0.0,337.8,-12.6,,,,,22:46:17,11.0,0.3,241.2,0.0,305.0,-0.0,0.0,1.0,,27.0,13.0,0.0,29.88,150.0,,,230.0,,,,,0.0,0.0,,,,,,,,,,,,,,,,,,,74.0,13.0,766.0,766.0,13.7,1.4,,1.4,25.8,,,38.1,0.0,0.0,-0.4,0.6,0.2,,,,,46.0,522.0,44.0,489.0,43.0,501.0,46.0,487.0,,,-10.0,0.0,,25.8,2.0,0.0,,,0.653,0.703,73.9,13.2,,,,,,766.0,2026-01-04 14:43:52-08:00
147.06,2.0,10.0,2026-01-04 22:46:19,37.08164,-121.59958,320.0,0.0,337.8,-12.6,,,,,22:46:18,11.1,0.2,241.2,0.0,305.0,-0.0,0.0,1.0,,25.0,13.0,0.0,29.88,150.0,,,230.0,,,,,0.0,0.0,,,,,,,,,,,,,,,,,,,74.0,13.0,764.0,764.0,13.6,1.4,,1.4,25.8,,,38.1,0.0,0.0,-0.4,0.6,0.2,,,,,47.0,523.0,44.0,490.0,44.0,502.0,46.0,487.0,,,-10.0,0.0,,25.8,2.0,0.0,,,0.654,0.703,73.9,13.2,,,,,,764.0,2026-01-04 14:43:52-08:00
