Session Time,GPS Fix Quality,Number of Satellites,GPS Date & Time,Latitude (deg),Longitude (deg),GPS Altitude (feet),Ground Speed (knots),Ground Track (deg),Mag Var (deg),Cross Track Error (NM),Destination Waypoint ID,Range to Destination (NM),Bearing to Destination (deg),System Time,Pitch (deg),Roll (deg),Magnetic Heading (deg),Indicated Airspeed (knots),Pressure Altitude (ft),Turn Rate (deg/s),Lateral Accel (g),Vertical Accel(g),Angle of Attack (%),Vertical Speed (ft/min),OAT (deg C),True Airspeed (knots),Barometer Setting (inHg),Density Altitude (ft),Wind Direction (deg),Wind Speed (knots),Heading Bug (deg),Altitude Bug (ft),Airspeed Bug (knots),Vertical Speed Bug (ft/min),Course (deg),CDI Source Type,CDI Source Port,CDI Scale (NM),CDI Deflection (%),Glideslope (%),AP Engaged,AP Roll Mode,AP Roll Force,AP Roll Position (steps),AP Roll Slip (bool),AP Pitch Force,AP Pitch Position (steps),AP Pitch Slip (bool),AP Yaw Force,AP Yaw Position,AP Yaw Slip (bool),Transponder Status,Transponder Reply (bool),Transponder Identing (bool),Transponder Code (octal),Oil Pressure (PSI),Oil Temp (deg C),RPM L,RPM R,Manifold Pressure (inHg),Fuel Flow 1 (gal/hr),Fuel Flow 2 (gal/hr),Total Fuel Flow (gal/hr),Fuel Pressure (PSI),Fuel Level L (gal),Fuel Level R (gal),Fuel Remaining (gal),Volts 1,Volts 2,Amps,Hobbs Time,Tach Time,Thermocouple 1 (deg C),Thermocouple 2 (deg C),Thermocouple 3 (deg C),Thermocouple 4 (deg C),CHT 4 (deg C),EGT 4 (deg C),CHT 3 (deg C),EGT 3 (deg C),CHT 2 (deg C),EGT 2 (deg C),CHT 1 (deg C),EGT 1 (deg C),Thermocouple 13 (deg C),Thermocouple 14 (deg C),ELEV POSITION (%),CO PPM PRESSURE (PSI),GP Input 3,FUEL PRESSURE (PSI),AILERN POSITION (%),CANOPY CONTACT (V),GP Input 7,GP Input 8,LEFT LEVEL (Sensor V),RIGHT LEVEL (Sensor V),OIL PRESSURE (PSI),OIL TEMPERATURE (deg C),GP Input 13,Contacts,Percent Power,EGT Leaning State,Unnamed: 103,OAT (deg F),Oil Temp (deg F),Thermocouple 1 (deg F),Thermocouple 2 (deg F),Thermocouple 3 (deg F),Thermocouple 4 (deg F),CHT 4 (deg F),EGT 4 (deg F),CHT 3 (deg F),EGT 3 (deg F),CHT 2 (deg F),EGT 2 (deg F),CHT 1 (deg F),EGT 1 (deg F),Thermocouple 13 (deg F),Thermocouple 14 (deg F),OIL TEMPERATURE (deg F),RPM,AVG_CHT,CHT_Delta_T,OIL_Delta_T,Fuel Flow Integral,Distance Traveled,MPG,Max CHT,Engine Run,Flight ID
0.06,1,9,2026-05-29 19:28:18,34.9001,-120.45002,325.0,0.1,345.3,-12.1,0.0,,0.0,0.0,0.0,0.0,0.0,0.0,0.0,0.0,0.0,0.0,0.0,0.0,0.0,28.0,0.0,0.0,0.0,0.0,0.0,134.0,0.0,105.0,-500.0,0.0,0.0,0.0,0.0,0.0,0.0,0.0,0.0,0.0,0.0,0.0,0.0,0.0,0.0,0.0,0.0,0.0,0.0,0.0,0.0,0.0,0.0,0.0,0.0,0.0,0.0,0.0,0.0,0.0,0.0,0.0,0.0,9.0,0.0,0.0,0.0,18.3,15.3,0.0,0.0,0.0,0.0,0.0,0.0,0.0,0.0,0.0,0.0,0.0,0.0,0.0,0.0,0.0,0.0,0.0,0.0,0.0,0.0,0.0,0.0,0.0,0.0,0.0,0.0,0.0,0.0,0.0,,0.0,82.4,0.0,0.0,0.0,0.0,0.0,0.0,0.0,0.0,0.0,0.0,0.0,0.0,0.0,0.0,0.0,0.0,0.0,0.0,0.0,0.0,0.0,0.0,0.0,413.6,True,2026-05-29 12:28:18-07:00
1.06,1,9,2026-05-29 19:28:19,34.9001,-120.45003,289.0,0.0,345.3,-12.0,0.0,,0.0,0.0,0.0,11.3,0.3,228.9,0.0,157.0,0.1,0.01,1.0,0.0,-35.0,28.0,0.0,30.04,1709.0,0.0,0.0,134.0,0.0,105.0,-500.0,0.0,0.0,0.0,0.0,0.0,0.0,0.0,0.0,0.0,0.0,0.0,0.0,0.0,0.0,0.0,0.0,0.0,0.0,0.0,0.0,0.0,0.0,0.0,0.0,0.0,0.0,0.0,0.0,0.0,0.0,0.0,0.0,9.0,0.0,0.0,-0.5,18.3,15.3,0.0,0.0,0.0,0.0,41.0,36.0,40.0,37.0,38.0,35.0,35.0,33.0,0.0,0.0,-2.0,254.5,0.0,0.0,0.0,4.998,0.0,0.0,0.653,0.875,0.0,54.8,0.0,0.0,0.0,,0.0,82.4,0.0,0.0,0.0,0.0,0.0,105.8,96.8,104.0,98.6,100.4,95.0,95.0,91.4,0.0,0.0,130.64,0.0,101.3,18.89999999999999,48.23999999999998,0.0,0.08433333333333333,0.0,413.6,True,2026-05-29 12:28:18-07:00
2.06,1,9,2026-05-29 19:28:20,34.90011,-120.45003,289.0,0.0,345.3,-12.0,0.0,,0.0,0.0,0.0,11.3,0.4,228.9,0.0,157.0,0.0,0.01,1.0,0.0,-1.0,28.0,0.0,30.04,1709.0,0.0,0.0,134.0,0.0,105.0,-500.0,0.0,0.0,0.0,0.0,0.0,0.0,0.0,0.0,0.0,0.0,0.0,0.0,0.0,0.0,0.0,0.0,0.0,0.0,0.0,0.0,0.0,0.0,0.0,0.0,0.0,0.0,0.0,0.0,0.0,0.0,0.0,0.0,9.0,0.0,0.0,-0.5,18.3,15.3,0.0,0.0,0.0,0.0,41.0,37.0,40.0,37.0,38.0,35.0,35.0,33.0,0.0,0.0,-2.0,254.5,0.0,0.0,0.0,4.998,0.0,0.0,0.654,0.875,0.0,54.0,0.0,0.0,0.0,,0.0,82.4,0.0,0.0,0.0,0.0,0.0,105.8,98.6,104.0,98.6,100.4,95.0,95.0,91.4,0.0,0.0,129.2,0.0,101.3,18.89999999999999,46.79999999999998,0.0,0.08433333333333333,0.0,413.6,True,2026-05-29 12:28:18-07:00
3.06,1,9,2026-05-29 19:28:21,34.90011,-120.45003,290.0,0.0,345.3,-12.0,0.0,,0.0,0.0,0.0,11.3,0.4,228.9,0.0,157.0,0.0,0.01,1.0,0.0,8.0,28.0,0.0,30.04,1709.0,0.0,0.0,134.0,0.0,105.0,-500.0,0.0,0.0,0.0,0.0,0.0,0.0,0.0,0.0,0.0,0.0,0.0,0.0,0.0,0.0,0.0,0.0,0.0,0.0,0.0,0.0,0.0,0.0,0.0,0.0,0.0,0.0,0.0,0.0,0.0,0.0,0.0,0.0,9.0,0.0,0.0,-0.5,18.3,15.3,0.0,0.0,0.0,0.0,41.0,36.0,40.0,37.0,38.0,35.0,36.0,33.0,0.0,0.0,-2.0,254.5,0.0,0.0,0.0,4.998,0.0,0.0,0.653,0.875,0.0,53.9,0.0,0.0,0.0,,0.0,82.4,0.0,0.0,0.0,0.0,0.0,105.8,96.8,104.0,98.6,100.4,95.0,96.8,91.4,0.0,0.0,129.01999999999998,0.0,101.75,19.349999999999994,46.619999999999976,0.0,0.08433333333333333,0.0,413.6,True,2026-05-29 12:28:18-07:00
4.06,1,9,2026-05-29 19:28:22,34.90011,-120.45003,291.0,0.0,345.3,-12.0,0.0,,0.0,0.0,0.0,11.2,0.4,228.9,0.0,157.0,0.1,0.01,1.0,99.0,2.0,28.0,0.0,30.04,1708.0,0.0,0.0,134.0,0.0,0.0,0.0,0.0,0.0,0.0,0.0,0.0,0.0,0.0,0.0,0.0,0.0,0.0,0.0,0.0,0.0,0.0,0.0,0.0,0.0,0.0,0.0,0.0,0.0,54.0,0.0,0.0,30.1,0.0,0.0,0.0,0.0,0.0,0.0,9.0,0.0,0.0,-0.5,18.3,15.3,0.0,0.0,0.0,0.0,41.0,37.0,40.0,37.0,38.0,35.0,35.0,33.0,0.0,0.0,-2.0,254.5,0.0,0.0,1.0,4.998,0.0,0.0,0.653,0.875,0.0,53.8,0.0,0.0,0.0,,0.0,82.4,129.2,0.0,0.0,0.0,0.0,105.8,98.6,104.0,98.6,100.4,95.0,95.0,91.4,0.0,0.0,128.84,0.0,101.3,18.89999999999999,46.44,0.0,0.08433333333333333,0.0,413.6,True,2026-05-29 12:28:18-07:00
5.06,1,9,2026-05-29 19:28:23,34.90011,-120.45003,293.0,0.0,345.3,-12.0,0.0,,0.0,0.0,0.0,11.2,0.3,228.8,0.0,157.0,0.0,0.01,1.0,99.0,12.0,28.0,0.0,30.04,1708.0,0.0,0.0,134.0,0.0,0.0,0.0,0.0,0.0,0.0,0.0,0.0,0.0,0.0,0.0,0.0,0.0,0.0,0.0,0.0,0.0,0.0,0.0,0.0,0.0,0.0,0.0,0.0,0.0,54.0,0.0,0.0,30.1,0.0,0.0,0.0,0.0,0.0,0.0,9.0,0.0,0.0,-0.5,18.3,15.3,0.0,0.0,0.0,0.0,41.0,37.0,40.0,37.0,38.0,35.0,35.0,33.0,0.0,0.0,-2.0,254.5,0.0,0.0,1.0,4.998,0.0,0.0,0.653,0.874,0.0,53.7,0.0,0.0,0.0,,0.0,82.4,129.2,0.0,0.0,0.0,0.0,105.8,98.6,104.0,98.6,100.4,95.0,95.0,91.4,0.0,0.0,128.66,0.0,101.3,18.89999999999999,46.25999999999999,0.0,0.08433333333333333,0.0,413.6,True,2026-05-29 12:28:18-07:00
6.06,1,9,2026-05-29 19:28:24,34.90011,-120.45003,294.0,0.0,345.3,-12.0,0.0,,0.0,0.0,0.0,11.2,0.3,228.7,0.0,157.0,0.0,0.01,1.0,99.0,1.0,28.0,0.0,30.04,1708.0,0.0,0.0,134.0,0.0,0.0,0.0,0.0,0.0,0.0,0.0,0.0,0.0,0.0,0.0,0.0,0.0,0.0,0.0,0.0,0.0,0.0,0.0,0.0,0.0,0.0,0.0,0.0,0.0,54.0,0.0,0.0,30.1,0.0,0.0,0.0,0.0,0.0,0.0,9.0,0.0,0.0,-0.5,18.3,15.3,0.0,0.0,0.0,0.0,41.0,37.0,40.0,37.0,38.0,35.0,35.0,33.0,0.0,0.0,-2.0,254.5,0.0,0.0,1.0,4.998,0.0,0.0,0.653,0.875,0.0,53.7,0.0,0.0,0.0,,0.0,82.4,129.2,0.0,0.0,0.0,0.0,105.8,98.6,104.0,98.6,100.4,95.0,95.0,91.4,0.0,0.0,128.66,0.0,101.3,18.89999999999999,46.25999999999999,0.0,0.08433333333333333,0.0,413.6,True,2026-05-29 12:28:18-07:00
7.06,1,9,2026-05-29 19:28:25,34.90012,-120.45003,295.0,0.0,345.3,-12.0,0.0,,0.0,0.0,0.0,11.2,0.3,228.7,0.0,157.0,0.0,0.0,1.0,99.0,-21.0,28.0,0.0,30.04,1708.0,0.0,0.0,134.0,0.0,0.0,0.0,0.0,0.0,0.0,0.0,0.0,0.0,0.0,0.0,0.0,0.0,0.0,0.0,0.0,0.0,0.0,0.0,0.0,0.0,0.0,0.0,0.0,0.0,54.0,0.0,0.0,30.1,0.0,0.0,0.0,0.0,0.0,0.0,9.0,0.0,0.0,-0.5,18.3,15.3,0.0,0.0,0.0,0.0,41.0,37.0,40.0,37.0,38.0,35.0,35.0,33.0,0.0,0.0,-2.0,254.5,0.0,0.0,1.0,4.998,0.0,0.0,0.653,0.875,0.0,53.6,0.0,0.0,0.0,,0.0,82.4,129.2,0.0,0.0,0.0,0.0,105.8,98.6,104.0,98.6,100.4,95.0,95.0,91.4,0.0,0.0,128.48000000000002,0.0,101.3,18.89999999999999,46.08000000000001,0.0,0.08433333333333333,0.0,413.6,True,2026-05-29 12:28:18-07:00
8.06,1,9,2026-05-29 19:28:26,34.90012,-120.45003,295.0,0.0,345.3,-12.0,0.0,,0.0,0.0,0.0,11.2,0.3,228.7,0.0,156.0,0.1,0.0,1.0,99.0,-32.0,28.0,0.0,30.04,1708.0,0.0,0.0,134.0,0.0,0.0,0.0,0.0,0.0,0.0,0.0,0.0,0.0,0.0,0.0,0.0,0.0,0.0,0.0,0.0,0.0,0.0,0.0,0.0,0.0,0.0,0.0,0.0,0.0,54.0,0.0,0.0,30.1,0.0,0.0,0.0,0.0,0.0,0.0,9.0,0.0,0.0,-0.5,18.3,15.3,0.0,0.0,0.0,0.0,41.0,37.0,40.0,37.0,38.0,35.0,35.0,33.0,0.0,0.0,-2.0,254.5,0.0,0.0,1.0,4.998,0.0,0.0,0.653,0.876,0.0,53.6,0.0,0.0,0.0,,0.0,82.4,129.2,0.0,0.0,0.0,0.0,105.8,98.6,104.0,98.6,100.4,95.0,95.0,91.4,0.0,0.0,128.48000000000002,0.0,101.3,18.89999999999999,46.08000000000001,0.0,0.08433333333333333,0.0,413.6,True,2026-05-29 12:28:18-07:00
9.06,1,9,2026-05-29 19:28:27,34.90012,-120.45003,296.0,0.0,345.3,-12.0,0.0,,0.0,0.0,0.0,11.3,0.2,228.7,0.0,156.0,0.1,0.01,1.0,99.0,-31.0,28.0,0.0,30.04,1708.0,0.0,0.0,134.0,0.0,0.0,0.0,0.0,0.0,0.0,0.0,0.0,0.0,0.0,0.0,0.0,0.0,0.0,0.0,0.0,0.0,0.0,0.0,0.0,0.0,0.0,0.0,0.0,0.0,54.0,0.0,0.0,30.1,0.0,0.0,0.0,0.0,0.0,0.0,9.0,0.0,0.0,-0.5,18.3,15.3,0.0,0.0,0.0,0.0,41.0,37.0,40.0,37.0,38.0,35.0,35.0,33.0,0.0,0.0,-2.0,254.5,0.0,0.0,1.0,4.998,0.0,0.0,0.653,0.876,0.0,53.6,0.0,0.0,0.0,,0.0,82.4,129.2,0.0,0.0,0.0,0.0,105.8,98.6,104.0,98.6,100.4,95.0,95.0,91.4,0.0,0.0,128.48000000000002,0.0,101.3,18.89999999999999,46.08000000000001,0.0,0.08433333333333333,0.0,413.6,True,2026-05-29 12:28:18-07:00
10.06,1,9,2026-05-29 19:28:28,34.90012,-120.45003,296.0,0.0,345.3,-12.0,0.0,,0.0,0.0,0.0,11.3,0.3,228.8,0.0,155.0,0.1,0.01,1.0,99.0,-39.0,28.0,0.0,30.04,1707.0,0.0,0.0,134.0,0.0,0.0,0.0,0.0,0.0,0.0,0.0,0.0,0.0,0.0,0.0,0.0,0.0,0.0,0.0,0.0,0.0,0.0,0.0,0.0,0.0,0.0,0.0,0.0,0.0,54.0,0.0,0.0,30.1,0.0,0.0,0.0,0.0,0.0,0.0,9.0,0.0,0.0,-0.5,18.3,15.3,0.0,0.0,0.0,0.0,41.0,37.0,40.0,37.0,38.0,35.0,35.0,33.0,0.0,0.0,-2.0,254.5,0.0,0.0,1.0,4.998,0.0,0.0,0.653,0.878,0.0,53.5,0.0,0.0,0.0,,0.0,82.4,129.2,0.0,0.0,0.0,0.0,105.8,98.6,104.0,98.6,100.4,95.0,95.0,91.4,0.0,0.0,128.3,0.0,101.3,18.89999999999999,45.900000000000006,0.0,0.08433333333333333,0.0,413.6,True,2026-05-29 12:28:18-07:00
11.06,1,9,2026-05-29 19:28:29,34.90012,-120.45003,296.0,0.0,345.3,-12.0,0.0,,0.0,0.0,0.0,11.3,0.2,228.8,0.0,153.0,0.0,0.0,1.0,99.0,-42.0,28.0,0.0,30.04,1707.0,0.0,0.0,134.0,0.0,0.0,0.0,0.0,0.0,0.0,0.0,0.0,0.0,0.0,0.0,0.0,0.0,0.0,0.0,0.0,0.0,0.0,0.0,0.0,0.0,0.0,0.0,0.0,0.0,54.0,0.0,0.0,30.1,0.0,0.0,0.0,0.0,0.0,0.0,9.0,0.0,0.0,-0.5,18.3,15.3,0.0,0.0,0.0,0.0,41.0,37.0,40.0,37.0,38.0,35.0,35.0,33.0,0.0,0.0,-2.0,254.4,0.0,0.0,1.0,4.998,0.0,0.0,0.653,0.878,0.0,53.5,0.0,0.0,0.0,,0.0,82.4,129.2,0.0,0.0,0.0,0.0,105.8,98.6,104.0,98.6,100.4,95.0,95.0,91.4,0.0,0.0,128.3,0.0,101.3,18.89999999999999,45.900000000000006,0.0,0.08433333333333333,0.0,413.6,True,2026-05-29 12:28:18-07:00
12.06,1,9,2026-05-29 19:28:30,34.90012,-120.45003,296.0,0.0,345.3,-12.0,0.0,,0.0,0.0,0.0,11.3,0.2,228.8,0.0,153.0,0.0,0.0,1.0,99.0,-54.0,28.0,0.0,30.04,1707.0,0.0,0.0,134.0,0.0,0.0,0.0,0.0,0.0,0.0,0.0,0.0,0.0,0.0,0.0,0.0,0.0,0.0,0.0,0.0,0.0,0.0,0.0,0.0,0.0,0.0,0.0,0.0,0.0,54.0,0.0,0.0,30.1,0.0,0.0,0.0,0.0,0.0,0.0,9.0,0.0,0.0,-0.5,18.3,15.3,0.0,0.0,0.0,0.0,41.0,37.0,40.0,37.0,38.0,35.0,35.0,33.0,0.0,0.0,-2.0,254.4,0.0,0.0,1.0,4.998,0.0,0.0,0.653,0.878,0.0,53.5,0.0,0.0,0.0,,0.0,82.4,129.2,0.0,0.0,0.0,0.0,105.8,98.6,104.0,98.6,100.4,95.0,95.0,91.4,0.0,0.0,128.3,0.0,101.3,18.89999999999999,45.900000000000006,0.0,0.08433333333333333,0.0,413.6,True,2026-05-29 12:28:18-07:00
13.06,1,9,2026-05-29 19:28:31,34.90013,-120.45003,296.0,0.0,345.3,-12.0,0.0,,0.0,0.0,0.0,11.3,0.2,228.8,0.0,152.0,0.0,0.0,1.0,99.0,-55.0,28.0,0.0,30.04,1703.0,0.0,0.0,134.0,0.0,0.0,0.0,0.0,0.0,0.0,0.0,0.0,0.0,0.0,0.0,0.0,0.0,0.0,0.0,0.0,0.0,0.0,0.0,0.0,0.0,0.0,0.0,0.0,0.0,53.0,0.0,0.0,30.1,0.0,0.0,0.0,0.0,0.0,0.0,9.0,0.0,0.0,-0.5,18.3,15.3,0.0,0.0,0.0,0.0,41.0,37.0,40.0,37.0,38.0,35.0,35.0,33.0,0.0,0.0,-2.0,254.4,0.0,0.0,1.0,4.998,0.0,0.0,0.653,0.878,0.0,53.5,0.0,0.0,0.0,,0.0,82.4,127.4,0.0,0.0,0.0,0.0,105.8,98.6,104.0,98.6,100.4,95.0,95.0,91.4,0.0,0.0,128.3,0.0,101.3,18.89999999999999,45.900000000000006,0.0,0.08433333333333333,0.0,413.6,True,2026-05-29 12:28:18-07:00
14.06,1,9,2026-05-29 19:28:32,34.90013,-120.45003,296.0,0.0,345.3,-12.0,0.0,,0.0,0.0,0.0,11.3,0.2,228.8,0.0,151.0,0.0,0.0,1.0,99.0,-55.0,28.0,0.0,30.04,1703.0,0.0,0.0,134.0,0.0,0.0,0.0,0.0,0.0,0.0,0.0,0.0,0.0,0.0,0.0,0.0,0.0,0.0,0.0,0.0,0.0,0.0,0.0,0.0,0.0,0.0,0.0,0.0,0.0,53.0,0.0,0.0,30.1,0.0,0.0,0.0,0.0,0.0,0.0,9.0,0.0,0.0,-0.5,18.3,15.3,0.0,0.0,0.0,0.0,41.0,37.0,40.0,37.0,38.0,35.0,35.0,33.0,0.0,0.0,-2.0,254.4,0.0,0.0,1.0,4.998,0.0,0.0,0.653,0.878,0.0,53.5,0.0,0.0,0.0,,0.0,82.4,127.4,0.0,0.0,0.0,0.0,105.8,98.6,104.0,98.6,100.4,95.0,95.0,91.4,0.0,0.0,128.3,0.0,101.3,18.89999999999999,45.900000000000006,0.0,0.08433333333333333,0.0,413.6,True,2026-05-29 12:28:18-07:00
15.06,1,9,2026-05-29 19:28:33,34.90014,-120.45004,296.0,0.0,345.3,-12.0,0.0,,0.0,0.0,0.0,11.3,0.1,228.8,0.0,148.0,0.0,0.0,1.0,99.0,-86.0,28.0,0.0,30.04,1703.0,0.0,0.0,134.0,0.0,0.0,0.0,0.0,0.0,0.0,0.0,0.0,0.0,0.0,0.0,0.0,0.0,0.0,0.0,0.0,0.0,0.0,0.0,0.0,0.0,0.0,0.0,0.0,0.0,53.0,0.0,0.0,30.1,0.0,0.0,0.0,0.0,0.0,0.0,9.0,0.0,0.0,-0.5,18.3,15.3,0.0,0.0,0.0,0.0,41.0,37.0,40.0,37.0,38.0,35.0,35.0,33.0,0.0,0.0,-2.0,254.4,0.0,0.0,1.0,4.998,0.0,0.0,0.653,0.879,0.0,53.4,0.0,0.0,0.0,,0.0,82.4,127.4,0.0,0.0,0.0,0.0,105.8,98.6,104.0,98.6,100.4,95.0,95.0,91.4,0.0,0.0,128.12,0.0,101.3,18.89999999999999,45.72,0.0,0.08433333333333333,0.0,413.6,True,2026-05-29 12:28:18-07:00
16.06,1,10,2026-05-29 19:28:34,34.90013,-120.45004,296.0,0.1,345.3,-12.0,0.0,,0.0,0.0,0.0,11.3,0.2,228.8,0.0,148.0,0.0,0.0,1.0,99.0,-61.0,28.0,0.0,30.04,1698.0,0.0,0.0,134.0,0.0,0.0,0.0,0.0,0.0,0.0,0.0,0.0,0.0,0.0,0.0,0.0,0.0,0.0,0.0,0.0,0.0,0.0,0.0,0.0,0.0,0.0,0.0,0.0,0.0,53.0,0.0,0.0,30.1,0.0,0.0,0.0,0.0,0.0,0.0,9.0,0.0,0.0,-0.5,18.3,15.3,0.0,0.0,0.0,0.0,41.0,37.0,40.0,37.0,38.0,35.0,35.0,33.0,0.0,0.0,-2.0,254.4,0.0,0.0,1.0,4.998,0.0,0.0,0.654,0.879,0.0,53.4,0.0,0.0,0.0,,0.0,82.4,127.4,0.0,0.0,0.0,0.0,105.8,98.6,104.0,98.6,100.4,95.0,95.0,91.4,0.0,0.0,128.12,0.0,101.3,18.89999999999999,45.72,0.0,0.16866666666666652,0.0,413.6,True,2026-05-29 12:28:18-07:00
17.06,1,10,2026-05-29 19:28:35,34.90013,-120.45004,295.0,0.0,345.3,-12.0,0.0,,0.0,0.0,0.0,11.3,0.2,228.8,0.0,146.0,0.0,0.0,1.0,99.0,-82.0,28.0,0.0,30.04,1698.0,0.0,0.0,134.0,0.0,0.0,0.0,0.0,0.0,0.0,0.0,0.0,0.0,0.0,0.0,0.0,0.0,0.0,0.0,0.0,0.0,0.0,0.0,0.0,0.0,0.0,0.0,0.0,0.0,53.0,0.0,0.0,30.1,0.0,0.0,0.0,0.0,0.0,0.0,9.0,0.0,0.0,-0.5,18.3,15.3,0.0,0.0,0.0,0.0,41.0,37.0,40.0,37.0,38.0,35.0,35.0,33.0,0.0,0.0,-2.0,254.4,0.0,0.0,1.0,4.998,0.0,0.0,0.654,0.879,0.0,53.4,0.0,0.0,0.0,,0.0,82.4,127.4,0.0,0.0,0.0,0.0,105.8,98.6,104.0,98.6,100.4,95.0,95.0,91.4,0.0,0.0,128.12,0.0,101.3,18.89999999999999,45.72,0.0,0.25299999999999984,0.0,413.6,True,2026-05-29 12:28:18-07:00
18.06,1,10,2026-05-29 19:28:36,34.90013,-120.45004,294.0,0.0,345.3,-12.0,0.0,,0.0,0.0,0.0,11.3,0.2,228.8,0.0,145.0,0.0,0.01,1.0,99.0,-78.0,28.0,0.0,30.04,1698.0,0.0,0.0,134.0,0.0,0.0,0.0,0.0,0.0,0.0,0.0,0.0,0.0,0.0,0.0,0.0,0.0,0.0,0.0,0.0,0.0,0.0,0.0,0.0,0.0,0.0,0.0,0.0,0.0,53.0,0.0,0.0,30.1,0.0,0.0,0.0,0.0,0.0,0.0,9.0,0.0,0.0,-0.5,18.3,15.3,0.0,0.0,0.0,0.0,41.0,37.0,40.0,37.0,38.0,35.0,35.0,33.0,0.0,0.0,-2.0,254.4,0.0,0.0,1.0,4.998,0.0,0.0,0.654,0.879,0.0,53.4,0.0,0.0,0.0,,0.0,82.4,127.4,0.0,0.0,0.0,0.0,105.8,98.6,104.0,98.6,100.4,95.0,95.0,91.4,0.0,0.0,128.12,0.0,101.3,18.89999999999999,45.72,0.0,0.25299999999999984,0.0,413.6,True,2026-05-29 12:28:18-07:00
19.06,1,10,2026-05-29 19:28:37,34.90013,-120.45004,293.0,0.0,345.3,-12.0,0.0,,0.0,0.0,0.0,11.3,0.2,228.8,0.0,143.0,0.0,0.01,1.0,99.0,-114.0,28.0,0.0,30.04,1690.0,0.0,0.0,134.0,0.0,0.0,0.0,0.0,0.0,0.0,0.0,0.0,0.0,0.0,0.0,0.0,0.0,0.0,0.0,0.0,0.0,0.0,0.0,0.0,0.0,0.0,0.0,0.0,0.0,53.0,0.0,0.0,30.1,0.0,0.0,0.0,0.0,0.0,0.0,9.0,0.0,0.0,-0.5,18.3,15.3,0.0,0.0,0.0,0.0,41.0,37.0,40.0,37.0,38.0,35.0,35.0,33.0,0.0,0.0,-2.0,254.4,0.0,0.0,1.0,4.998,0.0,0.0,0.654,0.876,0.0,53.4,0.0,0.0,0.0,,0.0,82.4,127.4,0.0,0.0,0.0,0.0,105.8,98.6,104.0,98.6,100.4,95.0,95.0,91.4,0.0,0.0,128.12,0.0,101.3,18.89999999999999,45.72,0.0,0.25299999999999984,0.0,413.6,True,2026-05-29 12:28:18-07:00
20.06,1,10,2026-05-29 19:28:38,34.90013,-120.45004,293.0,0.0,345.3,-12.0,0.0,,0.0,0.0,0.0,11.3,0.2,228.8,0.0,141.0,0.0,0.0,1.0,99.0,-90.0,28.0,0.0,30.04,1690.0,0.0,0.0,134.0,0.0,0.0,0.0,0.0,0.0,0.0,0.0,0.0,0.0,0.0,0.0,0.0,0.0,0.0,0.0,0.0,0.0,0.0,0.0,0.0,0.0,0.0,0.0,0.0,0.0,53.0,0.0,0.0,30.1,0.0,0.0,0.0,0.0,0.0,0.0,9.0,0.0,0.0,-0.5,18.3,15.3,0.0,0.0,0.0,0.0,41.0,37.0,40.0,37.0,38.0,35.0,35.0,33.0,0.0,0.0,-2.0,254.4,0.0,0.0,1.0,4.998,0.0,0.0,0.653,0.874,0.0,53.4,0.0,0.0,0.0,,0.0,82.4,127.4,0.0,0.0,0.0,0.0,105.8,98.6,104.0,98.6,100.4,95.0,95.0,91.4,0.0,0.0,128.12,0.0,101.3,18.89999999999999,45.72,0.0,0.25299999999999984,0.0,413.6,True,2026-05-29 12:28:18-07:00
21.06,1,10,2026-05-29 19:28:39,34.90013,-120.45004,292.0,0.0,345.3,-12.0,0.0,,0.0,0.0,0.0,11.3,0.2,228.8,0.0,139.0,0.0,0.0,1.0,99.0,-109.0,28.0,0.0,30.04,1690.0,0.0,0.0,134.0,0.0,0.0,0.0,0.0,0.0,0.0,0.0,0.0,0.0,0.0,0.0,0.0,0.0,0.0,0.0,0.0,0.0,0.0,0.0,0.0,0.0,0.0,0.0,0.0,0.0,53.0,0.0,0.0,30.1,0.0,0.0,0.0,0.0,0.0,0.0,9.0,0.0,0.0,-0.5,18.3,15.3,0.0,0.0,0.0,0.0,41.0,37.0,40.0,37.0,38.0,35.0,35.0,33.0,0.0,0.0,-2.0,254.4,0.0,0.0,1.0,4.998,0.0,0.0,0.653,0.874,0.0,53.4,0.0,0.0,0.0,,0.0,82.4,127.4,0.0,0.0,0.0,0.0,105.8,98.6,104.0,98.6,100.4,95.0,95.0,91.4,0.0,0.0,128.12,0.0,101.3,18.89999999999999,45.72,0.0,0.25299999999999984,0.0,413.6,True,2026-05-29 12:28:18-07:00
22.06,1,10,2026-05-29 19:28:40,34.90014,-120.45004,292.0,0.0,345.3,-12.0,0.0,,0.0,0.0,0.0,11.3,0.3,228.8,0.0,138.0,0.0,0.0,1.0,99.0,-90.0,28.0,0.0,30.04,1684.0,0.0,0.0,134.0,0.0,0.0,0.0,0.0,0.0,0.0,0.0,0.0,0.0,0.0,0.0,0.0,0.0,0.0,0.0,0.0,0.0,0.0,0.0,0.0,0.0,0.0,0.0,0.0,0.0,53.0,0.0,0.0,30.1,0.0,0.0,0.0,0.0,0.0,0.0,9.0,0.0,0.0,-0.5,18.3,15.3,0.0,0.0,0.0,0.0,41.0,37.0,40.0,37.0,38.0,35.0,35.0,33.0,0.0,0.0,-2.0,254.4,0.0,0.0,1.0,4.998,0.0,0.0,0.654,0.875,0.0,53.4,0.0,0.0,0.0,,0.0,82.4,127.4,0.0,0.0,0.0,0.0,105.8,98.6,104.0,98.6,100.4,95.0,95.0,91.4,0.0,0.0,128.12,0.0,101.3,18.89999999999999,45.72,0.0,0.25299999999999984,0.0,413.6,True,2026-05-29 12:28:18-07:00
23.06,1,10,2026-05-29 19:28:41,34.90014,-120.45004,291.0,0.0,345.3,-12.0,0.0,,0.0,0.0,0.0,11.3,0.3,228.8,0.0,138.0,0.0,0.0,1.0,99.0,-71.0,28.0,0.0,30.04,1684.0,0.0,0.0,134.0,0.0,0.0,0.0,0.0,0.0,0.0,0.0,0.0,0.0,0.0,0.0,0.0,0.0,0.0,0.0,0.0,0.0,0.0,0.0,0.0,0.0,0.0,0.0,0.0,0.0,53.0,0.0,0.0,30.1,0.0,0.0,0.0,0.0,0.0,0.0,9.0,0.0,0.0,-0.5,18.3,15.3,0.0,0.0,0.0,0.0,41.0,37.0,40.0,37.0,38.0,35.0,35.0,33.0,0.0,0.0,-2.0,254.4,0.0,0.0,1.0,4.998,0.0,0.0,0.653,0.875,0.0,53.4,0.0,0.0,0.0,,0.0,82.4,127.4,0.0,0.0,0.0,0.0,105.8,98.6,104.0,98.6,100.4,95.0,95.0,91.4,0.0,0.0,128.12,0.0,101.3,18.89999999999999,45.72,0.0,0.25299999999999984,0.0,413.6,True,2026-05-29 12:28:18-07:00
24.06,1,10,2026-05-29 19:28:42,34.90014,-120.45004,291.0,0.0,345.3,-12.0,0.0,,0.0,0.0,0.0,11.3,0.2,228.8,0.0,135.0,0.0,0.0,1.0,99.0,-89.0,28.0,0.0,30.04,1684.0,0.0,0.0,134.0,0.0,0.0,0.0,0.0,0.0,0.0,0.0,0.0,0.0,0.0,0.0,0.0,0.0,0.0,0.0,0.0,0.0,0.0,0.0,0.0,0.0,0.0,0.0,0.0,0.0,53.0,0.0,0.0,30.1,0.0,0.0,0.0,0.0,0.0,0.0,9.0,0.0,0.0,-0.5,18.3,15.3,0.0,0.0,0.0,0.0,41.0,37.0,40.0,37.0,38.0,35.0,35.0,33.0,0.0,0.0,-2.0,254.4,0.0,0.0,1.0,4.998,0.0,0.0,0.653,0.875,0.0,53.3,0.0,0.0,0.0,,0.0,82.4,127.4,0.0,0.0,0.0,0.0,105.8,98.6,104.0,98.6,100.4,95.0,95.0,91.4,0.0,0.0,127.94,0.0,101.3,18.89999999999999,45.53999999999999,0.0,0.25299999999999984,0.0,413.6,True,2026-05-29 12:28:18-07:00
25.06,1,10,2026-05-29 19:28:43,34.90014,-120.45004,291.0,0.0,345.3,-12.0,0.0,,0.0,0.0,0.0,11.3,0.3,228.8,0.0,134.0,0.0,0.0,1.0,99.0,-88.0,28.0,0.0,30.04,1679.0,0.0,0.0,134.0,0.0,0.0,0.0,0.0,0.0,0.0,0.0,0.0,0.0,0.0,0.0,0.0,0.0,0.0,0.0,0.0,0.0,0.0,0.0,0.0,0.0,0.0,0.0,0.0,0.0,53.0,0.0,0.0,30.1,0.0,0.0,0.0,0.0,0.0,0.0,9.0,0.0,0.0,-0.5,18.3,15.3,0.0,0.0,0.0,0.0,41.0,37.0,40.0,37.0,38.0,35.0,35.0,33.0,0.0,0.0,-2.0,254.4,0.0,0.0,1.0,4.998,0.0,0.0,0.653,0.876,0.0,53.3,0.0,0.0,0.0,,0.0,82.4,127.4,0.0,0.0,0.0,0.0,105.8,98.6,104.0,98.6,100.4,95.0,95.0,91.4,0.0,0.0,127.94,0.0,101.3,18.89999999999999,45.53999999999999,0.0,0.25299999999999984,0.0,413.6,True,2026-05-29 12:28:18-07:00
26.06,1,10,2026-05-29 19:28:44,34.90014,-120.45004,291.0,0.0,345.3,-12.0,0.0,,0.0,0.0,0.0,11.3,0.3,228.8,0.0,132.0,0.0,0.0,1.0,99.0,-90.0,28.0,0.0,30.04,1679.0,0.0,0.0,134.0,0.0,0.0,0.0,0.0,0.0,0.0,0.0,0.0,0.0,0.0,0.0,0.0,0.0,0.0,0.0,0.0,0.0,0.0,0.0,0.0,0.0,0.0,0.0,0.0,0.0,53.0,0.0,0.0,30.1,0.0,0.0,0.0,0.0,0.0,0.0,9.0,0.0,0.0,-0.5,18.3,15.3,0.0,0.0,0.0,0.0,41.0,37.0,40.0,37.0,38.0,35.0,35.0,33.0,0.0,0.0,-2.0,254.4,0.0,0.0,1.0,4.998,0.0,0.0,0.653,0.876,0.0,53.3,0.0,0.0,0.0,,0.0,82.4,127.4,0.0,0.0,0.0,0.0,105.8,98.6,104.0,98.6,100.4,95.0,95.0,91.4,0.0,0.0,127.94,0.0,101.3,18.89999999999999,45.53999999999999,0.0,0.25299999999999984,0.0,413.6,True,2026-05-29 12:28:18-07:00
27.06,1,10,2026-05-29 19:28:45,34.90014,-120.45004,291.0,0.0,345.3,-12.0,0.0,,0.0,0.0,0.0,11.3,0.3,228.8,0.0,131.0,0.0,0.0,1.0,99.0,-70.0,28.0,0.0,30.04,1679.0,0.0,0.0,134.0,0.0,0.0,0.0,0.0,0.0,0.0,0.0,0.0,0.0,0.0,0.0,0.0,0.0,0.0,0.0,0.0,0.0,0.0,0.0,0.0,0.0,0.0,0.0,0.0,0.0,53.0,0.0,0.0,30.1,0.0,0.0,0.0,0.0,0.0,0.0,9.0,0.0,0.0,-0.5,18.3,15.3,0.0,0.0,0.0,0.0,41.0,37.0,40.0,37.0,38.0,35.0,35.0,33.0,0.0,0.0,-2.0,254.4,0.0,0.0,1.0,4.998,0.0,0.0,0.654,0.876,0.0,53.3,0.0,0.0,0.0,,0.0,82.4,127.4,0.0,0.0,0.0,0.0,105.8,98.6,104.0,98.6,100.4,95.0,95.0,91.4,0.0,0.0,127.94,0.0,101.3,18.89999999999999,45.53999999999999,0.0,0.25299999999999984,0.0,413.6,True,2026-05-29 12:28:18-07:00
28.06,1,10,2026-05-29 19:28:46,34.90014,-120.45004,291.0,0.0,345.3,-12.0,0.0,,0.0,0.0,0.0,11.3,0.3,228.7,0.0,130.0,0.0,0.0,1.0,99.0,-98.0,28.0,0.0,30.04,1674.0,0.0,0.0,134.0,0.0,0.0,0.0,0.0,0.0,0.0,0.0,0.0,0.0,0.0,0.0,0.0,0.0,0.0,0.0,0.0,0.0,0.0,0.0,0.0,0.0,0.0,0.0,0.0,0.0,53.0,0.0,0.0,30.1,0.0,0.0,0.0,0.0,0.0,0.0,9.0,0.0,0.0,-0.5,18.3,15.3,0.0,0.0,0.0,0.0,41.0,37.0,40.0,37.0,38.0,35.0,35.0,33.0,0.0,0.0,-2.0,254.4,0.0,0.0,1.0,4.998,0.0,0.0,0.654,0.876,0.0,53.3,0.0,0.0,0.0,,0.0,82.4,127.4,0.0,0.0,0.0,0.0,105.8,98.6,104.0,98.6,100.4,95.0,95.0,91.4,0.0,0.0,127.94,0.0,101.3,18.89999999999999,45.53999999999999,0.0,0.25299999999999984,0.0,413.6,True,2026-05-29 12:28:18-07:00
29.06,1,10,2026-05-29 19:28:47,34.90014,-120.45004,290.0,0.0,345.3,-12.0,0.0,,0.0,0.0,0.0,11.3,0.3,228.7,0.0,129.0,-0.0,0.01,1.0,99.0,-81.0,28.0,0.0,30.04,1674.0,0.0,0.0,134.0,0.0,0.0,0.0,0.0,0.0,0.0,0.0,0.0,0.0,0.0,0.0,0.0,0.0,0.0,0.0,0.0,0.0,0.0,0.0,0.0,0.0,0.0,0.0,0.0,0.0,53.0,0.0,0.0,30.1,0.0,0.0,0.0,0.0,0.0,0.0,9.0,0.0,0.0,-0.5,18.3,15.3,0.0,0.0,0.0,0.0,41.0,37.0,40.0,37.0,38.0,35.0,35.0,33.0,0.0,0.0,-2.0,254.4,0.0,0.0,1.0,4.998,0.0,0.0,0.653,0.876,0.0,53.3,0.0,0.0,0.0,,0.0,82.4,127.4,0.0,0.0,0.0,0.0,105.8,98.6,104.0,98.6,100.4,95.0,95.0,91.4,0.0,0.0,127.94,0.0,101.3,18.89999999999999,45.53999999999999,0.0,0.25299999999999984,0.0,413.6,True,2026-05-29 12:28:18-07:00
30.06,1,10,2026-05-29 19:28:48,34.90014,-120.45004,290.0,0.0,345.3,-12.0,0.0,,0.0,0.0,0.0,11.3,0.2,228.8,0.0,129.0,0.0,0.0,1.0,99.0,-44.0,28.0,0.0,30.04,1674.0,0.0,0.0,134.0,0.0,0.0,0.0,0.0,0.0,0.0,0.0,0.0,0.0,0.0,0.0,0.0,0.0,0.0,0.0,0.0,0.0,0.0,0.0,0.0,0.0,0.0,0.0,0.0,0.0,53.0,0.0,0.0,30.1,0.0,0.0,0.0,0.0,0.0,0.0,9.0,0.0,0.0,-0.5,18.3,15.3,0.0,0.0,0.0,0.0,41.0,37.0,40.0,37.0,38.0,35.0,35.0,33.0,0.0,0.0,-2.0,254.4,0.0,0.0,1.0,4.998,0.0,0.0,0.653,0.876,0.0,53.3,0.0,0.0,0.0,,0.0,82.4,127.4,0.0,0.0,0.0,0.0,105.8,98.6,104.0,98.6,100.4,95.0,95.0,91.4,0.0,0.0,127.94,0.0,101.3,18.89999999999999,45.53999999999999,0.0,0.25299999999999984,0.0,413.6,True,2026-05-29 12:28:18-07:00
31.06,1,10,2026-05-29 19:28:49,34.90014,-120.45004,290.0,0.0,345.3,-12.0,0.0,,0.0,0.0,0.0,11.3,0.2,228.8,0.0,129.0,0.1,0.0,1.0,99.0,-27.0,28.0,0.0,30.04,1673.0,0.0,0.0,134.0,0.0,0.0,0.0,0.0,0.0,0.0,0.0,0.0,0.0,0.0,0.0,0.0,0.0,0.0,0.0,0.0,0.0,0.0,0.0,0.0,0.0,0.0,0.0,0.0,0.0,53.0,0.0,0.0,30.1,0.0,0.0,0.0,0.0,0.0,0.0,9.0,0.0,0.0,-0.5,18.3,15.3,0.0,0.0,0.0,0.0,41.0,37.0,40.0,37.0,38.0,35.0,35.0,33.0,0.0,0.0,-2.0,254.4,0.0,0.0,1.0,4.998,0.0,0.0,0.653,0.876,0.0,53.3,0.0,0.0,0.0,,0.0,82.4,127.4,0.0,0.0,0.0,0.0,105.8,98.6,104.0,98.6,100.4,95.0,95.0,91.4,0.0,0.0,127.94,0.0,101.3,18.89999999999999,45.53999999999999,0.0,0.25299999999999984,0.0,413.6,True,2026-05-29 12:28:18-07:00
32.06,1,10,2026-05-29 19:28:50,34.90014,-120.45004,290.0,0.0,345.3,-12.0,0.0,,0.0,0.0,0.0,11.3,0.2,228.9,0.0,129.0,0.1,0.0,1.0,99.0,-15.0,28.0,0.0,30.04,1673.0,0.0,0.0,134.0,0.0,0.0,0.0,0.0,0.0,0.0,0.0,0.0,0.0,0.0,0.0,0.0,0.0,0.0,0.0,0.0,0.0,0.0,0.0,0.0,0.0,0.0,0.0,0.0,0.0,53.0,0.0,0.0,30.1,0.0,0.0,0.0,0.0,0.0,0.0,9.0,0.0,0.0,-0.4,18.3,15.3,0.0,0.0,0.0,0.0,41.0,37.0,40.0,37.0,38.0,35.0,35.0,33.0,0.0,0.0,-2.0,254.4,0.0,0.0,1.0,4.998,0.0,0.0,0.654,0.878,0.0,53.3,0.0,0.0,0.0,,0.0,82.4,127.4,0.0,0.0,0.0,0.0,105.8,98.6,104.0,98.6,100.4,95.0,95.0,91.4,0.0,0.0,127.94,0.0,101.3,18.89999999999999,45.53999999999999,0.0,0.25299999999999984,0.0,413.6,True,2026-05-29 12:28:18-07:00
33.06,1,10,2026-05-29 19:28:51,34.90014,-120.45004,290.0,0.1,345.3,-12.0,0.0,,0.0,0.0,0.0,11.3,0.2,228.9,0.0,128.0,0.0,0.0,1.0,99.0,-25.0,28.0,0.0,30.04,1673.0,0.0,0.0,134.0,0.0,0.0,0.0,0.0,0.0,0.0,0.0,0.0,0.0,0.0,0.0,0.0,0.0,0.0,0.0,0.0,0.0,0.0,0.0,0.0,0.0,0.0,0.0,0.0,0.0,53.0,0.0,0.0,30.1,0.0,0.0,0.0,0.0,0.0,0.0,9.0,0.0,0.0,-0.4,18.3,15.3,0.0,0.0,0.0,0.0,41.0,37.0,40.0,37.0,38.0,35.0,35.0,33.0,0.0,0.0,-2.0,254.4,0.0,0.0,1.0,4.998,0.0,0.0,0.653,0.878,0.0,53.3,0.0,0.0,0.0,,0.0,82.4,127.4,0.0,0.0,0.0,0.0,105.8,98.6,104.0,98.6,100.4,95.0,95.0,91.4,0.0,0.0,127.94,0.0,101.3,18.89999999999999,45.53999999999999,0.0,0.33733333333333315,0.0,413.6,True,2026-05-29 12:28:18-07:00
34.06,1,10,2026-05-29 19:28:52,34.90014,-120.45004,290.0,0.0,345.3,-12.0,0.0,,0.0,0.0,0.0,11.3,0.2,229.0,0.0,128.0,0.1,0.0,1.0,99.0,-11.0,28.0,0.0,30.04,1672.0,0.0,0.0,134.0,0.0,0.0,0.0,0.0,0.0,0.0,0.0,0.0,0.0,0.0,0.0,0.0,0.0,0.0,0.0,0.0,0.0,0.0,0.0,0.0,0.0,0.0,0.0,0.0,0.0,53.0,0.0,0.0,30.1,0.0,0.0,0.0,0.0,0.0,0.0,9.0,0.0,0.0,-0.5,18.3,15.3,0.0,0.0,0.0,0.0,41.0,37.0,40.0,37.0,38.0,35.0,35.0,33.0,0.0,0.0,-2.0,254.4,0.0,0.0,1.0,4.998,0.0,0.0,0.653,0.878,0.0,53.3,0.0,0.0,0.0,,0.0,82.4,127.4,0.0,0.0,0.0,0.0,105.8,98.6,104.0,98.6,100.4,95.0,95.0,91.4,0.0,0.0,127.94,0.0,101.3,18.89999999999999,45.53999999999999,0.0,0.4216666666666665,0.0,413.6,True,2026-05-29 12:28:18-07:00
35.06,1,10,2026-05-29 19:28:53,34.90014,-120.45004,290.0,0.1,345.3,-12.0,0.0,,0.0,0.0,0.0,11.4,0.2,229.0,0.0,126.0,0.1,-0.0,1.0,99.0,-45.0,28.0,0.0,30.04,1672.0,0.0,0.0,134.0,0.0,0.0,0.0,0.0,0.0,0.0,0.0,0.0,0.0,0.0,0.0,0.0,0.0,0.0,0.0,0.0,0.0,0.0,0.0,0.0,0.0,0.0,0.0,0.0,0.0,53.0,0.0,0.0,30.1,0.0,0.0,0.0,0.0,0.0,0.0,9.0,0.0,0.0,-0.5,18.3,15.3,0.0,0.0,0.0,0.0,41.0,37.0,40.0,37.0,38.0,35.0,35.0,33.0,0.0,0.0,-2.0,254.4,0.0,0.0,1.0,4.998,0.0,0.0,0.653,0.878,0.0,53.3,0.0,0.0,0.0,,0.0,82.4,127.4,0.0,0.0,0.0,0.0,105.8,98.6,104.0,98.6,100.4,95.0,95.0,91.4,0.0,0.0,127.94,0.0,101.3,18.89999999999999,45.53999999999999,0.0,0.5059999999999998,0.0,413.6,True,2026-05-29 12:28:18-07:00
36.06,1,10,2026-05-29 19:28:54,34.90014,-120.45004,289.0,0.1,345.3,-12.0,0.0,,0.0,0.0,0.0,11.4,0.2,228.9,0.0,125.0,0.0,0.0,1.0,99.0,-32.0,28.0,0.0,30.04,1672.0,0.0,0.0,134.0,0.0,0.0,0.0,0.0,0.0,0.0,0.0,0.0,0.0,0.0,0.0,0.0,0.0,0.0,0.0,0.0,0.0,0.0,0.0,0.0,0.0,0.0,0.0,0.0,0.0,53.0,0.0,0.0,30.1,0.0,0.0,0.0,0.0,0.0,0.0,9.0,0.0,0.0,-0.4,18.3,15.3,0.0,0.0,0.0,0.0,41.0,37.0,40.0,37.0,38.0,35.0,35.0,33.0,0.0,0.0,-2.0,254.4,0.0,0.0,1.0,4.998,0.0,0.0,0.653,0.878,0.0,53.3,0.0,0.0,0.0,,0.0,82.4,127.4,0.0,0.0,0.0,0.0,105.8,98.6,104.0,98.6,100.4,95.0,95.0,91.4,0.0,0.0,127.94,0.0,101.3,18.89999999999999,45.53999999999999,0.0,0.6746666666666665,0.0,413.6,True,2026-05-29 12:28:18-07:00
37.06,1,10,2026-05-29 19:28:55,34.90014,-120.45004,290.0,0.0,345.3,-12.0,0.0,,0.0,0.0,0.0,11.4,0.2,228.9,0.0,125.0,-0.0,0.01,1.0,99.0,-17.0,28.0,0.0,30.04,1669.0,0.0,0.0,134.0,0.0,0.0,0.0,0.0,0.0,0.0,0.0,0.0,0.0,0.0,0.0,0.0,0.0,0.0,0.0,0.0,0.0,0.0,0.0,0.0,0.0,0.0,0.0,0.0,0.0,53.0,0.0,0.0,30.1,0.0,0.0,0.0,0.0,0.0,0.0,9.0,0.0,0.0,-0.4,18.3,15.3,0.0,0.0,0.0,0.0,41.0,37.0,40.0,37.0,38.0,35.0,35.0,33.0,0.0,0.0,-2.0,254.4,0.0,0.0,1.0,4.998,0.0,0.0,0.653,0.878,0.0,53.2,0.0,0.0,0.0,,0.0,82.4,127.4,0.0,0.0,0.0,0.0,105.8,98.6,104.0,98.6,100.4,95.0,95.0,91.4,0.0,0.0,127.76,0.0,101.3,18.89999999999999,45.36,0.0,0.7589999999999998,0.0,413.6,True,2026-05-29 12:28:18-07:00
38.06,1,10,2026-05-29 19:28:56,34.90014,-120.45004,290.0,0.1,345.3,-12.0,0.0,,0.0,0.0,0.0,11.4,0.2,228.8,0.0,125.0,0.0,0.0,1.0,99.0,28.0,28.0,0.0,30.04,1669.0,0.0,0.0,134.0,0.0,0.0,0.0,0.0,0.0,0.0,0.0,0.0,0.0,0.0,0.0,0.0,0.0,0.0,0.0,0.0,0.0,0.0,0.0,0.0,0.0,0.0,0.0,0.0,0.0,53.0,0.0,0.0,30.1,0.0,0.0,0.0,0.0,0.0,0.0,9.0,0.0,0.0,-0.4,18.3,15.3,0.0,0.0,0.0,0.0,41.0,37.0,40.0,37.0,38.0,35.0,35.0,33.0,0.0,0.0,-2.0,254.4,0.0,0.0,1.0,4.998,0.0,0.0,0.653,0.878,0.0,53.3,0.0,0.0,0.0,,0.0,82.4,127.4,0.0,0.0,0.0,0.0,105.8,98.6,104.0,98.6,100.4,95.0,95.0,91.4,0.0,0.0,127.94,0.0,101.3,18.89999999999999,45.53999999999999,0.0,0.8433333333333332,0.0,413.6,True,2026-05-29 12:28:18-07:00
39.06,1,10,2026-05-29 19:28:57,34.90014,-120.45004,290.0,0.0,345.3,-12.0,0.0,,0.0,0.0,0.0,11.4,0.2,228.9,0.0,125.0,0.0,0.0,1.0,99.0,16.0,28.0,0.0,30.04,1669.0,0.0,0.0,134.0,0.0,0.0,0.0,0.0,0.0,0.0,0.0,0.0,0.0,0.0,0.0,0.0,0.0,0.0,0.0,0.0,0.0,0.0,0.0,0.0,0.0,0.0,0.0,0.0,0.0,53.0,0.0,0.0,30.1,0.0,0.0,0.0,0.0,0.0,0.0,9.0,0.0,0.0,-0.4,18.3,15.3,0.0,0.0,0.0,0.0,41.0,37.0,40.0,37.0,38.0,35.0,35.0,33.0,0.0,0.0,-2.0,254.4,0.0,0.0,1.0,4.998,0.0,0.0,0.653,0.878,0.0,53.2,0.0,0.0,0.0,,0.0,82.4,127.4,0.0,0.0,0.0,0.0,105.8,98.6,104.0,98.6,100.4,95.0,95.0,91.4,0.0,0.0,127.76,0.0,101.3,18.89999999999999,45.36,0.0,0.9276666666666664,0.0,413.6,True,2026-05-29 12:28:18-07:00
40.06,1,10,2026-05-29 19:28:58,34.90014,-120.45004,290.0,0.0,345.3,-12.0,0.0,,0.0,0.0,0.0,11.3,0.3,228.8,0.0,125.0,0.0,0.0,1.0,99.0,-43.0,28.0,0.0,30.04,1669.0,0.0,0.0,134.0,0.0,0.0,0.0,0.0,0.0,0.0,0.0,0.0,0.0,0.0,0.0,0.0,0.0,0.0,0.0,0.0,0.0,0.0,0.0,0.0,0.0,0.0,0.0,0.0,0.0,53.0,0.0,0.0,30.1,0.0,0.0,0.0,0.0,0.0,0.0,9.0,0.0,0.0,-0.4,18.3,15.3,0.0,0.0,0.0,0.0,41.0,37.0,40.0,37.0,38.0,35.0,35.0,33.0,0.0,0.0,-2.0,254.4,0.0,0.0,1.0,4.998,0.0,0.0,0.654,0.878,0.0,53.2,0.0,0.0,0.0,,0.0,82.4,127.4,0.0,0.0,0.0,0.0,105.8,98.6,104.0,98.6,100.4,95.0,95.0,91.4,0.0,0.0,127.76,0.0,101.3,18.89999999999999,45.36,0.0,0.9276666666666664,0.0,413.6,True,2026-05-29 12:28:18-07:00
41.06,1,10,2026-05-29 19:28:59,34.90014,-120.45004,290.0,0.0,345.3,-12.0,0.0,,0.0,0.0,0.0,11.3,0.2,228.8,0.0,124.0,0.0,0.0,1.0,99.0,-63.0,28.0,0.0,30.04,1669.0,0.0,0.0,134.0,0.0,0.0,0.0,0.0,0.0,0.0,0.0,0.0,0.0,0.0,0.0,0.0,0.0,0.0,0.0,0.0,0.0,0.0,0.0,0.0,0.0,0.0,0.0,0.0,0.0,53.0,0.0,0.0,30.1,0.0,0.0,0.0,0.0,0.0,0.0,9.0,0.0,0.0,-0.4,18.3,15.3,0.0,0.0,0.0,0.0,41.0,37.0,40.0,37.0,38.0,35.0,36.0,33.0,0.0,0.0,-2.0,254.4,0.0,0.0,1.0,4.998,0.0,0.0,0.654,0.878,0.0,53.2,0.0,0.0,0.0,,0.0,82.4,127.4,0.0,0.0,0.0,0.0,105.8,98.6,104.0,98.6,100.4,95.0,96.8,91.4,0.0,0.0,127.76,0.0,101.75,19.349999999999994,45.36,0.0,0.9276666666666664,0.0,413.6,True,2026-05-29 12:28:18-07:00
42.06,1,10,2026-05-29 19:29:00,34.90014,-120.45004,290.0,0.0,345.3,-12.0,0.0,,0.0,0.0,0.0,11.3,0.2,228.8,0.0,124.0,0.0,0.0,1.0,99.0,-49.0,28.0,0.0,30.04,1669.0,0.0,0.0,134.0,0.0,0.0,0.0,0.0,0.0,0.0,0.0,0.0,0.0,0.0,0.0,0.0,0.0,0.0,0.0,0.0,0.0,0.0,0.0,0.0,0.0,0.0,0.0,0.0,0.0,53.0,0.0,0.0,30.1,0.0,0.0,0.0,0.0,0.0,0.0,9.0,0.0,0.0,-0.4,18.3,15.3,0.0,0.0,0.0,0.0,41.0,37.0,40.0,37.0,38.0,35.0,36.0,33.0,0.0,0.0,-2.0,224.6,0.0,0.0,1.0,4.998,0.0,0.0,0.653,0.879,0.0,53.2,0.0,0.0,0.0,,0.0,82.4,127.4,0.0,0.0,0.0,0.0,105.8,98.6,104.0,98.6,100.4,95.0,96.8,91.4,0.0,0.0,127.76,0.0,101.75,19.349999999999994,45.36,0.0,0.9276666666666664,0.0,413.6,True,2026-05-29 12:28:18-07:00
43.06,1,10,2026-05-29 19:29:01,34.90014,-120.45004,290.0,0.0,345.3,-12.0,0.0,,0.0,0.0,0.0,11.3,0.2,228.8,0.0,123.0,0.0,0.0,1.0,99.0,-51.0,28.0,0.0,30.04,1666.0,0.0,0.0,134.0,0.0,0.0,0.0,0.0,0.0,0.0,0.0,0.0,0.0,0.0,0.0,0.0,0.0,0.0,0.0,0.0,0.0,0.0,0.0,0.0,0.0,0.0,0.0,0.0,0.0,53.0,0.0,0.0,30.1,0.0,0.0,0.0,0.0,0.0,0.0,9.0,0.0,0.0,-0.4,18.3,15.3,0.0,0.0,0.0,0.0,41.0,37.0,40.0,37.0,38.0,35.0,36.0,33.0,0.0,0.0,-2.0,174.8,0.0,0.0,1.0,4.998,0.0,0.0,0.653,0.879,0.0,53.2,0.0,0.0,0.0,,0.0,82.4,127.4,0.0,0.0,0.0,0.0,105.8,98.6,104.0,98.6,100.4,95.0,96.8,91.4,0.0,0.0,127.76,0.0,101.75,19.349999999999994,45.36,0.0,0.9276666666666664,0.0,413.6,True,2026-05-29 12:28:18-07:00
44.06,1,10,2026-05-29 19:29:02,34.90014,-120.45004,290.0,0.0,345.3,-12.0,0.0,,0.0,0.0,0.0,11.3,0.2,228.8,0.0,123.0,0.0,0.0,1.0,99.0,-31.0,28.0,0.0,30.04,1666.0,0.0,0.0,134.0,0.0,0.0,0.0,0.0,0.0,0.0,0.0,0.0,0.0,0.0,0.0,0.0,0.0,0.0,0.0,0.0,0.0,0.0,0.0,0.0,0.0,0.0,0.0,0.0,0.0,53.0,0.0,0.0,30.1,0.0,0.0,0.0,0.0,0.0,0.0,9.0,0.0,0.0,-0.4,18.3,15.3,0.0,0.0,0.0,0.0,41.0,37.0,40.0,37.0,38.0,35.0,36.0,33.0,0.0,0.0,-2.0,136.1,0.0,0.0,1.0,4.998,0.0,0.0,0.653,0.879,0.0,53.2,0.0,0.0,0.0,,0.0,82.4,127.4,0.0,0.0,0.0,0.0,105.8,98.6,104.0,98.6,100.4,95.0,96.8,91.4,0.0,0.0,127.76,0.0,101.75,19.349999999999994,45.36,0.0,0.9276666666666664,0.0,413.6,True,2026-05-29 12:28:18-07:00
45.06,1,10,2026-05-29 19:29:03,34.90014,-120.45004,290.0,0.0,345.3,-12.0,0.0,,0.0,0.0,0.0,11.3,0.2,228.8,0.0,123.0,0.0,0.0,1.0,99.0,-17.0,28.0,0.0,30.04,1666.0,0.0,0.0,134.0,0.0,0.0,0.0,0.0,0.0,0.0,0.0,0.0,0.0,0.0,0.0,0.0,0.0,0.0,0.0,0.0,0.0,0.0,0.0,0.0,0.0,0.0,0.0,0.0,0.0,53.0,0.0,0.0,30.1,0.0,0.0,0.0,0.0,0.0,0.0,9.0,0.0,0.0,-0.4,18.3,15.3,0.0,0.0,0.0,0.0,41.0,37.0,40.0,37.0,38.0,35.0,36.0,33.0,0.0,0.0,-2.0,106.0,0.0,0.0,1.0,4.998,0.0,0.0,0.653,0.879,0.0,53.2,0.0,0.0,0.0,,0.0,82.4,127.4,0.0,0.0,0.0,0.0,105.8,98.6,104.0,98.6,100.4,95.0,96.8,91.4,0.0,0.0,127.76,0.0,101.75,19.349999999999994,45.36,0.0,0.9276666666666664,0.0,413.6,True,2026-05-29 12:28:18-07:00
46.06,1,10,2026-05-29 19:29:04,34.90014,-120.45004,290.0,0.0,345.3,-12.0,0.0,,0.0,0.0,0.0,11.3,0.2,228.8,0.0,123.0,0.0,0.0,1.0,99.0,-12.0,28.0,0.0,30.04,1666.0,0.0,0.0,134.0,0.0,0.0,0.0,0.0,0.0,0.0,0.0,0.0,0.0,0.0,0.0,0.0,0.0,0.0,0.0,0.0,0.0,0.0,0.0,0.0,0.0,0.0,0.0,0.0,0.0,53.0,0.0,0.0,30.1,0.0,0.0,0.0,0.0,0.0,0.0,9.0,0.0,0.0,-0.4,18.3,15.3,0.0,0.0,0.0,0.0,41.0,37.0,40.0,37.0,38.0,35.0,35.0,33.0,0.0,0.0,-2.0,82.6,0.0,0.0,1.0,4.998,0.0,0.0,0.653,0.879,0.0,53.2,0.0,0.0,0.0,,0.0,82.4,127.4,0.0,0.0,0.0,0.0,105.8,98.6,104.0,98.6,100.4,95.0,95.0,91.4,0.0,0.0,127.76,0.0,101.3,18.89999999999999,45.36,0.0,0.9276666666666664,0.0,413.6,True,2026-05-29 12:28:18-07:00
47.06,1,10,2026-05-29 19:29:05,34.90014,-120.45004,290.0,0.0,345.3,-12.0,0.0,,0.0,0.0,0.0,11.3,0.2,228.9,0.0,123.0,0.1,0.0,1.0,99.0,8.0,28.0,0.0,30.04,1666.0,0.0,0.0,134.0,0.0,0.0,0.0,0.0,0.0,0.0,0.0,0.0,0.0,0.0,0.0,0.0,0.0,0.0,0.0,0.0,0.0,0.0,0.0,0.0,0.0,0.0,0.0,0.0,0.0,53.0,0.0,0.0,30.1,0.0,0.0,0.0,0.0,0.0,0.0,9.0,0.0,0.0,-0.4,18.3,15.3,0.0,0.0,0.0,0.0,41.0,37.0,40.0,37.0,38.0,35.0,35.0,33.0,0.0,0.0,-2.0,64.4,0.0,0.0,1.0,4.998,0.0,0.0,0.653,0.879,0.0,53.2,0.0,0.0,0.0,,0.0,82.4,127.4,0.0,0.0,0.0,0.0,105.8,98.6,104.0,98.6,100.4,95.0,95.0,91.4,0.0,0.0,127.76,0.0,101.3,18.89999999999999,45.36,0.0,0.9276666666666664,0.0,413.6,True,2026-05-29 12:28:18-07:00
48.06,1,10,2026-05-29 19:29:06,34.90014,-120.45004,290.0,0.0,345.3,-12.0,0.0,,0.0,0.0,0.0,11.3,0.2,228.9,0.0,123.0,0.0,0.0,1.0,99.0,24.0,28.0,0.0,30.04,1666.0,0.0,0.0,134.0,0.0,0.0,0.0,0.0,0.0,0.0,0.0,0.0,0.0,0.0,0.0,0.0,0.0,0.0,0.0,0.0,0.0,0.0,0.0,0.0,0.0,0.0,0.0,0.0,0.0,53.0,0.0,0.0,30.1,0.0,0.0,0.0,0.0,0.0,0.0,9.0,0.0,0.0,-0.4,18.3,15.3,0.0,0.0,0.0,0.0,41.0,37.0,40.0,37.0,38.0,35.0,35.0,33.0,0.0,0.0,-2.0,50.3,0.0,0.0,1.0,4.998,0.0,0.0,0.653,0.879,0.0,53.2,0.0,0.0,0.0,,0.0,82.4,127.4,0.0,0.0,0.0,0.0,105.8,98.6,104.0,98.6,100.4,95.0,95.0,91.4,0.0,0.0,127.76,0.0,101.3,18.89999999999999,45.36,0.0,0.9276666666666664,0.0,413.6,True,2026-05-29 12:28:18-07:00
49.06,1,10,2026-05-29 19:29:07,34.90014,-120.45004,290.0,0.0,345.3,-12.0,0.0,,0.0,0.0,0.0,11.3,0.2,228.9,0.0,123.0,0.0,0.0,1.0,99.0,27.0,28.0,0.0,30.04,1666.0,0.0,0.0,134.0,0.0,0.0,0.0,0.0,0.0,0.0,0.0,0.0,0.0,0.0,0.0,0.0,0.0,0.0,0.0,0.0,0.0,0.0,0.0,0.0,0.0,0.0,0.0,0.0,0.0,53.0,0.0,0.0,30.1,0.0,0.0,0.0,0.0,0.0,0.0,9.0,0.0,0.0,-0.4,18.3,15.3,0.0,0.0,0.0,0.0,41.0,37.0,40.0,37.0,38.0,35.0,35.0,33.0,0.0,0.0,-2.0,39.3,0.0,0.0,1.0,4.998,0.0,0.0,0.653,0.879,0.0,53.2,0.0,0.0,0.0,,0.0,82.4,127.4,0.0,0.0,0.0,0.0,105.8,98.6,104.0,98.6,100.4,95.0,95.0,91.4,0.0,0.0,127.76,0.0,101.3,18.89999999999999,45.36,0.0,0.9276666666666664,0.0,413.6,True,2026-05-29 12:28:18-07:00
50.06,1,10,2026-05-29 19:29:08,34.90014,-120.45004,291.0,0.0,345.3,-12.0,0.0,,0.0,0.0,0.0,11.3,0.2,228.8,0.0,123.0,0.0,0.0,1.0,99.0,14.0,28.0,0.0,30.04,1665.0,0.0,0.0,134.0,0.0,0.0,0.0,0.0,0.0,0.0,0.0,0.0,0.0,0.0,0.0,0.0,0.0,0.0,0.0,0.0,0.0,0.0,0.0,0.0,0.0,0.0,0.0,0.0,0.0,53.0,0.0,0.0,30.1,0.0,0.0,0.0,0.0,0.0,0.0,9.0,0.0,0.0,-0.4,18.3,15.3,0.0,0.0,0.0,0.0,41.0,37.0,40.0,37.0,38.0,35.0,35.0,34.0,0.0,0.0,-2.0,30.8,0.0,0.0,1.0,4.998,0.0,0.0,0.653,0.879,0.0,53.2,0.0,0.0,0.0,,0.0,82.4,127.4,0.0,0.0,0.0,0.0,105.8,98.6,104.0,98.6,100.4,95.0,95.0,93.2,0.0,0.0,127.76,0.0,101.3,18.89999999999999,45.36,0.0,0.9276666666666664,0.0,413.6,True,2026-05-29 12:28:18-07:00
51.06,1,10,2026-05-29 19:29:09,34.90014,-120.45004,291.0,0.0,345.3,-12.0,0.0,,0.0,0.0,0.0,11.3,0.2,228.9,0.0,123.0,0.0,0.0,1.0,99.0,2.0,28.0,0.0,30.04,1665.0,0.0,0.0,134.0,0.0,0.0,0.0,0.0,0.0,0.0,0.0,0.0,0.0,0.0,0.0,0.0,0.0,0.0,0.0,0.0,0.0,0.0,0.0,0.0,0.0,0.0,0.0,0.0,0.0,53.0,0.0,0.0,30.1,0.0,0.0,0.0,0.0,0.0,0.0,9.0,0.0,0.0,-0.4,18.3,15.3,0.0,0.0,0.0,0.0,41.0,37.0,40.0,37.0,38.0,35.0,36.0,33.0,0.0,0.0,-2.0,24.1,0.0,0.0,1.0,4.998,0.0,0.0,0.653,0.879,0.0,53.2,0.0,0.0,0.0,,0.0,82.4,127.4,0.0,0.0,0.0,0.0,105.8,98.6,104.0,98.6,100.4,95.0,96.8,91.4,0.0,0.0,127.76,0.0,101.75,19.349999999999994,45.36,0.0,0.9276666666666664,0.0,413.6,True,2026-05-29 12:28:18-07:00
52.06,1,10,2026-05-29 19:29:10,34.90014,-120.45004,291.0,0.0,345.3,-12.0,0.0,,0.0,0.0,0.0,11.3,0.2,228.9,0.0,123.0,0.0,0.0,1.0,99.0,-6.0,28.0,0.0,30.04,1665.0,0.0,0.0,134.0,0.0,0.0,0.0,0.0,0.0,0.0,0.0,0.0,0.0,0.0,0.0,0.0,0.0,0.0,0.0,0.0,0.0,0.0,0.0,0.0,0.0,0.0,0.0,0.0,0.0,53.0,0.0,0.0,30.1,0.0,0.0,0.0,0.0,0.0,0.0,9.0,0.0,0.0,-0.4,18.3,15.3,0.0,0.0,0.0,0.0,41.0,37.0,40.0,37.0,38.0,35.0,35.0,34.0,0.0,0.0,-2.0,19.0,0.0,0.0,1.0,4.998,0.0,0.0,0.654,0.879,0.0,53.2,0.0,0.0,0.0,,0.0,82.4,127.4,0.0,0.0,0.0,0.0,105.8,98.6,104.0,98.6,100.4,95.0,95.0,93.2,0.0,0.0,127.76,0.0,101.3,18.89999999999999,45.36,0.0,0.9276666666666664,0.0,413.6,True,2026-05-29 12:28:18-07:00
53.06,1,10,2026-05-29 19:29:11,34.90014,-120.45004,291.0,0.0,345.3,-12.0,0.0,,0.0,0.0,0.0,11.3,0.2,228.9,0.0,123.0,0.1,0.0,1.0,99.0,18.0,28.0,0.0,30.04,1666.0,0.0,0.0,134.0,0.0,0.0,0.0,0.0,0.0,0.0,0.0,0.0,0.0,0.0,0.0,0.0,0.0,0.0,0.0,0.0,0.0,0.0,0.0,0.0,0.0,0.0,0.0,0.0,0.0,53.0,0.0,0.0,30.1,0.0,0.0,0.0,0.0,0.0,0.0,9.0,0.0,0.0,-0.4,18.3,15.3,0.0,0.0,0.0,0.0,41.0,37.0,40.0,37.0,38.0,35.0,35.0,34.0,0.0,0.0,-2.0,14.9,0.0,0.0,1.0,4.998,0.0,0.0,0.654,0.879,0.0,53.2,0.0,0.0,0.0,,0.0,82.4,127.4,0.0,0.0,0.0,0.0,105.8,98.6,104.0,98.6,100.4,95.0,95.0,93.2,0.0,0.0,127.76,0.0,101.3,18.89999999999999,45.36,0.0,0.9276666666666664,0.0,413.6,True,2026-05-29 12:28:18-07:00
54.06,1,10,2026-05-29 19:29:12,34.90014,-120.45004,291.0,0.0,345.3,-12.0,0.0,,0.0,0.0,0.0,11.4,0.2,228.9,0.0,123.0,0.1,0.0,1.0,99.0,-28.0,28.0,0.0,30.04,1666.0,0.0,0.0,134.0,0.0,0.0,0.0,0.0,0.0,0.0,0.0,0.0,0.0,0.0,0.0,0.0,0.0,0.0,0.0,0.0,0.0,0.0,0.0,0.0,0.0,0.0,0.0,0.0,0.0,53.0,0.0,0.0,30.1,0.0,0.0,0.0,0.0,0.0,0.0,9.0,0.0,0.0,-0.4,18.3,15.3,0.0,0.0,0.0,0.0,41.0,37.0,40.0,37.0,38.0,35.0,35.0,34.0,0.0,0.0,-2.0,11.8,0.0,0.0,1.0,4.998,0.0,0.0,0.654,0.879,0.0,53.2,0.0,0.0,0.0,,0.0,82.4,127.4,0.0,0.0,0.0,0.0,105.8,98.6,104.0,98.6,100.4,95.0,95.0,93.2,0.0,0.0,127.76,0.0,101.3,18.89999999999999,45.36,0.0,0.9276666666666664,0.0,413.6,True,2026-05-29 12:28:18-07:00
55.06,1,10,2026-05-29 19:29:13,34.90014,-120.45004,291.0,0.0,345.3,-12.0,0.0,,0.0,0.0,0.0,11.3,0.2,228.9,0.0,123.0,0.1,0.0,1.0,99.0,-15.0,28.0,0.0,30.04,1666.0,0.0,0.0,134.0,0.0,0.0,0.0,0.0,0.0,0.0,0.0,0.0,0.0,0.0,0.0,0.0,0.0,0.0,0.0,0.0,0.0,0.0,0.0,0.0,0.0,0.0,0.0,0.0,0.0,53.0,0.0,0.0,30.1,0.0,0.0,0.0,0.0,0.0,0.0,9.0,0.0,0.0,-0.4,18.3,15.3,0.0,0.0,0.0,0.0,41.0,37.0,40.0,37.0,38.0,35.0,35.0,34.0,0.0,0.0,-2.0,9.4,0.0,0.0,1.0,4.998,0.0,0.0,0.653,0.879,0.0,53.2,0.0,0.0,0.0,,0.0,82.4,127.4,0.0,0.0,0.0,0.0,105.8,98.6,104.0,98.6,100.4,95.0,95.0,93.2,0.0,0.0,127.76,0.0,101.3,18.89999999999999,45.36,0.0,0.9276666666666664,0.0,413.6,True,2026-05-29 12:28:18-07:00
56.06,1,10,2026-05-29 19:29:14,34.90014,-120.45004,291.0,0.0,345.3,-12.0,0.0,,0.0,0.0,0.0,11.4,0.2,228.9,0.0,121.0,0.0,0.0,1.0,99.0,-44.0,28.0,0.0,30.04,1665.0,0.0,0.0,134.0,0.0,0.0,0.0,0.0,0.0,0.0,0.0,0.0,0.0,0.0,0.0,0.0,0.0,0.0,0.0,0.0,0.0,0.0,0.0,0.0,0.0,0.0,0.0,0.0,0.0,53.0,0.0,0.0,30.1,0.0,0.0,0.0,0.0,0.0,0.0,9.0,0.0,0.0,-0.4,18.3,15.3,0.0,0.0,0.0,0.0,41.0,37.0,40.0,37.0,38.0,35.0,35.0,33.0,0.0,0.0,-2.0,7.5,0.0,0.0,1.0,4.998,0.0,0.0,0.653,0.878,0.0,53.2,0.0,0.0,0.0,,0.0,82.4,127.4,0.0,0.0,0.0,0.0,105.8,98.6,104.0,98.6,100.4,95.0,95.0,91.4,0.0,0.0,127.76,0.0,101.3,18.89999999999999,45.36,0.0,0.9276666666666664,0.0,413.6,True,2026-05-29 12:28:18-07:00
57.06,1,10,2026-05-29 19:29:15,34.90014,-120.45004,291.0,0.1,345.3,-12.0,0.0,,0.0,0.0,0.0,11.4,0.2,228.9,0.0,121.0,0.0,0.0,1.0,99.0,-18.0,28.0,0.0,30.04,1665.0,0.0,0.0,134.0,0.0,0.0,0.0,0.0,0.0,0.0,0.0,0.0,0.0,0.0,0.0,0.0,0.0,0.0,0.0,0.0,0.0,0.0,0.0,0.0,0.0,0.0,0.0,0.0,0.0,53.0,0.0,0.0,30.1,0.0,0.0,0.0,0.0,0.0,0.0,9.0,0.0,0.0,-0.4,18.3,15.3,0.0,0.0,0.0,0.0,41.0,37.0,40.0,37.0,38.0,35.0,35.0,34.0,0.0,0.0,-2.0,6.1,0.0,0.0,1.0,4.998,0.0,0.0,0.654,0.878,0.0,53.2,0.0,0.0,0.0,,0.0,82.4,127.4,0.0,0.0,0.0,0.0,105.8,98.6,104.0,98.6,100.4,95.0,95.0,93.2,0.0,0.0,127.76,0.0,101.3,18.89999999999999,45.36,0.0,1.0119999999999998,0.0,413.6,True,2026-05-29 12:28:18-07:00
58.06,1,10,2026-05-29 19:29:16,34.90014,-120.45004,290.0,0.0,345.3,-12.0,0.0,,0.0,0.0,0.0,11.3,0.2,228.9,0.0,121.0,0.0,0.0,1.0,99.0,-24.0,28.0,0.0,30.04,1665.0,0.0,0.0,134.0,0.0,0.0,0.0,0.0,0.0,0.0,0.0,0.0,0.0,0.0,0.0,0.0,0.0,0.0,0.0,0.0,0.0,0.0,0.0,0.0,0.0,0.0,0.0,0.0,0.0,53.0,0.0,0.0,30.1,0.0,0.0,0.0,0.0,0.0,0.0,9.0,0.0,0.0,-0.4,18.3,15.3,0.0,0.0,0.0,0.0,41.0,37.0,40.0,37.0,38.0,35.0,35.0,34.0,0.0,0.0,-2.0,4.9,0.0,0.0,1.0,4.998,0.0,0.0,0.653,0.878,0.0,53.2,0.0,0.0,0.0,,0.0,82.4,127.4,0.0,0.0,0.0,0.0,105.8,98.6,104.0,98.6,100.4,95.0,95.0,93.2,0.0,0.0,127.76,0.0,101.3,18.89999999999999,45.36,0.0,1.0963333333333332,0.0,413.6,True,2026-05-29 12:28:18-07:00
59.06,1,10,2026-05-29 19:29:17,34.90014,-120.45004,290.0,0.0,345.3,-12.0,0.0,,0.0,0.0,0.0,11.3,0.2,228.9,0.0,121.0,0.1,0.0,1.0,99.0,12.0,28.0,0.0,30.04,1664.0,0.0,0.0,134.0,0.0,0.0,0.0,0.0,0.0,0.0,0.0,0.0,0.0,0.0,0.0,0.0,0.0,0.0,0.0,0.0,0.0,0.0,0.0,0.0,0.0,0.0,0.0,0.0,0.0,53.0,0.0,0.0,30.1,0.0,0.0,0.0,0.0,0.0,0.0,9.0,0.0,0.0,-0.4,18.3,15.3,0.0,0.0,0.0,0.0,41.0,37.0,40.0,37.0,38.0,35.0,35.0,34.0,0.0,0.0,-2.0,4.0,0.0,0.0,1.0,4.998,0.0,0.0,0.653,0.878,0.0,53.2,0.0,0.0,0.0,,0.0,82.4,127.4,0.0,0.0,0.0,0.0,105.8,98.6,104.0,98.6,100.4,95.0,95.0,93.2,0.0,0.0,127.76,0.0,101.3,18.89999999999999,45.36,0.0,1.0963333333333332,0.0,413.6,True,2026-05-29 12:28:18-07:00
60.06,1,10,2026-05-29 19:29:18,34.90014,-120.45004,290.0,0.0,345.3,-12.0,0.0,,0.0,0.0,0.0,11.4,0.2,228.9,0.0,121.0,0.0,0.0,1.0,99.0,1.0,28.0,0.0,30.04,1664.0,0.0,0.0,134.0,0.0,0.0,0.0,0.0,0.0,0.0,0.0,0.0,0.0,0.0,0.0,0.0,0.0,0.0,0.0,0.0,0.0,0.0,0.0,0.0,0.0,0.0,0.0,0.0,0.0,53.0,0.0,0.0,30.1,0.0,0.0,0.0,0.0,0.0,0.0,9.0,0.0,0.0,-0.4,18.3,15.3,0.0,0.0,0.0,0.0,41.0,37.0,40.0,37.0,38.0,35.0,35.0,34.0,0.0,0.0,-2.0,3.4,0.0,0.0,1.0,4.998,0.0,0.0,0.653,0.876,0.0,53.2,0.0,0.0,0.0,,0.0,82.4,127.4,0.0,0.0,0.0,0.0,105.8,98.6,104.0,98.6,100.4,95.0,95.0,93.2,0.0,0.0,127.76,0.0,101.3,18.89999999999999,45.36,0.0,1.0963333333333332,0.0,413.6,True,2026-05-29 12:28:18-07:00
61.06,1,10,2026-05-29 19:29:19,34.90014,-120.45004,289.0,0.0,345.3,-12.0,0.0,,0.0,0.0,0.0,11.3,0.2,228.9,0.0,121.0,0.1,0.0,1.0,99.0,7.0,28.0,0.0,30.04,1664.0,0.0,0.0,134.0,0.0,0.0,0.0,0.0,0.0,0.0,0.0,0.0,0.0,0.0,0.0,0.0,0.0,0.0,0.0,0.0,0.0,0.0,0.0,0.0,0.0,0.0,0.0,0.0,0.0,53.0,0.0,0.0,30.1,0.0,0.0,0.0,0.0,0.0,0.0,9.0,0.0,0.0,-0.4,18.3,15.3,0.0,0.0,0.0,0.0,41.0,37.0,40.0,37.0,38.0,35.0,35.0,34.0,0.0,0.0,-2.0,2.8,0.0,0.0,1.0,4.998,0.0,0.0,0.653,0.875,0.0,53.2,0.0,0.0,0.0,,0.0,82.4,127.4,0.0,0.0,0.0,0.0,105.8,98.6,104.0,98.6,100.4,95.0,95.0,93.2,0.0,0.0,127.76,0.0,101.3,18.89999999999999,45.36,0.0,1.0963333333333332,0.0,413.6,True,2026-05-29 12:28:18-07:00
62.06,1,10,2026-05-29 19:29:20,34.90014,-120.45004,289.0,0.0,345.3,-12.0,0.0,,0.0,0.0,0.0,11.3,0.2,228.9,0.0,121.0,0.0,0.0,1.0,99.0,15.0,28.0,0.0,30.04,1664.0,0.0,0.0,134.0,0.0,0.0,0.0,0.0,0.0,0.0,0.0,0.0,0.0,0.0,0.0,0.0,0.0,0.0,0.0,0.0,0.0,0.0,0.0,0.0,0.0,0.0,0.0,0.0,0.0,53.0,0.0,0.0,30.1,0.0,0.0,0.0,0.0,0.0,0.0,9.0,0.0,0.0,-0.4,18.3,15.3,0.0,0.0,0.0,0.0,41.0,37.0,40.0,37.0,38.0,35.0,35.0,34.0,0.0,0.0,-2.0,2.4,0.0,0.0,1.0,4.998,0.0,0.0,0.653,0.875,0.0,53.2,0.0,0.0,0.0,,0.0,82.4,127.4,0.0,0.0,0.0,0.0,105.8,98.6,104.0,98.6,100.4,95.0,95.0,93.2,0.0,0.0,127.76,0.0,101.3,18.89999999999999,45.36,0.0,1.0963333333333332,0.0,413.6,True,2026-05-29 12:28:18-07:00
63.06,1,10,2026-05-29 19:29:21,34.90014,-120.45004,289.0,0.0,345.3,-12.0,0.0,,0.0,0.0,0.0,11.3,0.2,228.9,0.0,121.0,0.0,0.0,1.0,99.0,-11.0,28.0,0.0,30.04,1664.0,0.0,0.0,134.0,0.0,0.0,0.0,0.0,0.0,0.0,0.0,0.0,0.0,0.0,0.0,0.0,0.0,0.0,0.0,0.0,0.0,0.0,0.0,0.0,0.0,0.0,0.0,0.0,0.0,53.0,0.0,0.0,30.1,0.0,0.0,0.0,0.0,0.0,0.0,9.0,0.0,0.0,-0.4,18.3,15.3,0.0,0.0,0.0,0.0,41.0,37.0,40.0,37.0,38.0,35.0,35.0,34.0,0.0,0.0,-2.0,2.1,0.0,0.0,1.0,4.998,0.0,0.0,0.653,0.875,0.0,53.2,0.0,0.0,0.0,,0.0,82.4,127.4,0.0,0.0,0.0,0.0,105.8,98.6,104.0,98.6,100.4,95.0,95.0,93.2,0.0,0.0,127.76,0.0,101.3,18.89999999999999,45.36,0.0,1.0963333333333332,0.0,413.6,True,2026-05-29 12:28:18-07:00
64.06,1,10,2026-05-29 19:29:22,34.90014,-120.45004,288.0,0.0,345.3,-12.0,0.0,,0.0,0.0,0.0,11.3,0.2,228.9,0.0,121.0,0.0,0.0,1.0,99.0,0.0,28.0,0.0,30.04,1664.0,0.0,0.0,134.0,0.0,0.0,0.0,0.0,0.0,0.0,0.0,0.0,0.0,0.0,0.0,0.0,0.0,0.0,0.0,0.0,0.0,0.0,0.0,0.0,0.0,0.0,0.0,0.0,0.0,53.0,0.0,0.0,30.1,0.0,0.0,0.0,0.0,0.0,0.0,9.0,0.0,0.0,-0.4,18.3,15.3,0.0,0.0,0.0,0.0,41.0,37.0,40.0,37.0,38.0,35.0,35.0,34.0,0.0,0.0,-2.0,1.8,0.0,0.0,1.0,4.998,0.0,0.0,0.653,0.874,0.0,53.2,0.0,0.0,0.0,,0.0,82.4,127.4,0.0,0.0,0.0,0.0,105.8,98.6,104.0,98.6,100.4,95.0,95.0,93.2,0.0,0.0,127.76,0.0,101.3,18.89999999999999,45.36,0.0,1.0963333333333332,0.0,413.6,True,2026-05-29 12:28:18-07:00
65.06,1,10,2026-05-29 19:29:23,34.90014,-120.45004,288.0,0.0,345.3,-12.0,0.0,,0.0,0.0,0.0,11.4,0.2,228.9,0.0,121.0,0.1,0.0,1.0,99.0,18.0,28.0,0.0,30.04,1664.0,0.0,0.0,134.0,0.0,0.0,0.0,0.0,0.0,0.0,0.0,0.0,0.0,0.0,0.0,0.0,0.0,0.0,0.0,0.0,0.0,0.0,0.0,0.0,0.0,0.0,0.0,0.0,0.0,53.0,0.0,0.0,30.1,0.0,0.0,0.0,0.0,0.0,0.0,9.0,0.0,0.0,-0.4,18.3,15.3,0.0,0.0,0.0,0.0,41.0,37.0,40.0,37.0,38.0,35.0,35.0,34.0,0.0,0.0,-2.0,1.7,0.0,0.0,1.0,4.998,0.0,0.0,0.653,0.874,0.0,53.2,0.0,0.0,0.0,,0.0,82.4,127.4,0.0,0.0,0.0,0.0,105.8,98.6,104.0,98.6,100.4,95.0,95.0,93.2,0.0,0.0,127.76,0.0,101.3,18.89999999999999,45.36,0.0,1.0963333333333332,0.0,413.6,True,2026-05-29 12:28:18-07:00
66.06,1,10,2026-05-29 19:29:24,34.90014,-120.45004,288.0,0.0,345.3,-12.0,0.0,,0.0,0.0,0.0,11.4,0.2,229.0,0.0,121.0,0.1,0.0,1.0,99.0,-28.0,28.0,0.0,30.04,1664.0,0.0,0.0,134.0,0.0,0.0,0.0,0.0,0.0,0.0,0.0,0.0,0.0,0.0,0.0,0.0,0.0,0.0,0.0,0.0,0.0,0.0,0.0,0.0,0.0,0.0,0.0,0.0,0.0,53.0,0.0,0.0,30.1,0.0,0.0,0.0,0.0,0.0,0.0,9.0,0.0,0.0,-0.4,18.3,15.3,0.0,0.0,0.0,0.0,41.0,37.0,40.0,37.0,38.0,35.0,35.0,34.0,0.0,0.0,-2.0,1.5,0.0,0.0,1.0,4.998,0.0,0.0,0.653,0.874,0.0,53.1,0.0,0.0,0.0,,0.0,82.4,127.4,0.0,0.0,0.0,0.0,105.8,98.6,104.0,98.6,100.4,95.0,95.0,93.2,0.0,0.0,127.58000000000001,0.0,101.3,18.89999999999999,45.18000000000001,0.0,1.0963333333333332,0.0,413.6,True,2026-05-29 12:28:18-07:00
67.06,1,10,2026-05-29 19:29:25,34.90014,-120.45004,288.0,0.0,345.3,-12.0,0.0,,0.0,0.0,0.0,11.4,0.2,228.9,0.0,121.0,0.1,0.0,1.0,99.0,-28.0,28.0,0.0,30.04,1664.0,0.0,0.0,134.0,0.0,0.0,0.0,0.0,0.0,0.0,0.0,0.0,0.0,0.0,0.0,0.0,0.0,0.0,0.0,0.0,0.0,0.0,0.0,0.0,0.0,0.0,0.0,0.0,0.0,53.0,0.0,0.0,30.1,0.0,0.0,0.0,0.0,0.0,0.0,9.0,0.0,0.0,-0.4,18.3,15.3,0.0,0.0,0.0,0.0,41.0,37.0,40.0,37.0,38.0,35.0,35.0,34.0,0.0,0.0,-2.0,1.4,0.0,0.0,1.0,4.998,0.0,0.0,0.653,0.874,0.0,53.1,0.0,0.0,0.0,,0.0,82.4,127.4,0.0,0.0,0.0,0.0,105.8,98.6,104.0,98.6,100.4,95.0,95.0,93.2,0.0,0.0,127.58000000000001,0.0,101.3,18.89999999999999,45.18000000000001,0.0,1.0963333333333332,0.0,413.6,True,2026-05-29 12:28:18-07:00
68.06,1,10,2026-05-29 19:29:26,34.90014,-120.45004,288.0,0.0,345.3,-12.0,0.0,,0.0,0.0,0.0,11.4,0.2,228.9,0.0,121.0,0.0,0.01,1.0,99.0,-38.0,28.0,0.0,30.04,1663.0,0.0,0.0,134.0,0.0,0.0,0.0,0.0,0.0,0.0,0.0,0.0,0.0,0.0,0.0,0.0,0.0,0.0,0.0,0.0,0.0,0.0,0.0,0.0,0.0,0.0,0.0,0.0,0.0,53.0,0.0,0.0,30.1,0.0,0.0,0.0,0.0,0.0,0.0,9.0,0.0,0.0,-0.4,18.3,15.3,0.0,0.0,0.0,0.0,41.0,37.0,40.0,37.0,38.0,35.0,35.0,34.0,0.0,0.0,-2.0,1.3,0.0,0.0,1.0,4.998,0.0,0.0,0.653,0.874,0.0,53.1,0.0,0.0,0.0,,0.0,82.4,127.4,0.0,0.0,0.0,0.0,105.8,98.6,104.0,98.6,100.4,95.0,95.0,93.2,0.0,0.0,127.58000000000001,0.0,101.3,18.89999999999999,45.18000000000001,0.0,1.0963333333333332,0.0,413.6,True,2026-05-29 12:28:18-07:00
69.06,1,10,2026-05-29 19:29:27,34.90014,-120.45004,288.0,0.0,345.3,-12.0,0.0,,0.0,0.0,0.0,11.4,0.2,228.9,0.0,120.0,0.0,0.0,1.0,99.0,-42.0,28.0,0.0,30.04,1663.0,0.0,0.0,134.0,0.0,0.0,0.0,0.0,0.0,0.0,0.0,0.0,0.0,0.0,0.0,0.0,0.0,0.0,0.0,0.0,0.0,0.0,0.0,0.0,0.0,0.0,0.0,0.0,0.0,53.0,0.0,0.0,30.1,0.0,0.0,0.0,0.0,0.0,0.0,42.0,0.0,0.0,-0.4,18.3,15.3,0.0,0.0,0.0,0.0,41.0,37.0,40.0,37.0,38.0,35.0,35.0,34.0,0.0,0.0,-2.0,1.2,0.0,0.0,1.0,4.998,0.0,0.0,0.653,0.874,0.0,53.1,0.0,0.0,0.0,,0.0,82.4,127.4,0.0,0.0,0.0,0.0,105.8,98.6,104.0,98.6,100.4,95.0,95.0,93.2,0.0,0.0,127.58000000000001,0.0,101.3,18.89999999999999,45.18000000000001,0.0,1.0963333333333332,0.0,413.6,True,2026-05-29 12:28:18-07:00
70.06,1,10,2026-05-29 19:29:28,34.90014,-120.45004,288.0,0.0,345.3,-12.0,0.0,,0.0,0.0,0.0,11.4,0.2,228.9,0.0,118.0,0.0,0.0,1.0,99.0,-45.0,28.0,0.0,30.04,1663.0,0.0,0.0,134.0,0.0,0.0,0.0,0.0,0.0,0.0,0.0,0.0,0.0,0.0,0.0,0.0,0.0,0.0,0.0,0.0,0.0,0.0,0.0,0.0,0.0,0.0,0.0,0.0,0.0,53.0,0.0,0.0,30.1,0.0,0.0,0.0,0.0,0.0,0.0,42.0,0.0,0.0,-0.4,18.3,15.3,0.0,0.0,0.0,0.0,41.0,37.0,40.0,37.0,38.0,35.0,35.0,34.0,0.0,0.0,-2.0,1.2,0.0,0.0,1.0,4.998,0.0,0.0,0.653,0.874,0.0,53.1,0.0,0.0,0.0,,0.0,82.4,127.4,0.0,0.0,0.0,0.0,105.8,98.6,104.0,98.6,100.4,95.0,95.0,93.2,0.0,0.0,127.58000000000001,0.0,101.3,18.89999999999999,45.18000000000001,0.0,1.0963333333333332,0.0,413.6,True,2026-05-29 12:28:18-07:00
71.06,1,10,2026-05-29 19:29:29,34.90014,-120.45004,288.0,0.1,345.3,-12.0,0.0,,0.0,0.0,0.0,11.4,0.2,229.0,0.0,118.0,0.1,0.0,1.0,99.0,-48.0,28.0,0.0,30.04,1660.0,0.0,0.0,134.0,0.0,0.0,0.0,0.0,0.0,0.0,0.0,0.0,0.0,0.0,0.0,0.0,0.0,0.0,0.0,0.0,0.0,0.0,0.0,0.0,0.0,0.0,0.0,0.0,0.0,53.0,0.0,0.0,30.1,0.0,0.0,0.0,0.0,0.0,0.0,42.0,0.0,0.0,-0.4,18.3,15.3,0.0,0.0,0.0,0.0,41.0,37.0,40.0,37.0,38.0,35.0,35.0,34.0,0.0,0.0,-2.0,1.1,0.0,0.0,1.0,4.998,0.0,0.0,0.653,0.874,0.0,53.1,0.0,0.0,0.0,,0.0,82.4,127.4,0.0,0.0,0.0,0.0,105.8,98.6,104.0,98.6,100.4,95.0,95.0,93.2,0.0,0.0,127.58000000000001,0.0,101.3,18.89999999999999,45.18000000000001,0.0,1.1806666666666665,0.0,413.6,True,2026-05-29 12:28:18-07:00
72.06,1,10,2026-05-29 19:29:30,34.90014,-120.45004,288.0,0.0,345.3,-12.0,0.0,,0.0,0.0,0.0,11.4,0.3,228.9,0.0,116.0,0.0,0.0,1.0,99.0,-77.0,28.0,0.0,30.04,1660.0,0.0,0.0,134.0,0.0,0.0,0.0,0.0,0.0,0.0,0.0,0.0,0.0,0.0,0.0,0.0,0.0,0.0,0.0,0.0,0.0,0.0,0.0,0.0,0.0,0.0,0.0,0.0,0.0,53.0,0.0,0.0,30.1,0.0,0.0,0.0,0.0,0.0,0.0,42.0,0.0,0.0,-0.4,18.3,15.3,0.0,0.0,0.0,0.0,41.0,37.0,40.0,37.0,38.0,35.0,35.0,34.0,0.0,0.0,-2.0,1.1,0.0,0.0,1.0,4.998,0.0,0.0,0.653,0.874,0.0,53.1,0.0,0.0,0.0,,0.0,82.4,127.4,0.0,0.0,0.0,0.0,105.8,98.6,104.0,98.6,100.4,95.0,95.0,93.2,0.0,0.0,127.58000000000001,0.0,101.3,18.89999999999999,45.18000000000001,0.0,1.2649999999999997,0.0,413.6,True,2026-05-29 12:28:18-07:00
73.06,1,10,2026-05-29 19:29:31,34.90014,-120.45004,288.0,0.0,345.3,-12.0,0.0,,0.0,0.0,0.0,11.4,0.2,228.9,0.0,116.0,0.0,0.0,1.0,99.0,-52.0,28.0,0.0,30.04,1660.0,0.0,0.0,134.0,0.0,0.0,0.0,0.0,0.0,0.0,0.0,0.0,0.0,0.0,0.0,0.0,0.0,0.0,0.0,0.0,0.0,0.0,0.0,0.0,0.0,0.0,0.0,0.0,0.0,53.0,0.0,0.0,30.1,0.0,0.0,0.0,0.0,0.0,0.0,42.0,0.0,0.0,-0.4,18.3,15.3,0.0,0.0,0.0,0.0,41.0,37.0,40.0,37.0,38.0,35.0,35.0,34.0,0.0,0.0,-2.0,1.1,0.0,0.0,1.0,4.998,0.0,0.0,0.653,0.874,0.0,53.1,0.0,0.0,0.0,,0.0,82.4,127.4,0.0,0.0,0.0,0.0,105.8,98.6,104.0,98.6,100.4,95.0,95.0,93.2,0.0,0.0,127.58000000000001,0.0,101.3,18.89999999999999,45.18000000000001,0.0,1.2649999999999997,0.0,413.6,True,2026-05-29 12:28:18-07:00
74.06,1,10,2026-05-29 19:29:32,34.90014,-120.45004,288.0,0.1,345.3,-12.0,0.0,,0.0,0.0,0.0,11.4,0.2,228.9,0.0,116.0,0.0,0.0,1.0,99.0,-30.0,28.0,0.0,30.04,1657.0,0.0,0.0,134.0,0.0,0.0,0.0,0.0,0.0,0.0,0.0,0.0,0.0,0.0,0.0,0.0,0.0,0.0,0.0,0.0,0.0,0.0,0.0,0.0,0.0,0.0,0.0,0.0,0.0,53.0,0.0,0.0,30.1,0.0,0.0,0.0,0.0,0.0,0.0,42.0,0.0,0.0,-0.4,18.3,15.3,0.0,0.0,0.0,0.0,41.0,37.0,40.0,37.0,38.0,35.0,35.0,34.0,0.0,0.0,-2.0,1.0,0.0,0.0,1.0,4.998,0.0,0.0,0.653,0.874,0.0,53.1,0.0,0.0,0.0,,0.0,82.4,127.4,0.0,0.0,0.0,0.0,105.8,98.6,104.0,98.6,100.4,95.0,95.0,93.2,0.0,0.0,127.58000000000001,0.0,101.3,18.89999999999999,45.18000000000001,0.0,1.349333333333333,0.0,413.6,True,2026-05-29 12:28:18-07:00
75.06,1,10,2026-05-29 19:29:33,34.90014,-120.45004,288.0,0.0,345.3,-12.0,0.0,,0.0,0.0,0.0,11.4,0.2,228.9,0.0,115.0,0.0,0.0,1.0,99.0,-54.0,28.0,0.0,30.04,1657.0,0.0,0.0,134.0,0.0,0.0,0.0,0.0,0.0,0.0,0.0,0.0,0.0,0.0,0.0,0.0,0.0,0.0,0.0,0.0,0.0,0.0,0.0,0.0,0.0,0.0,0.0,0.0,0.0,53.0,0.0,0.0,30.1,0.0,0.0,0.0,0.0,0.0,0.0,42.0,0.0,0.0,-0.4,18.3,15.3,0.0,0.0,0.0,0.0,41.0,37.0,40.0,37.0,38.0,35.0,35.0,34.0,0.0,0.0,-2.0,1.0,0.0,0.0,1.0,4.998,0.0,0.0,0.653,0.874,0.0,53.1,0.0,0.0,0.0,,0.0,82.4,127.4,0.0,0.0,0.0,0.0,105.8,98.6,104.0,98.6,100.4,95.0,95.0,93.2,0.0,0.0,127.58000000000001,0.0,101.3,18.89999999999999,45.18000000000001,0.0,1.4336666666666664,0.0,413.6,True,2026-05-29 12:28:18-07:00
76.06,1,10,2026-05-29 19:29:34,34.90014,-120.45004,288.0,0.0,345.3,-12.0,0.0,,0.0,0.0,0.0,11.4,0.2,228.9,0.0,114.0,0.0,0.01,1.0,99.0,-31.0,28.0,0.0,30.04,1657.0,0.0,0.0,134.0,0.0,0.0,0.0,0.0,0.0,0.0,0.0,0.0,0.0,0.0,0.0,0.0,0.0,0.0,0.0,0.0,0.0,0.0,0.0,0.0,0.0,0.0,0.0,0.0,0.0,53.0,0.0,0.0,30.1,0.0,0.0,0.0,0.0,0.0,0.0,42.0,0.0,0.0,-0.4,18.3,15.3,0.0,0.0,0.0,0.0,41.0,37.0,40.0,37.0,38.0,35.0,35.0,34.0,0.0,0.0,-2.0,1.0,0.0,0.0,1.0,4.998,0.0,0.0,0.653,0.874,0.0,53.1,0.0,0.0,0.0,,0.0,82.4,127.4,0.0,0.0,0.0,0.0,105.8,98.6,104.0,98.6,100.4,95.0,95.0,93.2,0.0,0.0,127.58000000000001,0.0,101.3,18.89999999999999,45.18000000000001,0.0,1.4336666666666664,0.0,413.6,True,2026-05-29 12:28:18-07:00
77.06,1,10,2026-05-29 19:29:35,34.90014,-120.45004,288.0,0.0,345.3,-12.0,0.0,,0.0,0.0,0.0,11.4,0.2,229.0,0.0,114.0,0.0,0.0,1.0,99.0,-22.0,28.0,0.0,30.04,1655.0,0.0,0.0,134.0,0.0,0.0,0.0,0.0,0.0,0.0,0.0,0.0,0.0,0.0,0.0,0.0,0.0,0.0,0.0,0.0,0.0,0.0,0.0,0.0,0.0,0.0,0.0,0.0,0.0,53.0,0.0,0.0,30.1,0.0,0.0,0.0,0.0,0.0,0.0,42.0,0.0,0.0,-0.4,18.3,15.3,0.0,0.0,0.0,0.0,41.0,37.0,40.0,37.0,38.0,35.0,35.0,34.0,0.0,0.0,-2.0,1.0,0.0,0.0,1.0,4.998,0.0,0.0,0.653,0.874,0.0,53.1,0.0,0.0,0.0,,0.0,82.4,127.4,0.0,0.0,0.0,0.0,105.8,98.6,104.0,98.6,100.4,95.0,95.0,93.2,0.0,0.0,127.58000000000001,0.0,101.3,18.89999999999999,45.18000000000001,0.0,1.4336666666666664,0.0,413.6,True,2026-05-29 12:28:18-07:00
78.06,1,10,2026-05-29 19:29:36,34.90014,-120.45004,288.0,0.0,345.3,-12.0,0.0,,0.0,0.0,0.0,11.4,0.1,229.0,0.0,114.0,0.0,0.0,1.0,99.0,-23.0,28.0,0.0,30.04,1655.0,0.0,0.0,134.0,0.0,0.0,0.0,0.0,0.0,0.0,0.0,0.0,0.0,0.0,0.0,0.0,0.0,0.0,0.0,0.0,0.0,0.0,0.0,0.0,0.0,0.0,0.0,0.0,0.0,53.0,0.0,0.0,30.1,0.0,0.0,0.0,0.0,0.0,0.0,42.0,0.0,0.0,-0.4,18.3,15.3,0.0,0.0,0.0,0.0,41.0,37.0,40.0,37.0,38.0,35.0,35.0,34.0,0.0,0.0,-2.0,1.0,0.0,0.0,1.0,4.998,0.0,0.0,0.653,0.874,0.0,53.1,0.0,0.0,0.0,,0.0,82.4,127.4,0.0,0.0,0.0,0.0,105.8,98.6,104.0,98.6,100.4,95.0,95.0,93.2,0.0,0.0,127.58000000000001,0.0,101.3,18.89999999999999,45.18000000000001,0.0,1.4336666666666664,0.0,413.6,True,2026-05-29 12:28:18-07:00
79.06,1,10,2026-05-29 19:29:37,34.90014,-120.45004,288.0,0.0,345.3,-12.0,0.0,,0.0,0.0,0.0,11.5,0.2,229.1,0.0,114.0,0.0,0.0,1.0,99.0,-5.0,28.0,0.0,30.04,1655.0,0.0,0.0,134.0,0.0,0.0,0.0,0.0,0.0,0.0,0.0,0.0,0.0,0.0,0.0,0.0,0.0,0.0,0.0,0.0,0.0,0.0,0.0,0.0,0.0,0.0,0.0,0.0,0.0,53.0,0.0,0.0,30.1,0.0,0.0,0.0,0.0,0.0,0.0,42.0,0.0,0.0,-0.4,18.3,15.3,0.0,0.0,0.0,0.0,41.0,37.0,40.0,37.0,38.0,35.0,35.0,34.0,0.0,0.0,-2.0,1.0,0.0,0.0,1.0,4.998,0.0,0.0,0.653,0.874,0.0,53.1,0.0,0.0,0.0,,0.0,82.4,127.4,0.0,0.0,0.0,0.0,105.8,98.6,104.0,98.6,100.4,95.0,95.0,93.2,0.0,0.0,127.58000000000001,0.0,101.3,18.89999999999999,45.18000000000001,0.0,1.4336666666666664,0.0,413.6,True,2026-05-29 12:28:18-07:00
80.06,1,10,2026-05-29 19:29:38,34.90014,-120.45004,288.0,0.0,345.3,-12.0,0.0,,0.0,0.0,0.0,11.4,0.2,229.0,0.0,114.0,0.0,0.0,1.0,99.0,2.0,28.0,0.0,30.04,1655.0,0.0,0.0,134.0,0.0,0.0,0.0,0.0,0.0,0.0,0.0,0.0,0.0,0.0,0.0,0.0,0.0,0.0,0.0,0.0,0.0,0.0,0.0,0.0,0.0,0.0,0.0,0.0,0.0,53.0,0.0,0.0,30.1,0.0,0.0,0.0,0.0,0.0,0.0,42.0,0.0,0.0,-0.4,18.3,15.3,0.0,0.0,0.0,0.0,41.0,37.0,40.0,37.0,38.0,36.0,35.0,34.0,0.0,0.0,-2.0,1.0,0.0,0.0,2.0,4.998,0.0,0.0,0.653,0.874,0.0,53.1,0.0,0.0,0.0,,0.0,82.4,127.4,0.0,0.0,0.0,0.0,105.8,98.6,104.0,98.6,100.4,96.8,95.0,93.2,0.0,0.0,127.58000000000001,0.0,101.3,18.89999999999999,45.18000000000001,0.0,1.4336666666666664,0.0,413.6,True,2026-05-29 12:28:18-07:00
81.06,1,10,2026-05-29 19:29:39,34.90014,-120.45004,287.0,0.0,345.3,-12.0,0.0,,0.0,0.0,0.0,11.3,0.2,229.0,0.0,114.0,0.0,0.0,1.0,99.0,17.0,28.0,0.0,30.04,1655.0,0.0,0.0,134.0,0.0,0.0,0.0,0.0,0.0,0.0,0.0,0.0,0.0,0.0,0.0,0.0,0.0,0.0,0.0,0.0,0.0,0.0,0.0,0.0,0.0,0.0,0.0,0.0,0.0,53.0,0.0,0.0,30.1,0.0,0.0,0.0,0.0,0.0,0.0,42.0,0.0,0.0,-0.4,18.3,15.3,0.0,0.0,0.0,0.0,41.0,37.0,40.0,37.0,38.0,36.0,35.0,34.0,0.0,0.0,-2.0,1.0,0.0,0.0,2.0,4.998,0.0,0.0,0.653,0.874,0.0,53.1,0.0,0.0,0.0,,0.0,82.4,127.4,0.0,0.0,0.0,0.0,105.8,98.6,104.0,98.6,100.4,96.8,95.0,93.2,0.0,0.0,127.58000000000001,0.0,101.3,18.89999999999999,45.18000000000001,0.0,1.4336666666666664,0.0,413.6,True,2026-05-29 12:28:18-07:00
82.06,1,10,2026-05-29 19:29:40,34.90014,-120.45004,287.0,0.0,345.3,-12.0,0.0,,0.0,0.0,0.0,11.3,0.2,229.0,0.0,114.0,0.0,0.0,1.0,99.0,18.0,28.0,0.0,30.04,1655.0,0.0,0.0,134.0,0.0,0.0,0.0,0.0,0.0,0.0,0.0,0.0,0.0,0.0,0.0,0.0,0.0,0.0,0.0,0.0,0.0,0.0,0.0,0.0,0.0,0.0,0.0,0.0,0.0,53.0,0.0,0.0,30.1,0.0,0.0,0.0,0.0,0.0,0.0,42.0,0.0,0.0,-0.4,18.3,15.3,0.0,0.0,0.0,0.0,41.0,37.0,40.0,37.0,38.0,36.0,35.0,34.0,0.0,0.0,-2.0,1.0,0.0,0.0,2.0,4.998,0.0,0.0,0.653,0.874,0.0,53.1,0.0,0.0,0.0,,0.0,82.4,127.4,0.0,0.0,0.0,0.0,105.8,98.6,104.0,98.6,100.4,96.8,95.0,93.2,0.0,0.0,127.58000000000001,0.0,101.3,18.89999999999999,45.18000000000001,0.0,1.4336666666666664,0.0,413.6,True,2026-05-29 12:28:18-07:00
83.06,1,10,2026-05-29 19:29:41,34.90014,-120.45004,287.0,0.1,345.3,-12.0,0.0,,0.0,0.0,0.0,11.3,0.2,228.9,0.0,114.0,0.0,0.0,1.0,99.0,8.0,28.0,0.0,30.04,1655.0,0.0,0.0,134.0,0.0,0.0,0.0,0.0,0.0,0.0,0.0,0.0,0.0,0.0,0.0,0.0,0.0,0.0,0.0,0.0,0.0,0.0,0.0,0.0,0.0,0.0,0.0,0.0,0.0,53.0,0.0,0.0,30.1,0.0,0.0,0.0,0.0,0.0,0.0,42.0,0.0,0.0,-0.4,18.3,15.3,0.0,0.0,0.0,0.0,41.0,37.0,40.0,37.0,38.0,36.0,35.0,34.0,0.0,0.0,-2.0,1.0,0.0,0.0,2.0,4.998,0.0,0.0,0.653,0.874,0.0,53.1,0.0,0.0,0.0,,0.0,82.4,127.4,0.0,0.0,0.0,0.0,105.8,98.6,104.0,98.6,100.4,96.8,95.0,93.2,0.0,0.0,127.58000000000001,0.0,101.3,18.89999999999999,45.18000000000001,0.0,1.5179999999999998,0.0,413.6,True,2026-05-29 12:28:18-07:00
84.06,1,10,2026-05-29 19:29:42,34.90014,-120.45004,287.0,0.0,345.3,-12.0,0.0,,0.0,0.0,0.0,11.3,0.2,228.9,0.0,114.0,0.0,0.0,1.0,99.0,15.0,28.0,0.0,30.04,1655.0,0.0,0.0,134.0,0.0,0.0,0.0,0.0,0.0,0.0,0.0,0.0,0.0,0.0,0.0,0.0,0.0,0.0,0.0,0.0,0.0,0.0,0.0,0.0,0.0,0.0,0.0,0.0,0.0,53.0,0.0,0.0,30.1,0.0,0.0,0.0,0.0,0.0,0.0,42.0,0.0,0.0,-0.4,18.3,15.3,0.0,0.0,0.0,0.0,41.0,37.0,40.0,37.0,38.0,36.0,35.0,34.0,0.0,0.0,-2.0,1.0,0.0,0.0,2.0,4.998,0.0,0.0,0.653,0.874,0.0,53.0,0.0,0.0,0.0,,0.0,82.4,127.4,0.0,0.0,0.0,0.0,105.8,98.6,104.0,98.6,100.4,96.8,95.0,93.2,0.0,0.0,127.4,0.0,101.3,18.89999999999999,45.0,0.0,1.6023333333333332,0.0,413.6,True,2026-05-29 12:28:18-07:00
