Session Time,GPS Fix Quality,Number of Satellites,GPS Date & Time,Latitude (deg),Longitude (deg),GPS Altitude (feet),Ground Speed (knots),Ground Track (deg),Mag Var (deg),Cross Track Error (NM),Destination Waypoint ID,Range to Destination (NM),Bearing to Destination (deg),System Time,Pitch (deg),Roll (deg),Magnetic Heading (deg),Indicated Airspeed (knots),Pressure Altitude (ft),Turn Rate (deg/s),Lateral Accel (g),Vertical Accel(g),Angle of Attack (%),Vertical Speed (ft/min),OAT (deg C),True Airspeed (knots),Barometer Setting (inHg),Density Altitude (ft),Wind Direction (deg),Wind Speed (knots),Heading Bug (deg),Altitude Bug (ft),Airspeed Bug (knots),Vertical Speed Bug (ft/min),Course (deg),CDI Source Type,CDI Source Port,CDI Scale (NM),CDI Deflection (%),Glideslope (%),AP Engaged,AP Roll Mode,AP Roll Force,AP Roll Position (steps),AP Roll Slip (bool),AP Pitch Force,AP Pitch Position (steps),AP Pitch Slip (bool),AP Yaw Force,AP Yaw Position,AP Yaw Slip (bool),Transponder Status,Transponder Reply (bool),Transponder Identing (bool),Transponder Code (octal),Oil Pressure (PSI),Oil Temp (deg C),RPM L,RPM R,Manifold Pressure (inHg),Fuel Flow 1 (gal/hr),Fuel Flow 2 (gal/hr),Total Fuel Flow (gal/hr),Fuel Pressure (PSI),Fuel Level L (gal),Fuel Level R (gal),Fuel Remaining (gal),Volts 1,Volts 2,Amps,Hobbs Time,Tach Time,Thermocouple 1 (deg C),Thermocouple 2 (deg C),Thermocouple 3 (deg C),Thermocouple 4 (deg C),CHT 4 (deg C),EGT 4 (deg C),CHT 3 (deg C),EGT 3 (deg C),CHT 2 (deg C),EGT 2 (deg C),CHT 1 (deg C),EGT 1 (deg C),Thermocouple 13 (deg C),Thermocouple 14 (deg C),ELEV POSITION (%),CO PPM PRESSURE (PSI),GP Input 3,FUEL PRESSURE (PSI),AILERN POSITION (%),CANOPY CONTACT (V),GP Input 7,GP Input 8,LEFT LEVEL (Sensor V),RIGHT LEVEL (Sensor V),OIL PRESSURE (PSI),OIL TEMPERATURE (deg C),GP Input 13,Contacts,Percent Power,EGT Leaning State,Unnamed: 103,RPM,Flight ID
7.06,0.0,0.0,2026-04-14 00:49:08,37.05893,-120.86827,,0.1,169.1,-17.0,,,,,00:49:08,10.7,-0.7,10.0,0.0,20.0,0.1,-0.01,1.0,99.0,-31.0,24.0,0.0,30.08,1054.0,,,82.0,,,,,0.0,0.0,,,,,,,,,,,,,,,,,,,0.0,78.0,0.0,0.0,30.3,0.0,,0.0,2.8,,,13.0,0.0,0.0,-0.0,10.4,8.4,,,,,118.0,93.0,120.0,91.0,118.0,96.0,116.0,87.0,,,7.0,254.5,,2.8,4.0,4.998,,,0.653,0.869,+0.0,77.8,,,,,,0.0,2026-04-13 17:49:08-07:00
8.06,1.0,6.0,2026-04-14 00:49:09,37.05902,-120.86833,123.0,0.0,169.1,-12.5,,,,,00:49:08,10.7,-0.7,10.0,0.0,20.0,0.1,-0.01,1.0,99.0,-24.0,24.0,0.0,30.08,1054.0,,,82.0,,,,,0.0,0.0,,,,,,,,,,,,,,,,,,,0.0,78.0,0.0,0.0,30.3,0.0,,0.0,2.8,,,13.0,0.0,0.0,-0.0,10.4,8.4,,,,,118.0,93.0,120.0,92.0,118.0,97.0,116.0,87.0,,,7.0,254.5,,2.8,4.0,4.998,,,0.653,0.869,+0.0,77.8,,,,,,0.0,2026-04-13 17:49:08-07:00
9.06,1.0,7.0,2026-04-14 00:49:10,37.059,-120.86833,109.0,0.0,169.1,-12.5,,,,,00:49:09,10.7,-0.7,9.9,0.0,19.0,0.1,-0.01,1.0,99.0,-37.0,24.0,0.0,30.08,1054.0,,,82.0,,,,,0.0,0.0,,,,,,,,,,,,,,,,,,,0.0,78.0,0.0,0.0,30.3,0.0,,0.0,2.8,,,13.0,0.0,0.0,-0.0,10.4,8.4,,,,,118.0,93.0,120.0,92.0,118.0,97.0,116.0,87.0,,,7.0,254.5,,2.8,4.0,4.998,,,0.653,0.87,+0.0,77.8,,,,,,0.0,2026-04-13 17:49:08-07:00
10.06,1.0,7.0,2026-04-14 00:49:11,37.059,-120.86832,107.0,0.0,169.1,-12.5,,,,,00:49:10,10.7,-0.8,9.9,0.0,19.0,0.1,-0.01,1.0,99.0,-12.0,24.0,0.0,30.08,1061.0,,,82.0,,,,,0.0,0.0,,,,,,,,,,,,,,,,,,,0.0,78.0,0.0,0.0,30.3,0.0,,0.0,2.8,,,13.0,0.0,0.0,-0.0,10.4,8.4,,,,,118.0,93.0,120.0,92.0,118.0,97.0,116.0,87.0,,,7.0,254.5,,2.8,4.0,4.998,,,0.653,0.872,+0.0,77.8,,,,,,0.0,2026-04-13 17:49:08-07:00
11.06,1.0,7.0,2026-04-14 00:49:12,37.059,-120.86832,106.0,0.0,169.1,-12.5,,,,,00:49:11,10.7,-0.8,10.0,0.0,18.0,0.2,-0.01,1.0,99.0,-37.0,24.0,0.0,30.08,1061.0,,,82.0,,,,,0.0,0.0,,,,,,,,,,,,,,,,,,,0.0,78.0,0.0,0.0,30.3,0.0,,0.0,2.8,,,13.0,0.0,0.0,-0.0,10.4,8.4,,,,,118.0,93.0,120.0,92.0,117.0,97.0,116.0,87.0,,,7.0,254.4,,2.8,4.0,4.998,,,0.653,0.872,+0.0,77.8,,,,,,0.0,2026-04-13 17:49:08-07:00
12.06,1.0,7.0,2026-04-14 00:49:13,37.059,-120.86832,105.0,0.0,169.1,-12.5,,,,,00:49:12,10.7,-0.7,10.0,0.0,17.0,0.1,-0.01,1.0,99.0,-16.0,24.0,0.0,30.08,1061.0,,,82.0,,,,,0.0,0.0,,,,,,,,,,,,,,,,,,,0.0,78.0,0.0,0.0,30.3,0.0,,0.0,2.8,,,13.0,0.0,0.0,-0.0,10.4,8.4,,,,,118.0,93.0,120.0,92.0,117.0,97.0,116.0,87.0,,,7.0,254.4,,2.8,4.0,4.998,,,0.653,0.873,+0.0,77.8,,,,,,0.0,2026-04-13 17:49:08-07:00
13.06,1.0,7.0,2026-04-14 00:49:14,37.059,-120.86832,105.0,0.0,169.1,-12.5,,,,,00:49:13,10.6,-0.8,10.0,0.0,17.0,0.1,-0.01,1.0,99.0,-22.0,24.0,0.0,30.08,1059.0,,,82.0,,,,,0.0,0.0,,,,,,,,,,,,,,,,,,,0.0,78.0,0.0,0.0,30.3,0.0,,0.0,2.8,,,13.0,0.0,0.0,-0.0,10.4,8.4,,,,,117.0,93.0,120.0,92.0,117.0,97.0,116.0,87.0,,,7.0,254.4,,2.8,4.0,4.998,,,0.653,0.874,+0.0,77.8,,,,,,0.0,2026-04-13 17:49:08-07:00
14.06,1.0,7.0,2026-04-14 00:49:15,37.059,-120.86832,105.0,0.0,169.1,-12.5,,,,,00:49:14,10.7,-0.7,10.1,0.0,17.0,0.2,-0.01,1.0,99.0,-15.0,24.0,0.0,30.08,1059.0,,,82.0,,,,,0.0,0.0,,,,,,,,,,,,,,,,,,,0.0,78.0,0.0,0.0,30.3,0.0,,0.0,2.8,,,13.0,0.0,0.0,-0.0,10.4,8.4,,,,,117.0,93.0,120.0,92.0,117.0,97.0,116.0,87.0,,,7.0,254.4,,2.8,4.0,4.998,,,0.653,0.874,+0.0,77.8,,,,,,0.0,2026-04-13 17:49:08-07:00
15.06,1.0,7.0,2026-04-14 00:49:16,37.059,-120.86832,104.0,0.0,169.1,-12.5,,,,,00:49:15,10.7,-0.7,10.1,0.0,16.0,0.2,-0.01,1.0,99.0,-52.0,24.0,0.0,30.08,1059.0,,,82.0,,,,,0.0,0.0,,,,,,,,,,,,,,,,,,,0.0,78.0,0.0,0.0,30.3,0.0,,0.0,2.8,,,13.0,0.0,0.0,-0.0,10.4,8.4,,,,,117.0,93.0,120.0,92.0,117.0,97.0,116.0,87.0,,,7.0,254.4,,2.8,4.0,4.998,,,0.653,0.874,+0.0,77.8,,,,,,0.0,2026-04-13 17:49:08-07:00
16.06,1.0,7.0,2026-04-14 00:49:17,37.059,-120.86832,104.0,0.0,169.1,-12.5,,,,,00:49:16,10.7,-0.7,10.1,0.0,14.0,0.1,-0.01,1.0,99.0,-80.0,24.0,0.0,30.08,1057.0,,,82.0,,,,,0.0,0.0,,,,,,,,,,,,,,,,,,,0.0,78.0,0.0,0.0,30.3,0.0,,0.0,2.8,,,13.0,0.0,0.0,-0.0,10.4,8.4,,,,,118.0,93.0,120.0,92.0,117.0,97.0,116.0,87.0,,,7.0,254.4,,2.8,4.0,4.998,,,0.653,0.876,+0.0,77.8,,,,,,0.0,2026-04-13 17:49:08-07:00
17.06,1.0,8.0,2026-04-14 00:49:18,37.05896,-120.86835,123.0,0.0,169.1,-12.5,,,,,00:49:17,10.7,-0.7,10.1,0.0,11.0,0.1,-0.01,1.0,99.0,-117.0,24.0,0.0,30.08,1057.0,,,82.0,,,,,0.0,0.0,,,,,,,,,,,,,,,,,,,0.0,78.0,0.0,0.0,30.3,0.0,,0.0,2.8,,,13.0,0.0,0.0,-0.0,10.4,8.4,,,,,118.0,93.0,120.0,92.0,117.0,97.0,116.0,87.0,,,7.0,254.4,,2.8,4.0,4.998,,,0.653,0.878,+0.0,77.8,,,,,,0.0,2026-04-13 17:49:08-07:00
18.06,1.0,8.0,2026-04-14 00:49:19,37.05898,-120.86833,113.0,0.0,169.1,-12.5,,,,,00:49:18,10.7,-0.7,10.1,0.0,10.0,0.1,-0.01,1.0,99.0,-83.0,24.0,0.0,30.08,1057.0,,,82.0,,,,,0.0,0.0,,,,,,,,,,,,,,,,,,,0.0,78.0,0.0,0.0,30.3,0.0,,0.0,2.8,,,13.0,0.0,0.0,-0.0,10.4,8.4,,,,,117.0,93.0,119.0,92.0,117.0,97.0,116.0,87.0,,,7.0,254.4,,2.8,4.0,4.998,,,0.653,0.879,+0.0,77.8,,,,,,0.0,2026-04-13 17:49:08-07:00
19.06,1.0,8.0,2026-04-14 00:49:20,37.05898,-120.86833,113.0,0.1,169.1,-12.5,,,,,00:49:19,10.7,-0.7,10.1,0.0,8.0,0.1,-0.01,1.0,99.0,-105.0,24.0,0.0,30.08,1059.0,,,82.0,,,,,0.0,0.0,,,,,,,,,,,,,,,,,,,0.0,78.0,0.0,0.0,30.3,0.0,,0.0,2.8,,,13.0,0.0,0.0,-0.0,10.4,8.4,,,,,117.0,93.0,120.0,92.0,117.0,97.0,116.0,88.0,,,7.0,254.4,,2.8,4.0,4.998,,,0.653,0.883,+0.0,77.8,,,,,,0.0,2026-04-13 17:49:08-07:00
20.06,1.0,8.0,2026-04-14 00:49:21,37.05898,-120.86833,114.0,0.0,169.1,-12.5,,,,,00:49:20,10.7,-0.7,10.0,0.0,5.0,0.1,-0.01,1.0,99.0,-138.0,24.0,0.0,30.08,1059.0,,,82.0,,,,,0.0,0.0,,,,,,,,,,,,,,,,,,,0.0,78.0,0.0,0.0,30.3,0.0,,0.0,2.8,,,13.0,0.0,0.0,-0.0,10.4,8.4,,,,,117.0,93.0,119.0,92.0,117.0,97.0,116.0,88.0,,,6.0,254.4,,2.8,4.0,4.998,,,0.653,0.886,+0.0,77.8,,,,,,0.0,2026-04-13 17:49:08-07:00
21.06,1.0,8.0,2026-04-14 00:49:22,37.05898,-120.86833,114.0,0.0,169.1,-12.5,,,,,00:49:21,10.7,-0.7,10.0,0.0,2.0,0.1,-0.01,1.0,99.0,-139.0,24.0,0.0,30.08,1059.0,,,82.0,,,,,0.0,0.0,,,,,,,,,,,,,,,,,,,0.0,78.0,0.0,0.0,30.3,0.0,,0.0,2.8,,,13.0,0.0,0.0,-0.0,10.4,8.4,,,,,117.0,93.0,120.0,92.0,117.0,97.0,116.0,88.0,,,6.0,254.4,,2.8,4.0,4.998,,,0.653,0.887,+0.0,77.8,,,,,,0.0,2026-04-13 17:49:08-07:00
22.06,1.0,8.0,2026-04-14 00:49:23,37.05898,-120.86833,115.0,0.0,169.1,-12.5,,,,,00:49:22,10.7,-0.7,10.0,0.0,0.0,0.1,-0.01,1.0,99.0,-131.0,24.0,0.0,30.08,1058.0,,,82.0,,,,,0.0,0.0,,,,,,,,,,,,,,,,,,,0.0,78.0,0.0,0.0,30.3,0.0,,0.0,2.8,,,13.0,0.0,0.0,-0.0,10.4,8.4,,,,,117.0,93.0,120.0,92.0,117.0,97.0,116.0,88.0,,,6.0,254.4,,2.8,4.0,4.998,,,0.653,0.898,+0.0,77.8,,,,,,0.0,2026-04-13 17:49:08-07:00
23.06,1.0,8.0,2026-04-14 00:49:24,37.05898,-120.86833,116.0,0.0,169.1,-12.5,,,,,00:49:23,10.7,-0.7,10.0,0.0,-1.0,0.1,-0.01,1.0,99.0,-115.0,24.0,0.0,30.08,1057.0,,,82.0,,,,,0.0,0.0,,,,,,,,,,,,,,,,,,,0.0,78.0,0.0,0.0,30.3,0.0,,0.0,2.8,,,13.0,0.0,0.0,-0.0,10.4,8.4,,,,,117.0,93.0,119.0,92.0,117.0,97.0,116.0,88.0,,,6.0,254.4,,2.8,4.0,4.998,,,0.653,0.889,+0.0,77.8,,,,,,0.0,2026-04-13 17:49:08-07:00
24.06,1.0,8.0,2026-04-14 00:49:25,37.05898,-120.86833,117.0,0.0,169.1,-12.5,,,,,00:49:24,10.7,-0.7,10.0,0.0,-2.0,0.1,-0.01,1.0,99.0,-92.0,24.0,0.0,30.08,1055.0,,,82.0,,,,,0.0,0.0,,,,,,,,,,,,,,,,,,,0.0,78.0,0.0,0.0,30.3,0.0,,0.0,2.8,,,13.0,0.0,0.0,-0.0,10.4,8.4,,,,,117.0,93.0,119.0,92.0,117.0,97.0,116.0,88.0,,,6.0,254.4,,2.8,4.0,4.998,,,0.653,0.881,+0.0,77.8,,,,,,0.0,2026-04-13 17:49:08-07:00
25.06,1.0,8.0,2026-04-14 00:49:26,37.05898,-120.86834,118.0,0.0,169.1,-12.5,,,,,00:49:25,10.7,-0.8,10.0,0.0,-4.0,0.1,-0.01,1.0,99.0,-102.0,24.0,0.0,30.08,1053.0,,,82.0,,,,,0.0,0.0,,,,,,,,,,,,,,,,,,,0.0,78.0,0.0,0.0,30.3,0.0,,0.0,2.8,,,13.0,0.0,0.0,-0.0,10.4,8.4,,,,,117.0,93.0,119.0,92.0,117.0,97.0,116.0,88.0,,,6.0,254.4,,2.8,4.0,4.998,,,0.653,0.876,+0.0,77.8,,,,,,0.0,2026-04-13 17:49:08-07:00
26.06,1.0,8.0,2026-04-14 00:49:27,37.05898,-120.86834,118.0,0.0,169.1,-12.5,,,,,00:49:26,10.7,-0.7,10.0,0.0,-5.0,0.1,-0.01,1.0,99.0,-78.0,24.0,0.0,30.08,1052.0,,,82.0,,,,,0.0,0.0,,,,,,,,,,,,,,,,,,,0.0,78.0,0.0,0.0,30.3,0.0,,0.0,2.8,,,42.0,0.0,0.0,-0.0,10.4,8.4,,,,,117.0,93.0,119.0,92.0,117.0,97.0,116.0,88.0,,,6.0,254.4,,2.8,4.0,4.998,,,0.653,0.874,+0.0,77.8,,,,,,0.0,2026-04-13 17:49:08-07:00
27.06,1.0,8.0,2026-04-14 00:49:28,37.05898,-120.86834,119.0,0.0,169.1,-12.5,,,,,00:49:27,10.8,-0.7,10.0,0.0,-7.0,0.1,-0.02,1.0,99.0,-112.0,24.0,0.0,30.08,1049.0,,,82.0,,,,,0.0,0.0,,,,,,,,,,,,,,,,,,,0.0,78.0,0.0,0.0,30.3,0.0,,0.0,2.8,,,42.0,0.0,0.0,-0.0,10.4,8.4,,,,,117.0,93.0,119.0,92.0,117.0,97.0,116.0,88.0,,,6.0,254.4,,2.8,4.0,4.998,,,0.653,0.87,+0.0,77.8,,,,,,0.0,2026-04-13 17:49:08-07:00
28.06,1.0,8.0,2026-04-14 00:49:29,37.05898,-120.86834,120.0,0.0,169.1,-12.5,,,,,00:49:28,10.8,-0.7,10.0,0.0,-7.0,0.1,-0.01,1.0,99.0,-74.0,24.0,0.0,30.08,1049.0,,,82.0,,,,,0.0,0.0,,,,,,,,,,,,,,,,,,,0.0,78.0,0.0,0.0,30.3,0.0,,0.0,2.8,,,42.0,0.0,0.0,-0.0,10.4,8.4,,,,,117.0,93.0,119.0,92.0,117.0,97.0,116.0,88.0,,,6.0,254.4,,2.8,4.0,4.998,,,0.653,0.868,+0.0,77.8,,,,,,0.0,2026-04-13 17:49:08-07:00
29.06,1.0,8.0,2026-04-14 00:49:30,37.05898,-120.86834,120.0,0.0,169.1,-12.5,,,,,00:49:29,10.8,-0.7,10.0,0.0,-8.0,0.1,-0.01,1.0,99.0,-72.0,24.0,0.0,30.08,1048.0,,,82.0,,,,,0.0,0.0,,,,,,,,,,,,,,,,,,,0.0,78.0,0.0,0.0,30.3,0.0,,0.0,2.8,,,42.0,0.0,0.0,-0.0,10.4,8.4,,,,,117.0,93.0,119.0,92.0,117.0,97.0,115.0,88.0,,,6.0,254.4,,2.8,4.0,4.998,,,0.653,0.867,+0.0,77.8,,,,,,0.0,2026-04-13 17:49:08-07:00
30.06,1.0,8.0,2026-04-14 00:49:31,37.05898,-120.86834,121.0,0.0,169.1,-12.5,,,,,00:49:30,10.8,-0.7,10.0,0.0,-9.0,0.1,-0.01,1.0,99.0,-49.0,24.0,0.0,30.08,1047.0,,,82.0,,,,,0.0,0.0,,,,,,,,,,,,,,,,,,,0.0,78.0,0.0,0.0,30.3,0.0,,0.0,2.8,,,42.0,0.0,0.0,-0.0,10.4,8.4,,,,,117.0,93.0,119.0,92.0,117.0,98.0,115.0,88.0,,,6.0,254.4,,2.8,4.0,4.998,,,0.653,0.867,+0.0,77.8,,,,,,0.0,2026-04-13 17:49:08-07:00
31.06,1.0,8.0,2026-04-14 00:49:32,37.05898,-120.86834,121.0,0.0,169.1,-12.5,,,,,00:49:31,10.8,-0.7,10.0,0.0,-10.0,0.1,-0.01,1.0,99.0,-38.0,24.0,0.0,30.08,1046.0,,,82.0,,,,,0.0,0.0,,,,,,,,,,,,,,,,,,,0.0,78.0,0.0,0.0,30.3,0.0,,0.0,2.8,,,42.0,0.0,0.0,-0.0,10.4,8.4,,,,,117.0,93.0,119.0,92.0,117.0,98.0,115.0,88.0,,,6.0,254.4,,2.8,4.0,4.998,,,0.653,0.867,+0.0,77.8,,,,,,0.0,2026-04-13 17:49:08-07:00
32.06,1.0,8.0,2026-04-14 00:49:33,37.05898,-120.86834,122.0,0.0,169.1,-12.5,,,,,00:49:32,10.8,-0.8,9.9,0.0,-11.0,0.1,-0.01,1.0,99.0,-61.0,24.0,0.0,30.08,1045.0,,,82.0,,,,,0.0,0.0,,,,,,,,,,,,,,,,,,,0.0,78.0,0.0,0.0,30.3,0.0,,0.0,2.8,,,42.0,0.0,0.0,-0.0,10.4,8.4,,,,,117.0,94.0,119.0,92.0,117.0,98.0,115.0,88.0,,,6.0,254.4,,2.8,4.0,4.998,,,0.653,0.868,+0.0,77.8,,,,,,0.0,2026-04-13 17:49:08-07:00
33.06,1.0,8.0,2026-04-14 00:49:34,37.05898,-120.86834,122.0,0.0,169.1,-12.5,,,,,00:49:33,10.8,-0.8,9.9,0.0,-12.0,0.1,-0.01,1.0,99.0,-79.0,24.0,0.0,30.08,1044.0,,,82.0,,,,,0.0,0.0,,,,,,,,,,,,,,,,,,,0.0,78.0,0.0,0.0,30.3,0.0,,0.0,2.8,,,42.0,0.0,0.0,0.0,10.4,8.4,,,,,117.0,94.0,119.0,92.0,117.0,98.0,115.0,88.0,,,6.0,254.4,,2.8,4.0,4.998,,,0.653,0.869,+0.0,77.8,,,,,,0.0,2026-04-13 17:49:08-07:00
34.06,1.0,8.0,2026-04-14 00:49:35,37.05898,-120.86834,123.0,0.0,169.1,-12.5,,,,,00:49:34,10.8,-0.8,9.8,0.0,-12.0,0.1,-0.01,1.0,99.0,-50.0,24.0,0.0,30.08,1043.0,,,82.0,,,,,0.0,0.0,,,,,,,,,,,,,,,,,,,0.0,78.0,0.0,0.0,30.3,0.0,,0.0,2.8,,,42.0,0.0,0.0,-0.0,10.4,8.4,,,,,117.0,94.0,119.0,92.0,117.0,98.0,115.0,88.0,,,6.0,254.4,,2.8,4.0,4.998,,,0.653,0.87,+0.0,77.8,,,,,,0.0,2026-04-13 17:49:08-07:00
35.06,1.0,8.0,2026-04-14 00:49:36,37.05898,-120.86834,123.0,0.0,169.1,-12.5,,,,,00:49:35,10.8,-0.8,9.9,0.0,-13.0,0.1,-0.01,1.0,99.0,-51.0,24.0,0.0,30.08,1043.0,,,82.0,,,,,0.0,0.0,,,,,,,,,,,,,,,,,,,0.0,78.0,0.0,0.0,30.3,0.0,,0.0,2.8,,,42.0,0.0,0.0,0.0,10.4,8.4,,,,,117.0,94.0,119.0,92.0,117.0,98.0,115.0,88.0,,,6.0,254.4,,2.8,4.0,4.998,,,0.653,0.873,+0.0,77.8,,,,,,0.0,2026-04-13 17:49:08-07:00
36.06,1.0,8.0,2026-04-14 00:49:37,37.05898,-120.86834,123.0,0.1,169.1,-12.5,,,,,00:49:36,10.8,-0.8,9.8,0.0,-14.0,0.1,-0.01,1.0,99.0,-25.0,24.0,0.0,30.08,1043.0,,,82.0,,,,,0.0,0.0,,,,,,,,,,,,,,,,,,,0.0,78.0,0.0,0.0,30.3,0.0,,0.0,2.8,,,42.0,0.0,0.0,-0.0,10.4,8.4,,,,,117.0,94.0,119.0,92.0,117.0,98.0,115.0,88.0,,,6.0,254.4,,2.8,4.0,4.998,,,0.653,0.874,+0.0,77.8,,,,,,0.0,2026-04-13 17:49:08-07:00
37.06,1.0,8.0,2026-04-14 00:49:38,37.05898,-120.86834,124.0,0.0,169.1,-12.5,,,,,00:49:37,10.8,-0.8,9.8,0.0,-14.0,0.1,-0.01,1.0,99.0,1.0,24.0,0.0,30.08,1041.0,,,82.0,,,,,0.0,0.0,,,,,,,,,,,,,,,,,,,0.0,78.0,0.0,0.0,30.3,0.0,,0.0,2.8,,,42.0,0.0,0.0,-0.0,10.4,8.4,,,,,117.0,94.0,119.0,92.0,117.0,98.0,115.0,88.0,,,6.0,254.4,,2.8,4.0,4.998,,,0.653,0.875,+0.0,77.8,,,,,,0.0,2026-04-13 17:49:08-07:00
38.06,1.0,8.0,2026-04-14 00:49:39,37.05898,-120.86834,125.0,0.1,169.1,-12.5,,,,,00:49:38,10.8,-0.8,9.8,0.0,-14.0,0.1,-0.01,1.0,99.0,5.0,24.0,0.0,30.08,1041.0,,,82.0,,,,,0.0,0.0,,,,,,,,,,,,,,,,,,,0.0,78.0,0.0,0.0,30.3,0.0,,0.0,2.8,,,42.0,0.0,0.0,-0.0,10.4,8.4,,,,,117.0,94.0,119.0,92.0,116.0,98.0,115.0,88.0,,,6.0,254.4,,2.8,4.0,4.998,,,0.653,0.879,+0.0,77.8,,,,,,0.0,2026-04-13 17:49:08-07:00
39.06,1.0,8.0,2026-04-14 00:49:40,37.05898,-120.86834,126.0,0.0,169.1,-12.5,,,,,00:49:39,10.7,-0.7,9.8,0.0,-14.0,0.1,-0.01,1.0,99.0,16.0,24.0,0.0,30.08,1041.0,,,82.0,,,,,0.0,0.0,,,,,,,,,,,,,,,,,,,0.0,78.0,0.0,0.0,30.3,0.0,,0.0,2.9,,,42.0,0.0,0.0,-0.0,10.4,8.4,,,,,117.0,94.0,119.0,92.0,116.0,98.0,115.0,88.0,,,6.0,254.4,,2.9,4.0,4.998,,,0.653,0.88,+0.0,77.8,,,,,,0.0,2026-04-13 17:49:08-07:00
40.06,1.0,8.0,2026-04-14 00:49:41,37.05898,-120.86834,127.0,0.0,169.1,-12.5,,,,,00:49:40,10.7,-0.7,9.8,0.0,-14.0,0.1,-0.01,1.0,99.0,-20.0,24.0,0.0,30.08,1041.0,,,82.0,,,,,0.0,0.0,,,,,,,,,,,,,,,,,,,0.0,78.0,0.0,0.0,30.3,0.0,,0.0,2.9,,,42.0,0.0,0.0,-0.0,10.4,8.4,,,,,117.0,94.0,119.0,92.0,116.0,98.0,115.0,88.0,,,7.0,254.4,,2.9,4.0,4.998,,,0.653,0.887,+0.0,77.8,,,,,,0.0,2026-04-13 17:49:08-07:00
41.06,1.0,8.0,2026-04-14 00:49:42,37.05898,-120.86834,128.0,0.0,169.1,-12.5,,,,,00:49:41,10.8,-0.7,9.8,0.0,-14.0,0.1,-0.02,1.0,99.0,-37.0,24.0,0.0,30.08,1041.0,,,82.0,,,,,0.0,0.0,,,,,,,,,,,,,,,,,,,0.0,78.0,0.0,0.0,30.3,0.0,,0.0,2.9,,,42.0,0.0,0.0,-0.0,10.4,8.4,,,,,117.0,94.0,119.0,92.0,116.0,98.0,115.0,88.0,,,7.0,254.4,,2.9,4.0,2.687,,,0.653,0.897,+0.0,77.8,,,,,,0.0,2026-04-13 17:49:08-07:00
42.06,1.0,8.0,2026-04-14 00:49:43,37.05898,-120.86834,129.0,0.0,169.1,-12.5,,,,,00:49:42,10.8,-0.7,9.8,0.0,-15.0,0.1,-0.01,1.0,99.0,15.0,24.0,0.0,30.08,1041.0,,,82.0,,,,,0.0,0.0,,,,,,,,,,,,,,,,,,,0.0,78.0,0.0,0.0,30.3,0.0,,0.0,2.9,,,42.0,0.0,0.0,-0.0,10.4,8.4,,,,,117.0,94.0,119.0,92.0,116.0,98.0,115.0,88.0,,,7.0,237.4,,2.9,4.0,0.002,,,0.653,0.912,+0.0,77.8,,,,,,0.0,2026-04-13 17:49:08-07:00
43.06,1.0,8.0,2026-04-14 00:49:44,37.05898,-120.86834,130.0,0.0,169.1,-12.5,,,,,00:49:43,10.8,-0.8,9.8,0.0,-15.0,0.1,-0.01,1.0,99.0,-16.0,24.0,0.0,30.08,1040.0,,,82.0,,,,,0.0,0.0,,,,,,,,,,,,,,,,,,,0.0,78.0,0.0,0.0,30.3,0.0,,0.0,2.9,,,42.0,0.0,0.0,-0.0,10.4,8.4,,,,,117.0,94.0,119.0,92.0,116.0,98.0,115.0,88.0,,,7.0,184.7,,2.9,4.0,0.0,,,0.653,0.886,+0.0,77.8,,,,,,0.0,2026-04-13 17:49:08-07:00
44.06,1.0,8.0,2026-04-14 00:49:45,37.05898,-120.86834,131.0,0.0,169.1,-12.5,,,,,00:49:44,10.8,-0.8,9.9,0.0,-15.0,0.1,-0.02,1.0,99.0,-11.0,24.0,0.0,30.08,1040.0,,,82.0,,,,,0.0,0.0,,,,,,,,,,,,,,,,,,,0.0,78.0,0.0,0.0,30.3,0.0,,0.0,2.9,,,42.0,0.0,0.0,0.0,10.4,8.4,,,,,117.0,94.0,119.0,92.0,116.0,98.0,115.0,88.0,,,7.0,143.8,,2.9,4.0,0.0,,,0.653,0.883,+0.0,77.8,,,,,,0.0,2026-04-13 17:49:08-07:00
45.06,1.0,8.0,2026-04-14 00:49:46,37.05898,-120.86834,132.0,0.0,169.1,-12.5,,,,,00:49:45,10.8,-0.8,9.8,0.0,-15.0,0.1,-0.01,1.0,99.0,-40.0,24.0,0.0,30.08,1041.0,,,82.0,,,,,0.0,0.0,,,,,,,,,,,,,,,,,,,0.0,78.0,0.0,0.0,30.3,0.0,,0.0,2.9,,,42.0,0.0,0.0,0.0,10.4,8.4,,,,,116.0,94.0,119.0,92.0,116.0,98.0,115.0,88.0,,,7.0,112.0,,2.9,4.0,0.0,,,0.653,0.883,+0.0,77.8,,,,,,0.0,2026-04-13 17:49:08-07:00
46.06,1.0,8.0,2026-04-14 00:49:47,37.05898,-120.86834,133.0,0.0,169.1,-12.5,,,,,00:49:46,10.8,-0.9,9.8,0.0,-16.0,0.1,-0.01,1.0,99.0,-43.0,24.0,0.0,30.08,1041.0,,,82.0,,,,,0.0,0.0,,,,,,,,,,,,,,,,,,,0.0,78.0,0.0,0.0,30.3,0.0,,0.0,2.9,,,42.0,0.0,0.0,-0.0,10.4,8.4,,,,,116.0,94.0,119.0,92.0,116.0,98.0,115.0,88.0,,,7.0,87.3,,2.9,4.0,0.0,,,0.653,0.883,+0.0,77.8,,,,,,0.0,2026-04-13 17:49:08-07:00
47.06,1.0,8.0,2026-04-14 00:49:48,37.05898,-120.86834,133.0,0.0,169.1,-12.5,,,,,00:49:47,10.8,-0.8,9.8,0.0,-16.0,0.1,-0.01,1.0,99.0,-35.0,24.0,0.0,30.08,1041.0,,,82.0,,,,,0.0,0.0,,,,,,,,,,,,,,,,,,,0.0,78.0,0.0,0.0,30.3,0.0,,0.0,2.9,,,42.0,0.0,0.0,-0.0,10.4,8.4,,,,,116.0,94.0,118.0,92.0,116.0,98.0,115.0,88.0,,,7.0,68.0,,2.9,4.0,0.0,,,0.653,0.876,+0.0,77.8,,,,,,0.0,2026-04-13 17:49:08-07:00
48.06,1.0,9.0,2026-04-14 00:49:49,37.059,-120.86832,150.0,0.0,169.1,-12.5,,,,,00:49:48,10.8,-0.9,9.8,0.0,-17.0,0.1,-0.01,1.0,99.0,-43.0,24.0,0.0,30.08,1039.0,,,82.0,,,,,0.0,0.0,,,,,,,,,,,,,,,,,,,0.0,78.0,0.0,0.0,30.3,0.0,,0.0,2.9,,,42.0,0.0,0.0,-0.0,10.4,8.4,,,,,117.0,94.0,119.0,92.0,116.0,98.0,115.0,88.0,,,7.0,53.1,,2.9,4.0,0.0,,,0.653,0.874,+0.0,77.8,,,,,,0.0,2026-04-13 17:49:08-07:00
49.06,1.0,9.0,2026-04-14 00:49:50,37.05898,-120.86835,132.0,0.0,169.1,-12.5,,,,,00:49:49,10.8,-0.9,9.8,0.0,-18.0,0.1,-0.01,1.0,99.0,-66.0,24.0,0.0,30.08,1039.0,,,82.0,,,,,0.0,0.0,,,,,,,,,,,,,,,,,,,0.0,78.0,0.0,0.0,30.3,0.0,,0.0,2.9,,,42.0,0.0,0.0,-0.0,10.4,8.4,,,,,116.0,94.0,119.0,92.0,116.0,98.0,115.0,88.0,,,7.0,41.5,,2.9,4.0,0.0,,,0.653,0.874,+0.0,77.8,,,,,,0.0,2026-04-13 17:49:08-07:00
50.06,1.0,9.0,2026-04-14 00:49:51,37.05898,-120.86835,133.0,0.0,169.1,-12.5,,,,,00:49:50,10.8,-0.8,9.7,0.0,-20.0,0.1,-0.02,1.0,99.0,-60.0,24.0,0.0,30.08,1039.0,,,82.0,,,,,0.0,0.0,,,,,,,,,,,,,,,,,,,0.0,78.0,0.0,0.0,30.3,0.0,,0.0,2.9,,,42.0,0.0,0.0,-0.0,10.4,8.4,,,,,116.0,94.0,118.0,92.0,116.0,98.0,115.0,88.0,,,7.0,32.5,,2.9,4.0,0.001,,,0.653,0.874,+0.0,77.8,,,,,,0.0,2026-04-13 17:49:08-07:00
51.06,1.0,9.0,2026-04-14 00:49:52,37.05898,-120.86835,135.0,0.0,169.1,-12.5,,,,,00:49:51,10.8,-0.8,9.7,0.0,-21.0,0.1,-0.01,1.0,99.0,-75.0,24.0,0.0,30.08,1045.0,,,82.0,,,,,0.0,0.0,,,,,,,,,,,,,,,,,,,0.0,78.0,0.0,0.0,30.3,0.0,,0.0,2.9,,,42.0,0.0,0.0,0.0,10.4,8.4,,,,,116.0,94.0,118.0,92.0,116.0,98.0,115.0,88.0,,,7.0,25.4,,2.9,4.0,0.001,,,0.653,0.874,+0.0,77.8,,,,,,0.0,2026-04-13 17:49:08-07:00
52.06,1.0,9.0,2026-04-14 00:49:53,37.05898,-120.86835,136.0,0.0,169.1,-12.5,,,,,00:49:52,10.8,-0.8,9.7,0.0,-22.0,0.1,-0.02,1.0,99.0,-80.0,24.0,0.0,30.08,1045.0,,,82.0,,,,,0.0,0.0,,,,,,,,,,,,,,,,,,,0.0,78.0,0.0,0.0,30.3,0.0,,0.0,2.9,,,42.0,0.0,0.0,-0.0,10.4,8.4,,,,,116.0,94.0,118.0,92.0,116.0,98.0,115.0,88.0,,,7.0,20.0,,2.9,4.0,0.0,,,0.653,0.874,+0.0,77.8,,,,,,0.0,2026-04-13 17:49:08-07:00
53.06,1.0,9.0,2026-04-14 00:49:54,37.05898,-120.86835,137.0,0.0,169.1,-12.5,,,,,00:49:53,10.8,-0.8,9.6,0.0,-24.0,0.1,-0.01,1.0,99.0,-79.0,24.0,0.0,30.08,1045.0,,,82.0,,,,,0.0,0.0,,,,,,,,,,,,,,,,,,,0.0,78.0,0.0,0.0,30.3,0.0,,0.0,2.9,,,42.0,0.0,0.0,-0.0,10.4,8.4,,,,,116.0,94.0,118.0,92.0,116.0,98.0,115.0,88.0,,,7.0,15.8,,2.9,4.0,0.0,,,0.653,0.874,+0.0,77.8,,,,,,0.0,2026-04-13 17:49:08-07:00
54.06,1.0,9.0,2026-04-14 00:49:55,37.05898,-120.86835,138.0,0.0,169.1,-12.5,,,,,00:49:54,10.8,-0.8,9.6,0.0,-24.0,0.1,-0.01,1.0,99.0,-34.0,24.0,0.0,30.08,1040.0,,,82.0,,,,,0.0,0.0,,,,,,,,,,,,,,,,,,,0.0,78.0,0.0,0.0,30.3,0.0,,0.0,2.9,,,42.0,0.0,0.0,-0.0,10.4,8.4,,,,,116.0,94.0,118.0,92.0,116.0,98.0,115.0,88.0,,,7.0,12.5,,2.9,4.0,0.0,,,0.653,0.869,+0.0,77.8,,,,,,0.0,2026-04-13 17:49:08-07:00
55.06,1.0,9.0,2026-04-14 00:49:56,37.05899,-120.86835,139.0,0.0,169.1,-12.5,,,,,00:49:55,10.8,-0.8,9.6,0.0,-24.0,0.1,-0.01,1.0,99.0,-18.0,24.0,0.0,30.08,1040.0,,,82.0,,,,,0.0,0.0,,,,,,,,,,,,,,,,,,,0.0,78.0,0.0,0.0,30.3,0.0,,0.0,2.9,,,42.0,0.0,0.0,-0.0,10.4,8.4,,,,,116.0,94.0,118.0,92.0,116.0,98.0,115.0,88.0,,,7.0,9.9,,2.9,4.0,0.0,,,0.653,0.864,+0.0,77.8,,,,,,0.0,2026-04-13 17:49:08-07:00
56.06,1.0,9.0,2026-04-14 00:49:57,37.05899,-120.86835,139.0,0.0,169.1,-12.5,,,,,00:49:56,10.8,-0.9,9.7,0.0,-24.0,0.1,-0.01,1.0,99.0,-17.0,24.0,0.0,30.08,1040.0,,,82.0,,,,,0.0,0.0,,,,,,,,,,,,,,,,,,,0.0,78.0,0.0,0.0,30.3,0.0,,0.0,2.9,,,42.0,0.0,0.0,-0.0,10.4,8.4,,,,,116.0,94.0,118.0,92.0,115.0,98.0,114.0,88.0,,,7.0,7.9,,2.9,4.0,0.0,,,0.653,0.865,+0.0,77.8,,,,,,0.0,2026-04-13 17:49:08-07:00
57.06,1.0,9.0,2026-04-14 00:49:58,37.05899,-120.86835,140.0,0.0,169.1,-12.5,,,,,00:49:57,10.8,-0.8,9.7,0.0,-24.0,0.1,-0.01,1.0,99.0,-14.0,24.0,0.0,30.08,1040.0,,,82.0,,,,,0.0,0.0,,,,,,,,,,,,,,,,,,,0.0,78.0,0.0,0.0,30.3,0.0,,0.0,2.9,,,42.0,0.0,0.0,-0.0,10.4,8.4,,,,,116.0,94.0,118.0,92.0,115.0,98.0,115.0,88.0,,,7.0,6.4,,2.9,4.0,0.0,,,0.653,0.864,+0.0,77.8,,,,,,0.0,2026-04-13 17:49:08-07:00
58.06,1.0,9.0,2026-04-14 00:49:59,37.05899,-120.86835,141.0,0.0,169.1,-12.5,,,,,00:49:58,10.8,-0.8,9.7,0.0,-24.0,0.1,-0.01,1.0,99.0,-20.0,24.0,0.0,30.08,1040.0,,,82.0,,,,,0.0,0.0,,,,,,,,,,,,,,,,,,,0.0,78.0,0.0,0.0,30.3,0.0,,0.0,2.9,,,42.0,0.0,0.0,-0.0,10.4,8.4,,,,,116.0,94.0,118.0,92.0,116.0,98.0,115.0,89.0,,,7.0,5.2,,2.9,4.0,0.0,,,0.653,0.863,+0.0,77.8,,,,,,0.0,2026-04-13 17:49:08-07:00
59.06,1.0,9.0,2026-04-14 00:50:00,37.05899,-120.86835,142.0,0.0,169.1,-12.5,,,,,00:49:59,10.8,-0.8,9.7,0.0,-25.0,0.1,-0.01,1.0,99.0,-48.0,24.0,0.0,30.08,1040.0,,,82.0,,,,,0.0,0.0,,,,,,,,,,,,,,,,,,,0.0,78.0,0.0,0.0,30.3,0.0,,0.0,2.9,,,42.0,0.0,0.0,0.0,10.4,8.4,,,,,116.0,94.0,118.0,92.0,115.0,98.0,115.0,89.0,,,7.0,4.2,,2.9,4.0,0.0,,,0.653,0.862,+0.0,77.8,,,,,,0.0,2026-04-13 17:49:08-07:00
60.06,1.0,9.0,2026-04-14 00:50:01,37.05899,-120.86835,142.0,0.0,169.1,-12.5,,,,,00:50:00,10.8,-0.9,9.7,0.0,-25.0,0.1,-0.01,1.0,99.0,-20.0,24.0,0.0,30.08,1040.0,,,82.0,,,,,0.0,0.0,,,,,,,,,,,,,,,,,,,0.0,78.0,0.0,0.0,30.3,0.0,,0.0,2.9,,,42.0,0.0,0.0,-0.0,10.4,8.4,,,,,116.0,94.0,118.0,92.0,115.0,98.0,114.0,89.0,,,7.0,3.5,,2.9,4.0,0.0,,,0.653,0.859,+0.0,77.8,,,,,,0.0,2026-04-13 17:49:08-07:00
61.06,1.0,9.0,2026-04-14 00:50:02,37.05899,-120.86835,143.0,0.0,169.1,-12.5,,,,,00:50:01,10.8,-0.9,9.6,0.0,-25.0,0.1,-0.01,1.0,99.0,12.0,24.0,0.0,30.08,1048.0,,,82.0,,,,,0.0,0.0,,,,,,,,,,,,,,,,,,,0.0,78.0,0.0,0.0,30.3,0.0,,0.0,2.9,,,42.0,0.0,0.0,0.0,10.4,8.4,,,,,116.0,94.0,118.0,92.0,115.0,98.0,114.0,89.0,,,7.0,2.9,,2.9,4.0,0.0,,,0.653,0.861,+0.0,77.8,,,,,,0.0,2026-04-13 17:49:08-07:00
62.06,1.0,9.0,2026-04-14 00:50:03,37.05899,-120.86835,143.0,0.0,169.1,-12.5,,,,,00:50:02,10.8,-0.9,9.6,0.0,-25.0,0.1,-0.01,1.0,99.0,5.0,24.0,0.0,30.08,1048.0,,,82.0,,,,,0.0,0.0,,,,,,,,,,,,,,,,,,,0.0,78.0,0.0,0.0,30.3,0.0,,0.0,2.9,,,42.0,0.0,0.0,0.0,10.4,8.4,,,,,116.0,94.0,118.0,92.0,115.0,98.0,114.0,89.0,,,7.0,2.5,,2.9,4.0,0.0,,,0.653,0.859,+0.0,77.8,,,,,,0.0,2026-04-13 17:49:08-07:00
63.06,1.0,9.0,2026-04-14 00:50:04,37.05899,-120.86835,144.0,0.0,169.1,-12.5,,,,,00:50:03,10.8,-0.9,9.6,0.0,-25.0,0.1,-0.01,1.0,99.0,5.0,24.0,0.0,30.08,1048.0,,,82.0,,,,,0.0,0.0,,,,,,,,,,,,,,,,,,,0.0,78.0,0.0,0.0,30.3,0.0,,0.0,2.9,,,42.0,0.0,0.0,-0.0,10.4,8.4,,,,,116.0,94.0,118.0,92.0,115.0,98.0,114.0,89.0,,,7.0,2.2,,2.9,4.0,0.0,,,0.653,0.859,+0.0,77.8,,,,,,0.0,2026-04-13 17:49:08-07:00
64.06,1.0,9.0,2026-04-14 00:50:05,37.05899,-120.86835,144.0,0.0,169.1,-12.5,,,,,00:50:04,10.8,-0.9,9.6,0.0,-25.0,0.1,-0.01,1.0,99.0,23.0,24.0,0.0,30.08,1039.0,,,82.0,,,,,0.0,0.0,,,,,,,,,,,,,,,,,,,0.0,78.0,0.0,0.0,30.3,0.0,,0.0,2.9,,,42.0,0.0,0.0,-0.0,10.4,8.4,,,,,116.0,94.0,118.0,92.0,115.0,98.0,114.0,88.0,,,7.0,1.9,,2.9,4.0,0.0,,,0.653,0.859,+0.0,77.8,,,,,,0.0,2026-04-13 17:49:08-07:00
65.06,1.0,9.0,2026-04-14 00:50:06,37.05899,-120.86835,144.0,0.0,169.1,-12.5,,,,,00:50:05,10.8,-0.8,9.6,0.0,-25.0,0.1,-0.01,1.0,99.0,41.0,24.0,0.0,30.08,1039.0,,,82.0,,,,,0.0,0.0,,,,,,,,,,,,,,,,,,,0.0,78.0,0.0,0.0,30.3,0.0,,0.0,2.9,,,42.0,0.0,0.0,-0.0,10.4,8.4,,,,,116.0,94.0,118.0,92.0,115.0,98.0,114.0,89.0,,,7.0,1.7,,2.9,4.0,0.0,,,0.653,0.858,+0.0,77.8,,,,,,0.0,2026-04-13 17:49:08-07:00
66.06,1.0,9.0,2026-04-14 00:50:07,37.05899,-120.86835,145.0,0.0,169.1,-12.5,,,,,00:50:06,10.8,-0.8,9.7,0.0,-25.0,0.1,-0.01,1.0,99.0,14.0,24.0,0.0,30.08,1039.0,,,82.0,,,,,0.0,0.0,,,,,,,,,,,,,,,,,,,0.0,78.0,0.0,0.0,30.3,0.0,,0.0,2.9,,,42.0,0.0,0.0,-0.0,10.4,8.4,,,,,116.0,94.0,118.0,92.0,115.0,99.0,114.0,89.0,,,7.0,1.6,,2.9,4.0,0.0,,,0.653,0.858,+0.0,77.8,,,,,,0.0,2026-04-13 17:49:08-07:00
67.06,1.0,9.0,2026-04-14 00:50:08,37.05899,-120.86835,145.0,0.0,169.1,-12.5,,,,,00:50:07,10.8,-0.9,9.7,0.0,-25.0,0.1,-0.01,1.0,99.0,6.0,24.0,0.0,30.08,1049.0,,,82.0,,,,,0.0,0.0,,,,,,,,,,,,,,,,,,,0.0,78.0,0.0,0.0,30.3,0.0,,0.0,2.9,,,42.0,0.0,0.0,-0.0,10.4,8.4,,,,,116.0,95.0,118.0,92.0,115.0,99.0,114.0,89.0,,,7.0,1.4,,2.9,4.0,0.0,,,0.653,0.858,+0.0,77.8,,,,,,0.0,2026-04-13 17:49:08-07:00
68.06,1.0,9.0,2026-04-14 00:50:09,37.05899,-120.86836,157.0,0.0,169.1,-12.5,,,,,00:50:08,10.8,-0.8,9.7,0.0,-25.0,0.1,-0.01,1.0,99.0,-17.0,24.0,0.0,30.08,1049.0,,,82.0,,,,,0.0,0.0,,,,,,,,,,,,,,,,,,,0.0,78.0,0.0,0.0,30.3,0.0,,0.0,2.9,,,42.0,0.0,0.0,-0.0,10.4,8.4,,,,,115.0,94.0,118.0,92.0,115.0,98.0,114.0,88.0,,,7.0,1.3,,2.9,4.0,0.0,,,0.653,0.858,+0.0,77.8,,,,,,0.0,2026-04-13 17:49:08-07:00
69.06,1.0,9.0,2026-04-14 00:50:10,37.05899,-120.86836,156.0,0.0,169.1,-12.5,,,,,00:50:09,10.8,-0.8,9.8,0.0,-25.0,0.1,-0.02,1.0,99.0,36.0,24.0,0.0,30.08,1049.0,,,82.0,,,,,0.0,0.0,,,,,,,,,,,,,,,,,,,0.0,78.0,0.0,0.0,30.3,0.0,,0.0,2.9,,,42.0,0.0,0.0,0.0,10.4,8.4,,,,,116.0,94.0,118.0,92.0,115.0,99.0,114.0,89.0,,,7.0,1.2,,2.9,4.0,0.0,,,0.653,0.858,+0.0,77.8,,,,,,0.0,2026-04-13 17:49:08-07:00
70.06,1.0,9.0,2026-04-14 00:50:11,37.05899,-120.86836,156.0,0.0,169.1,-12.5,,,,,00:50:10,10.8,-0.8,9.8,0.0,-25.0,0.1,-0.01,1.0,99.0,60.0,24.0,0.0,30.08,1049.0,,,82.0,,,,,0.0,0.0,,,,,,,,,,,,,,,,,,,0.0,78.0,0.0,0.0,30.3,0.0,,0.0,2.9,,,42.0,0.0,0.0,-0.0,10.4,8.4,,,,,116.0,95.0,118.0,92.0,115.0,99.0,114.0,89.0,,,7.0,1.2,,2.9,4.0,0.0,,,0.653,0.858,+0.0,77.8,,,,,,0.0,2026-04-13 17:49:08-07:00
71.06,1.0,9.0,2026-04-14 00:50:12,37.05899,-120.86836,156.0,0.0,169.1,-12.5,,,,,00:50:11,10.8,-0.8,9.8,0.0,-25.0,0.1,-0.01,1.0,99.0,30.0,24.0,0.0,30.08,1049.0,,,82.0,,,,,0.0,0.0,,,,,,,,,,,,,,,,,,,0.0,78.0,0.0,0.0,30.3,0.0,,0.0,2.9,,,42.0,0.0,0.0,0.0,10.4,8.4,,,,,115.0,94.0,118.0,92.0,115.0,99.0,114.0,89.0,,,7.0,1.1,,2.9,4.0,0.0,,,0.653,0.858,+0.0,77.8,,,,,,0.0,2026-04-13 17:49:08-07:00
72.06,1.0,9.0,2026-04-14 00:50:13,37.05899,-120.86836,156.0,0.0,169.1,-12.5,,,,,00:50:12,10.8,-0.8,9.8,0.0,-25.0,0.1,-0.01,1.0,99.0,35.0,24.0,0.0,30.08,1049.0,,,82.0,,,,,0.0,0.0,,,,,,,,,,,,,,,,,,,0.0,78.0,0.0,0.0,30.3,0.0,,0.0,2.9,,,42.0,0.0,0.0,0.0,10.4,8.4,,,,,115.0,94.0,118.0,92.0,115.0,99.0,114.0,89.0,,,7.0,1.1,,2.9,4.0,0.0,,,0.653,0.858,+0.0,77.8,,,,,,0.0,2026-04-13 17:49:08-07:00
73.06,1.0,9.0,2026-04-14 00:50:14,37.05899,-120.86836,155.0,0.0,169.1,-12.5,,,,,00:50:13,10.9,-0.8,9.8,0.0,-25.0,0.1,-0.01,1.0,99.0,34.0,24.0,0.0,30.08,1049.0,,,82.0,,,,,0.0,0.0,,,,,,,,,,,,,,,,,,,0.0,78.0,0.0,0.0,30.3,0.0,,0.0,2.9,,,42.0,0.0,0.0,0.0,10.4,8.4,,,,,115.0,94.0,118.0,92.0,115.0,99.0,114.0,89.0,,,7.0,1.1,,2.9,4.0,0.0,,,0.653,0.858,+0.0,77.8,,,,,,0.0,2026-04-13 17:49:08-07:00
74.06,1.0,9.0,2026-04-14 00:50:15,37.05899,-120.86836,155.0,0.0,169.1,-12.5,,,,,00:50:14,10.9,-0.9,9.7,0.0,-25.0,0.1,-0.01,1.0,99.0,48.0,24.0,0.0,30.08,1049.0,,,82.0,,,,,0.0,0.0,,,,,,,,,,,,,,,,,,,0.0,78.0,0.0,0.0,30.3,0.0,,0.0,2.9,,,42.0,0.0,0.0,0.0,10.4,8.4,,,,,115.0,95.0,118.0,92.0,115.0,99.0,114.0,89.0,,,7.0,1.0,,2.9,4.0,0.0,,,0.653,0.858,+0.0,77.8,,,,,,0.0,2026-04-13 17:49:08-07:00
75.06,1.0,9.0,2026-04-14 00:50:16,37.05899,-120.86836,154.0,0.0,169.1,-12.5,,,,,00:50:15,10.8,-0.8,9.7,0.0,-25.0,0.1,-0.01,1.0,99.0,34.0,24.0,0.0,30.08,1049.0,,,82.0,,,,,0.0,0.0,,,,,,,,,,,,,,,,,,,0.0,78.0,0.0,0.0,30.3,0.0,,0.0,2.9,,,42.0,0.0,0.0,0.0,10.4,8.4,,,,,115.0,95.0,117.0,92.0,115.0,99.0,114.0,89.0,,,7.0,1.0,,2.9,4.0,0.0,,,0.653,0.858,+0.0,77.8,,,,,,0.0,2026-04-13 17:49:08-07:00
76.06,1.0,9.0,2026-04-14 00:50:17,37.05899,-120.86836,154.0,0.0,169.1,-12.5,,,,,00:50:16,10.8,-0.8,9.7,0.0,-25.0,0.1,-0.01,1.0,99.0,25.0,24.0,0.0,30.08,1050.0,,,82.0,,,,,0.0,0.0,,,,,,,,,,,,,,,,,,,0.0,78.0,0.0,0.0,30.3,0.0,,0.0,2.9,,,42.0,0.0,0.0,-0.0,10.4,8.4,,,,,115.0,94.0,117.0,92.0,114.0,99.0,114.0,89.0,,,7.0,1.0,,2.9,4.0,0.0,,,0.653,0.858,+0.0,77.8,,,,,,0.0,2026-04-13 17:49:08-07:00
77.06,1.0,9.0,2026-04-14 00:50:18,37.05899,-120.86836,153.0,0.0,169.1,-12.5,,,,,00:50:17,10.9,-0.8,9.7,0.0,-24.0,0.1,-0.01,1.0,99.0,58.0,24.0,0.0,30.08,1051.0,,,82.0,,,,,0.0,0.0,,,,,,,,,,,,,,,,,,,0.0,78.0,0.0,0.0,30.3,0.0,,0.0,2.9,,,42.0,0.0,0.0,0.0,10.4,8.4,,,,,115.0,94.0,117.0,92.0,114.0,99.0,114.0,89.0,,,7.0,1.0,,2.9,4.0,0.0,,,0.653,0.858,+0.0,77.8,,,,,,0.0,2026-04-13 17:49:08-07:00
78.06,1.0,9.0,2026-04-14 00:50:19,37.05899,-120.86836,153.0,0.0,169.1,-12.5,,,,,00:50:18,10.9,-0.8,9.8,0.0,-23.0,0.1,-0.01,1.0,99.0,65.0,24.0,0.0,30.08,1052.0,,,82.0,,,,,0.0,0.0,,,,,,,,,,,,,,,,,,,0.0,78.0,0.0,0.0,30.3,0.0,,0.0,2.9,,,42.0,0.0,0.0,0.0,10.4,8.4,,,,,115.0,94.0,117.0,92.0,114.0,99.0,114.0,89.0,,,7.0,1.0,,2.9,4.0,0.0,,,0.653,0.858,+0.0,77.8,,,,,,0.0,2026-04-13 17:49:08-07:00
79.06,1.0,9.0,2026-04-14 00:50:20,37.05899,-120.86836,152.0,0.0,169.1,-12.5,,,,,00:50:19,10.9,-0.8,9.8,0.0,-22.0,0.1,-0.01,1.0,99.0,51.0,24.0,0.0,30.08,1053.0,,,82.0,,,,,0.0,0.0,,,,,,,,,,,,,,,,,,,0.0,78.0,0.0,0.0,30.3,0.0,,0.0,2.9,,,42.0,0.0,0.0,0.0,10.4,8.4,,,,,115.0,95.0,117.0,92.0,115.0,99.0,114.0,89.0,,,7.0,1.0,,2.9,4.0,0.0,,,0.653,0.858,+0.0,77.8,,,,,,0.0,2026-04-13 17:49:08-07:00
80.06,1.0,9.0,2026-04-14 00:50:21,37.05899,-120.86836,152.0,0.0,169.1,-12.5,,,,,00:50:20,10.9,-0.8,9.8,0.0,-22.0,0.1,-0.01,1.0,99.0,14.0,24.0,0.0,30.08,1053.0,,,82.0,,,,,0.0,0.0,,,,,,,,,,,,,,,,,,,0.0,78.0,0.0,0.0,30.3,0.0,,0.0,2.9,,,42.0,0.0,0.0,0.0,10.4,8.4,,,,,115.0,94.0,117.0,92.0,114.0,99.0,114.0,89.0,,,7.0,1.0,,2.9,4.0,0.0,,,0.653,0.858,+0.0,77.8,,,,,,0.0,2026-04-13 17:49:08-07:00
81.06,1.0,9.0,2026-04-14 00:50:22,37.05899,-120.86836,152.0,0.0,169.1,-12.5,,,,,00:50:21,10.9,-0.8,9.7,0.0,-22.0,0.1,-0.01,1.0,99.0,9.0,24.0,0.0,30.08,1053.0,,,82.0,,,,,0.0,0.0,,,,,,,,,,,,,,,,,,,0.0,78.0,0.0,0.0,30.3,0.0,,0.0,2.9,,,42.0,0.0,0.0,0.0,10.4,8.4,,,,,115.0,95.0,117.0,92.0,114.0,99.0,114.0,89.0,,,7.0,1.0,,2.9,4.0,0.0,,,0.653,0.857,+0.0,77.8,,,,,,0.0,2026-04-13 17:49:08-07:00
82.06,1.0,9.0,2026-04-14 00:50:23,37.05899,-120.86836,151.0,0.0,169.1,-12.5,,,,,00:50:22,10.8,-0.8,9.7,0.0,-22.0,0.1,-0.01,1.0,99.0,-7.0,24.0,0.0,30.08,1062.0,,,82.0,,,,,0.0,0.0,,,,,,,,,,,,,,,,,,,0.0,78.0,0.0,0.0,30.3,0.0,,0.0,2.9,,,42.0,0.0,0.0,-0.0,10.4,8.4,,,,,115.0,95.0,117.0,92.0,114.0,99.0,114.0,89.0,,,7.0,1.0,,2.9,4.0,0.0,,,0.653,0.858,+0.0,77.8,,,,,,0.0,2026-04-13 17:49:08-07:00
83.06,1.0,9.0,2026-04-14 00:50:24,37.05899,-120.86836,151.0,0.0,169.1,-12.5,,,,,00:50:23,10.9,-0.8,9.8,0.0,-22.0,0.1,-0.01,1.0,99.0,-3.0,24.0,0.0,30.08,1062.0,,,82.0,,,,,0.0,0.0,,,,,,,,,,,,,,,,,,,0.0,73.0,96.0,96.0,30.2,0.0,,0.0,8.3,,,42.0,0.0,0.0,-0.2,10.4,8.4,,,,,114.0,93.0,116.0,90.0,113.0,97.0,112.0,86.0,,,7.0,1.0,,8.3,4.0,0.0,,,0.653,0.856,+0.0,73.4,,,,,,96.0,2026-04-13 17:49:08-07:00
84.06,1.0,9.0,2026-04-14 00:50:25,37.05899,-120.86836,150.0,0.0,169.1,-12.5,,,,,00:50:24,10.8,-0.8,9.9,0.0,-22.0,0.1,-0.01,1.0,99.0,8.0,24.0,0.0,30.08,1062.0,,,82.0,,,,,0.0,0.0,,,,,,,,,,,,,,,,,,,4.0,74.0,106.0,106.0,30.0,0.0,,0.0,10.7,,,42.0,0.0,0.0,-0.3,10.4,8.4,,,,,114.0,93.0,116.0,90.0,113.0,97.0,112.0,87.0,,,7.0,1.0,,10.7,4.0,0.0,,,0.653,0.856,+3.5,73.6,,,,,,106.0,2026-04-13 17:49:08-07:00
85.06,1.0,9.0,2026-04-14 00:50:26,37.05899,-120.86836,150.0,0.0,169.1,-12.5,,,,,00:50:25,10.8,-0.8,9.9,0.0,-22.0,0.1,-0.01,1.0,99.0,-14.0,24.0,0.0,30.08,1062.0,,,82.0,,,,,0.0,0.0,,,,,,,,,,,,,,,,,,,23.0,73.0,104.0,104.0,30.0,0.9,,0.9,9.1,,,42.0,0.0,0.0,-0.4,10.4,8.4,,,,,113.0,92.0,116.0,90.0,113.0,96.0,112.0,87.0,,,7.0,1.0,,9.1,4.0,0.0,,,0.653,0.854,+23.4,73.5,,,,,,104.0,2026-04-13 17:49:08-07:00
86.06,1.0,9.0,2026-04-14 00:50:27,37.05899,-120.86836,150.0,0.0,169.1,-12.5,,,,,00:50:26,10.8,-0.8,10.0,0.0,-22.0,0.2,-0.01,1.0,99.0,15.0,24.0,0.0,30.08,1062.0,,,82.0,,,,,0.0,0.0,,,,,,,,,,,,,,,,,,,30.0,74.0,104.0,104.0,29.8,1.4,,1.4,6.6,,,42.0,0.0,0.0,-0.4,10.4,8.4,,,,,113.0,92.0,116.0,90.0,113.0,96.0,112.0,86.0,,,7.0,1.0,,6.6,4.0,0.0,,,0.653,0.854,+30.2,73.6,,,7.0,L,,104.0,2026-04-13 17:49:08-07:00
87.06,1.0,9.0,2026-04-14 00:50:28,37.05899,-120.86836,149.0,0.0,169.1,-12.5,,,,,00:50:27,10.8,-0.7,10.0,0.0,-22.0,0.1,-0.01,1.0,99.0,26.0,24.0,0.0,30.08,1062.0,,,82.0,,,,,0.0,0.0,,,,,,,,,,,,,,,,,,,31.0,74.0,104.0,104.0,29.8,1.3,,1.3,6.4,,,42.0,0.0,0.0,-0.5,10.4,8.4,,,,,113.0,92.0,116.0,90.0,113.0,95.0,112.0,86.0,,,7.0,0.0,,6.4,4.0,0.0,,,0.653,0.854,+31.4,73.5,,,10.0,L,,104.0,2026-04-13 17:49:08-07:00
88.06,1.0,9.0,2026-04-14 00:50:29,37.05899,-120.86836,149.0,0.0,169.1,-12.5,,,,,00:50:28,10.8,-0.7,10.0,0.0,-21.0,0.1,-0.01,1.0,99.0,11.0,24.0,0.0,30.08,1062.0,,,82.0,,,,,0.0,0.0,,,,,,,,,,,,,,,,,,,31.0,73.0,104.0,104.0,29.8,1.2,,1.2,7.2,,,42.0,0.0,0.0,-0.5,10.4,8.4,,,,,113.0,92.0,116.0,90.0,112.0,94.0,112.0,86.0,,,7.0,0.0,,7.2,4.0,0.0,,,0.653,0.853,+30.7,73.4,,,10.0,L,,104.0,2026-04-13 17:49:08-07:00
89.06,1.0,9.0,2026-04-14 00:50:30,37.05899,-120.86836,149.0,0.0,169.1,-12.5,,,,,00:50:29,10.9,-0.7,10.0,0.0,-21.0,0.1,-0.01,1.0,99.0,-21.0,24.0,0.0,30.08,1064.0,,,82.0,,,,,0.0,0.0,,,,,,,,,,,,,,,,,,,30.0,73.0,100.0,100.0,29.8,1.3,,1.3,7.3,,,42.0,0.0,0.0,-0.5,10.4,8.4,,,,,113.0,91.0,115.0,89.0,112.0,94.0,112.0,86.0,,,7.0,0.0,,7.3,4.0,0.0,,,0.653,0.853,+30.0,73.4,,,10.0,L,,100.0,2026-04-13 17:49:08-07:00
90.06,1.0,9.0,2026-04-14 00:50:31,37.05899,-120.86836,148.0,0.0,169.1,-12.5,,,,,00:50:30,10.8,-0.8,10.0,0.0,-21.0,0.1,-0.01,1.0,99.0,-30.0,24.0,0.0,30.08,1064.0,,,82.0,,,,,0.0,0.0,,,,,,,,,,,,,,,,,,,31.0,74.0,103.0,103.0,29.8,1.7,,1.7,4.2,,,42.0,0.0,0.0,-0.5,10.4,8.4,,,,,113.0,92.0,116.0,90.0,113.0,94.0,112.0,86.0,,,7.0,0.0,,4.2,4.0,0.0,,,0.652,0.852,+30.9,73.6,,,12.0,L,,103.0,2026-04-13 17:49:08-07:00
91.06,1.0,9.0,2026-04-14 00:50:32,37.05899,-120.86836,148.0,0.0,169.1,-12.5,,,,,00:50:31,10.8,-0.8,10.0,0.0,-21.0,0.1,-0.01,1.0,99.0,-42.0,24.0,0.0,30.08,1064.0,,,82.0,,,,,0.0,0.0,,,,,,,,,,,,,,,,,,,32.0,74.0,106.0,106.0,29.8,2.0,,2.0,4.0,,,42.0,0.0,0.0,-0.5,10.4,8.4,,,,,113.0,91.0,116.0,90.0,112.0,94.0,112.0,86.0,,,7.0,0.0,,4.0,4.0,0.0,,,0.653,0.852,+31.8,73.7,,,14.0,L,,106.0,2026-04-13 17:49:08-07:00
92.06,1.0,9.0,2026-04-14 00:50:33,37.05899,-120.86836,147.0,0.0,169.1,-12.5,,,,,00:50:32,10.8,-0.8,10.0,0.0,-21.0,0.1,-0.02,1.0,99.0,-38.0,24.0,0.0,30.08,1064.0,,,82.0,,,,,0.0,0.0,,,,,,,,,,,,,,,,,,,18.0,78.0,102.0,102.0,29.9,1.7,,1.7,4.1,,,42.0,0.0,0.0,-0.4,10.4,8.4,,,,,114.0,93.0,117.0,92.0,114.0,96.0,113.0,88.0,,,7.0,0.0,,4.1,4.0,0.0,,,0.653,0.851,+18.2,77.9,,,15.0,L,,102.0,2026-04-13 17:49:08-07:00
93.06,1.0,9.0,2026-04-14 00:50:34,37.05899,-120.86836,147.0,0.1,169.1,-12.5,,,,,00:50:33,10.8,-0.8,9.9,0.0,-21.0,0.1,-0.02,1.0,99.0,-15.0,24.0,0.0,30.08,1064.0,,,82.0,,,,,0.0,0.0,,,,,,,,,,,,,,,,,,,6.0,78.0,0.0,0.0,30.1,1.7,,1.7,3.8,,,42.0,0.0,0.0,-0.2,10.4,8.4,,,,,114.0,93.0,117.0,91.0,114.0,96.0,113.0,88.0,,,7.0,0.0,,3.8,4.0,0.0,,,0.653,0.85,+5.8,77.9,,,,,,0.0,2026-04-13 17:49:08-07:00
94.06,1.0,9.0,2026-04-14 00:50:35,37.05899,-120.86836,147.0,0.1,169.1,-12.5,,,,,00:50:34,10.8,-0.7,10.0,0.0,-21.0,0.1,-0.02,1.0,99.0,-2.0,24.0,0.0,30.08,1064.0,,,82.0,,,,,0.0,0.0,,,,,,,,,,,,,,,,,,,2.0,78.0,0.0,0.0,30.1,1.7,,1.7,3.4,,,42.0,0.0,0.0,-0.1,10.4,8.4,,,,,114.0,93.0,117.0,91.0,114.0,96.0,113.0,88.0,,,7.0,0.0,,3.4,4.0,0.0,,,0.653,0.851,+2.5,77.9,,,,,,0.0,2026-04-13 17:49:08-07:00
95.06,1.0,9.0,2026-04-14 00:50:36,37.05898,-120.86836,146.0,0.0,169.1,-12.5,,,,,00:50:35,10.8,-0.8,9.9,0.0,-21.0,0.1,-0.01,1.0,99.0,-20.0,24.0,0.0,30.08,1074.0,,,82.0,,,,,0.0,0.0,,,,,,,,,,,,,,,,,,,1.0,78.0,0.0,0.0,30.1,0.0,,0.0,3.0,,,42.0,0.0,0.0,-0.1,10.4,8.4,,,,,114.0,93.0,117.0,91.0,114.0,96.0,113.0,88.0,,,7.0,0.0,,3.0,4.0,0.0,,,0.653,0.851,+1.1,77.9,,,,,,0.0,2026-04-13 17:49:08-07:00
96.06,1.0,9.0,2026-04-14 00:50:37,37.05898,-120.86836,146.0,0.1,169.1,-12.5,,,,,00:50:36,10.8,-0.8,9.9,0.0,-21.0,0.1,-0.01,1.0,99.0,-29.0,24.0,0.0,30.08,1074.0,,,82.0,,,,,0.0,0.0,,,,,,,,,,,,,,,,,,,0.0,78.0,0.0,0.0,30.3,0.0,,0.0,2.6,,,42.0,0.0,0.0,-0.1,10.4,8.4,,,,,114.0,93.0,116.0,91.0,114.0,96.0,113.0,88.0,,,7.0,0.0,,2.6,4.0,0.0,,,0.653,0.851,+0.5,77.9,,,,,,0.0,2026-04-13 17:49:08-07:00
97.06,1.0,9.0,2026-04-14 00:50:38,37.05898,-120.86836,146.0,0.0,169.1,-12.5,,,,,00:50:37,10.8,-0.8,9.9,0.0,-21.0,0.1,-0.01,1.0,99.0,4.0,24.0,0.0,30.08,1074.0,,,82.0,,,,,0.0,0.0,,,,,,,,,,,,,,,,,,,0.0,78.0,0.0,0.0,30.3,0.0,,0.0,2.2,,,42.0,0.0,0.0,-0.0,10.4,8.4,,,,,114.0,93.0,116.0,91.0,113.0,96.0,113.0,88.0,,,7.0,0.0,,2.2,4.0,0.0,,,0.653,0.85,+0.1,77.9,,,,,,0.0,2026-04-13 17:49:08-07:00
98.06,1.0,9.0,2026-04-14 00:50:39,37.05898,-120.86835,135.0,0.0,169.1,-12.5,,,,,00:50:38,10.8,-0.8,9.9,0.0,-21.0,0.1,-0.01,1.0,99.0,-1.0,24.0,0.0,30.08,1074.0,,,82.0,,,,,0.0,0.0,,,,,,,,,,,,,,,,,,,0.0,78.0,0.0,0.0,30.3,0.0,,0.0,2.5,,,42.0,0.0,0.0,-0.0,10.4,8.4,,,,,114.0,93.0,116.0,91.0,113.0,96.0,113.0,88.0,,,7.0,0.0,,2.5,4.0,0.0,,,0.653,0.85,+0.0,77.9,,,,,,0.0,2026-04-13 17:49:08-07:00
99.06,1.0,9.0,2026-04-14 00:50:40,37.05898,-120.86835,134.0,0.0,169.1,-12.5,,,,,00:50:39,10.8,-0.8,9.9,0.0,-21.0,0.1,-0.01,1.0,99.0,-1.0,24.0,0.0,30.08,1074.0,,,82.0,,,,,0.0,0.0,,,,,,,,,,,,,,,,,,,0.0,78.0,0.0,0.0,30.3,0.0,,0.0,2.3,,,42.0,0.0,0.0,-0.0,10.4,8.4,,,,,114.0,94.0,117.0,92.0,114.0,96.0,113.0,88.0,,,7.0,0.0,,2.3,4.0,0.0,,,0.653,0.85,+0.0,77.9,,,,,,0.0,2026-04-13 17:49:08-07:00
100.06,1.0,9.0,2026-04-14 00:50:41,37.05898,-120.86835,134.0,0.0,169.1,-12.5,,,,,00:50:40,10.8,-0.7,9.9,0.0,-21.0,0.1,-0.01,1.0,99.0,-32.0,24.0,0.0,30.08,1074.0,,,82.0,,,,,0.0,0.0,,,,,,,,,,,,,,,,,,,0.0,78.0,0.0,0.0,30.3,0.4,,0.4,4.8,,,42.0,0.0,0.0,-0.0,10.4,8.4,,,,,114.0,93.0,116.0,91.0,113.0,96.0,113.0,88.0,,,7.0,0.0,,4.8,4.0,0.0,,,0.653,0.85,+0.0,77.9,,,,,,0.0,2026-04-13 17:49:08-07:00
101.06,1.0,9.0,2026-04-14 00:50:42,37.05898,-120.86835,133.0,0.0,169.1,-12.5,,,,,00:50:41,10.8,-0.8,9.9,0.0,-21.0,0.1,-0.01,1.0,99.0,-45.0,24.0,0.0,30.08,1074.0,,,82.0,,,,,0.0,0.0,,,,,,,,,,,,,,,,,,,0.0,78.0,0.0,0.0,30.3,1.1,,1.1,4.4,,,42.0,0.0,0.0,-0.0,10.4,8.4,,,,,114.0,93.0,116.0,91.0,113.0,96.0,113.0,88.0,,,7.0,0.0,,4.4,4.0,0.0,,,0.653,0.85,+0.0,77.9,,,,,,0.0,2026-04-13 17:49:08-07:00
102.06,1.0,9.0,2026-04-14 00:50:43,37.05898,-120.86835,133.0,0.0,169.1,-12.5,,,,,00:50:42,10.8,-0.8,9.9,0.0,-21.0,0.2,-0.01,1.0,99.0,-19.0,24.0,0.0,30.08,1074.0,,,82.0,,,,,0.0,0.0,,,,,,,,,,,,,,,,,,,0.0,78.0,0.0,0.0,30.3,1.4,,1.4,4.2,,,42.0,0.0,0.0,-0.0,10.4,8.4,,,,,114.0,94.0,116.0,92.0,113.0,96.0,113.0,88.0,,,7.0,0.0,,4.2,4.0,0.0,,,0.653,0.85,+0.0,77.9,,,,,,0.0,2026-04-13 17:49:08-07:00
103.06,1.0,9.0,2026-04-14 00:50:44,37.05898,-120.86835,133.0,0.0,169.1,-12.5,,,,,00:50:43,10.8,-0.8,9.8,0.0,-21.0,0.2,-0.01,1.0,99.0,-14.0,24.0,0.0,30.08,1075.0,,,82.0,,,,,0.0,0.0,,,,,,,,,,,,,,,,,,,0.0,78.0,0.0,0.0,30.3,2.0,,2.0,5.9,,,42.0,0.0,0.0,-0.0,10.4,8.4,,,,,114.0,94.0,116.0,91.0,113.0,96.0,113.0,88.0,,,7.0,0.0,,5.9,4.0,0.0,,,0.653,0.85,+0.0,77.9,,,,,,0.0,2026-04-13 17:49:08-07:00
104.06,1.0,9.0,2026-04-14 00:50:45,37.05898,-120.86835,133.0,0.0,169.1,-12.5,,,,,00:50:44,10.8,-0.8,9.8,0.0,-21.0,0.1,-0.01,1.0,99.0,2.0,24.0,0.0,30.08,1075.0,,,82.0,,,,,0.0,0.0,,,,,,,,,,,,,,,,,,,0.0,78.0,0.0,0.0,30.3,3.1,,3.1,29.0,,,42.0,0.0,0.0,-0.0,10.4,8.4,,,,,114.0,94.0,116.0,92.0,113.0,96.0,113.0,88.0,,,7.0,0.0,,29.0,4.0,0.0,,,0.653,0.85,+0.0,77.9,,,,,,0.0,2026-04-13 17:49:08-07:00
105.06,2.0,9.0,2026-04-14 00:50:46,37.05898,-120.86836,134.0,0.1,169.1,-12.5,,,,,00:50:45,10.8,-0.8,9.9,0.0,-21.0,0.1,-0.01,1.0,99.0,-27.0,24.0,0.0,30.08,1075.0,,,82.0,,,,,0.0,0.0,,,,,,,,,,,,,,,,,,,0.0,78.0,0.0,0.0,30.3,3.9,,3.9,31.3,,,42.0,0.0,0.0,-0.0,10.4,8.4,,,,,114.0,94.0,116.0,92.0,113.0,96.0,113.0,88.0,,,7.0,0.0,,31.3,4.0,0.0,,,0.653,0.85,+0.0,77.9,,,,,,0.0,2026-04-13 17:49:08-07:00
106.06,2.0,9.0,2026-04-14 00:50:47,37.05897,-120.86836,139.0,0.0,169.1,-12.5,,,,,00:50:46,10.8,-0.8,9.9,0.0,-21.0,0.1,-0.01,1.0,99.0,12.0,24.0,0.0,30.08,1084.0,,,82.0,,,,,0.0,0.0,,,,,,,,,,,,,,,,,,,0.0,78.0,0.0,0.0,30.3,3.3,,3.3,31.0,,,42.0,0.0,0.0,-0.0,10.4,8.4,,,,,114.0,94.0,116.0,92.0,113.0,96.0,113.0,88.0,,,7.0,0.0,,31.0,4.0,0.0,,,0.653,0.85,+0.0,77.9,,,,,,0.0,2026-04-13 17:49:08-07:00
107.06,2.0,9.0,2026-04-14 00:50:48,37.05896,-120.86837,135.0,0.0,169.1,-12.5,,,,,00:50:47,10.8,-0.8,9.9,0.0,-21.0,0.1,-0.01,1.0,99.0,23.0,24.0,0.0,30.08,1083.0,,,82.0,,,,,0.0,0.0,,,,,,,,,,,,,,,,,,,0.0,78.0,0.0,0.0,30.3,3.3,,3.3,30.7,,,42.0,0.0,0.0,-0.0,10.4,8.4,,,,,114.0,94.0,116.0,92.0,113.0,96.0,112.0,88.0,,,7.0,0.0,,30.7,4.0,0.0,,,0.653,0.85,+0.0,77.9,,,,,,0.0,2026-04-13 17:49:08-07:00
108.06,2.0,9.0,2026-04-14 00:50:49,37.05896,-120.86837,135.0,0.0,169.1,-12.5,,,,,00:50:48,10.8,-0.8,9.9,0.0,-21.0,0.1,-0.01,1.0,99.0,7.0,24.0,0.0,30.08,1083.0,,,82.0,,,,,0.0,0.0,,,,,,,,,,,,,,,,,,,0.0,78.0,0.0,0.0,30.3,2.9,,2.9,30.4,,,42.0,0.0,0.0,-0.1,10.4,8.4,,,,,113.0,94.0,116.0,92.0,113.0,96.0,112.0,88.0,,,7.0,0.0,,30.4,4.0,0.0,,,0.653,0.85,+0.0,77.9,,,,,,0.0,2026-04-13 17:49:08-07:00
109.06,2.0,9.0,2026-04-14 00:50:50,37.05896,-120.86837,135.0,0.1,169.1,-12.5,,,,,00:50:49,10.8,-0.8,9.9,0.0,-21.0,0.1,-0.01,1.0,99.0,26.0,24.0,0.0,30.08,1083.0,,,82.0,,,,,0.0,0.0,,,,,,,,,,,,,,,,,,,0.0,78.0,0.0,0.0,30.3,2.5,,2.5,30.2,,,42.0,0.0,0.0,-0.1,10.4,8.4,,,,,113.0,94.0,116.0,93.0,113.0,96.0,112.0,88.0,,,7.0,0.0,,30.2,4.0,0.0,,,0.653,0.85,+0.0,77.9,,,,,,0.0,2026-04-13 17:49:08-07:00
110.06,2.0,9.0,2026-04-14 00:50:51,37.05896,-120.86837,135.0,0.1,169.1,-12.5,,,,,00:50:50,10.8,-0.8,9.8,0.0,-21.0,0.1,-0.01,1.0,99.0,-5.0,24.0,0.0,30.08,1075.0,,,82.0,,,,,0.0,0.0,,,,,,,,,,,,,,,,,,,0.0,78.0,0.0,0.0,30.3,2.5,,2.5,30.0,,,42.0,0.0,0.0,-0.1,10.4,8.4,,,,,114.0,94.0,116.0,93.0,113.0,96.0,112.0,88.0,,,7.0,0.0,,30.0,4.0,0.0,,,0.653,0.85,+0.0,77.9,,,,,,0.0,2026-04-13 17:49:08-07:00
111.06,2.0,9.0,2026-04-14 00:50:52,37.05896,-120.86836,135.0,0.1,169.1,-12.5,,,,,00:50:51,10.9,-0.8,9.8,0.0,-21.0,0.1,-0.01,1.0,99.0,-6.0,24.0,0.0,30.08,1075.0,,,82.0,,,,,0.0,0.0,,,,,,,,,,,,,,,,,,,0.0,78.0,0.0,0.0,30.3,2.5,,2.5,29.8,,,42.0,0.0,0.0,-0.1,10.4,8.4,,,,,113.0,94.0,116.0,93.0,113.0,96.0,112.0,88.0,,,7.0,0.0,,29.8,4.0,0.0,,,0.653,0.85,+0.0,77.9,,,,,,0.0,2026-04-13 17:49:08-07:00
112.06,2.0,9.0,2026-04-14 00:50:53,37.05896,-120.86837,135.0,0.0,169.1,-12.5,,,,,00:50:52,10.8,-0.8,9.8,0.0,-21.0,0.1,-0.01,1.0,99.0,-12.0,24.0,0.0,30.08,1075.0,,,82.0,,,,,0.0,0.0,,,,,,,,,,,,,,,,,,,0.0,78.0,0.0,0.0,30.3,2.5,,2.5,29.6,,,42.0,0.0,0.0,-0.1,10.4,8.4,,,,,113.0,94.0,116.0,93.0,112.0,96.0,112.0,88.0,,,7.0,0.0,,29.6,4.0,0.0,,,0.653,0.85,+0.0,77.9,,,,,,0.0,2026-04-13 17:49:08-07:00
113.06,2.0,9.0,2026-04-14 00:50:54,37.05896,-120.86836,135.0,0.1,169.1,-12.5,,,,,00:50:53,10.8,-0.8,9.8,0.0,-21.0,0.1,-0.02,1.0,99.0,-24.0,24.0,0.0,30.08,1084.0,,,82.0,,,,,0.0,0.0,,,,,,,,,,,,,,,,,,,0.0,75.0,0.0,0.0,30.3,2.5,,2.5,29.4,,,42.0,0.0,0.0,-0.1,10.4,8.4,,,,,112.0,92.0,115.0,92.0,112.0,95.0,111.0,87.0,,,7.0,0.0,,29.4,4.0,0.0,,,0.653,0.848,+0.0,75.0,,,,,,0.0,2026-04-13 17:49:08-07:00
114.06,2.0,9.0,2026-04-14 00:50:55,37.05896,-120.86837,135.0,0.0,169.1,-12.5,,,,,00:50:54,10.9,-0.8,9.9,0.0,-21.0,0.1,-0.01,1.0,99.0,-2.0,24.0,0.0,30.08,1084.0,,,82.0,,,,,0.0,0.0,,,,,,,,,,,,,,,,,,,5.0,74.0,98.0,98.0,30.2,2.3,,2.3,29.4,,,42.0,0.0,0.0,-0.3,10.4,8.4,,,,,112.0,92.0,114.0,91.0,111.0,94.0,110.0,86.0,,,6.0,0.0,,29.4,4.0,0.0,,,0.653,0.85,+4.8,73.7,,,,,,98.0,2026-04-13 17:49:08-07:00
115.06,2.0,9.0,2026-04-14 00:50:56,37.05896,-120.86837,136.0,0.0,169.1,-12.5,,,,,00:50:55,10.8,-0.8,9.9,0.0,-21.0,0.1,-0.01,1.0,99.0,12.0,24.0,0.0,30.08,1084.0,,,82.0,,,,,0.0,0.0,,,,,,,,,,,,,,,,,,,29.0,74.0,107.0,107.0,30.0,2.0,,2.0,29.3,,,42.0,0.0,0.0,-0.4,10.4,8.4,,,,,112.0,92.0,114.0,91.0,111.0,94.0,111.0,86.0,,,6.0,0.0,,29.3,4.0,0.0,,,0.652,0.85,+29.0,73.7,,,8.0,L,,107.0,2026-04-13 17:49:08-07:00
116.06,2.0,9.0,2026-04-14 00:50:57,37.05896,-120.86837,137.0,0.1,169.1,-12.5,,,,,00:50:56,10.8,-0.8,10.0,0.0,-21.0,0.1,-0.01,1.0,99.0,14.0,24.0,0.0,30.08,1084.0,,,82.0,,,,,0.0,0.0,,,,,,,,,,,,,,,,,,,32.0,74.0,107.0,107.0,30.0,1.6,,1.6,29.2,,,42.0,0.0,0.0,-0.4,10.4,8.4,,,,,112.0,92.0,114.0,91.0,111.0,94.0,110.0,86.0,,,6.0,0.0,,29.2,4.0,0.0,,,0.653,0.85,+32.3,73.7,,,13.0,L,,107.0,2026-04-13 17:49:08-07:00
117.06,2.0,9.0,2026-04-14 00:50:58,37.05896,-120.86837,138.0,0.1,169.1,-12.5,,,,,00:50:57,10.8,-0.8,10.0,0.0,-21.0,0.1,-0.01,1.0,99.0,24.0,24.0,0.0,30.08,1084.0,,,82.0,,,,,0.0,0.0,,,,,,,,,,,,,,,,,,,32.0,74.0,106.0,106.0,30.0,2.2,,2.2,24.9,,,42.0,0.0,0.0,-0.5,10.4,8.4,,,,,112.0,91.0,114.0,91.0,111.0,93.0,110.0,86.0,,,6.0,0.0,,24.9,4.0,0.0,,,0.653,0.85,+32.5,73.6,,,13.0,L,,106.0,2026-04-13 17:49:08-07:00
118.06,2.0,9.0,2026-04-14 00:50:59,37.05896,-120.86837,138.0,0.1,169.1,-12.5,,,,,00:50:58,10.8,-0.8,10.0,0.0,-21.0,0.1,-0.01,1.0,99.0,36.0,24.0,0.0,30.08,1084.0,,,82.0,,,,,0.0,0.0,,,,,,,,,,,,,,,,,,,33.0,74.0,106.0,106.0,29.8,2.6,,2.6,20.2,,,41.9,0.0,0.0,-0.5,10.4,8.4,,,,,112.0,91.0,114.0,91.0,111.0,93.0,111.0,86.0,,,6.0,0.0,,20.2,4.0,0.0,,,0.653,0.85,+33.1,73.7,,,17.0,L,,106.0,2026-04-13 17:49:08-07:00
119.06,2.0,9.0,2026-04-14 00:51:00,37.05896,-120.86837,139.0,0.1,169.1,-12.5,,,,,00:50:59,10.8,-0.8,9.9,0.0,-21.0,0.1,-0.01,1.0,99.0,48.0,24.0,0.0,30.08,1084.0,,,82.0,,,,,0.0,0.0,,,,,,,,,,,,,,,,,,,33.0,74.0,108.0,108.0,29.8,2.8,,2.8,18.9,,,41.9,0.0,0.0,-0.5,10.4,8.4,,,,,112.0,91.0,114.0,91.0,111.0,93.0,111.0,86.0,,,6.0,0.0,,18.9,4.0,0.0,,,0.653,0.85,+33.2,73.7,,,21.0,L,,108.0,2026-04-13 17:49:08-07:00
120.06,2.0,9.0,2026-04-14 00:51:01,37.05896,-120.86837,139.0,0.1,169.1,-12.5,,,,,00:51:00,10.8,-0.8,9.9,0.0,-21.0,0.1,-0.01,1.0,99.0,36.0,24.0,0.0,30.08,1084.0,,,82.0,,,,,0.0,0.0,,,,,,,,,,,,,,,,,,,33.0,74.0,107.0,107.0,29.8,2.3,,2.3,23.0,,,41.9,0.0,0.0,-0.5,10.4,8.4,,,,,112.0,91.0,114.0,90.0,111.0,92.0,110.0,86.0,,,6.0,0.0,,23.0,4.0,0.0,,,0.653,0.85,+32.7,73.6,,,21.0,L,,107.0,2026-04-13 17:49:08-07:00
121.06,2.0,9.0,2026-04-14 00:51:02,37.05896,-120.86837,139.0,0.0,169.1,-12.5,,,,,00:51:01,10.8,-0.8,9.9,0.0,-21.0,0.1,-0.01,1.0,99.0,25.0,24.0,0.0,30.08,1084.0,,,82.0,,,,,0.0,0.0,,,,,,,,,,,,,,,,,,,32.0,74.0,107.0,107.0,29.8,1.8,,1.8,23.7,,,41.9,0.0,0.0,-0.5,10.4,8.4,,,,,111.0,90.0,114.0,90.0,110.0,92.0,110.0,86.0,,,6.0,0.0,,23.7,4.0,0.0,,,0.653,0.85,+32.3,73.5,,,19.0,L,,107.0,2026-04-13 17:49:08-07:00
122.06,2.0,9.0,2026-04-14 00:51:03,37.05895,-120.86836,140.0,0.1,169.1,-12.5,,,,,00:51:02,10.8,-0.8,10.0,0.0,-21.0,0.1,-0.01,1.0,99.0,62.0,24.0,0.0,30.08,1084.0,,,82.0,,,,,0.0,0.0,,,,,,,,,,,,,,,,,,,32.0,73.0,104.0,104.0,29.8,1.8,,1.8,23.1,,,41.9,0.0,0.0,-0.6,10.4,8.4,,,,,111.0,90.0,114.0,90.0,110.0,92.0,110.0,85.0,,,6.0,0.0,,23.1,4.0,0.0,,,0.653,0.85,+32.4,73.4,,,16.0,L,,104.0,2026-04-13 17:49:08-07:00
123.06,2.0,9.0,2026-04-14 00:51:04,37.05895,-120.86836,140.0,0.1,169.1,-12.5,,,,,00:51:03,10.8,-0.7,9.9,0.0,-21.0,0.1,-0.02,1.0,99.0,26.0,24.0,0.0,30.08,1084.0,,,82.0,,,,,0.0,0.0,,,,,,,,,,,,,,,,,,,16.0,78.0,103.0,103.0,30.0,2.0,,2.0,21.8,,,41.9,0.0,0.0,-0.4,10.4,8.4,,,,,113.0,92.0,115.0,92.0,112.0,93.0,112.0,88.0,,,6.0,0.0,,21.8,4.0,0.0,,,0.653,0.85,+15.7,77.8,,,17.0,L,,103.0,2026-04-13 17:49:08-07:00
124.06,2.0,9.0,2026-04-14 00:51:05,37.05895,-120.86836,141.0,0.1,169.1,-12.5,,,,,00:51:04,10.8,-0.8,9.9,0.0,-21.0,0.1,-0.02,1.0,99.0,13.0,24.0,0.0,30.08,1086.0,,,82.0,,,,,0.0,0.0,,,,,,,,,,,,,,,,,,,5.0,78.0,0.0,0.0,30.1,2.0,,2.0,21.6,,,41.9,0.0,0.0,-0.3,10.4,8.4,,,,,113.0,92.0,115.0,92.0,112.0,93.0,111.0,88.0,,,7.0,0.0,,21.6,4.0,0.0,,,0.653,0.85,+5.3,77.8,,,,,,0.0,2026-04-13 17:49:08-07:00
125.06,2.0,9.0,2026-04-14 00:51:06,37.05895,-120.86836,141.0,0.1,169.1,-12.5,,,,,00:51:05,10.8,-0.8,9.9,0.0,-20.0,0.1,-0.02,1.0,99.0,25.0,24.0,0.0,30.08,1087.0,,,82.0,,,,,0.0,0.0,,,,,,,,,,,,,,,,,,,2.0,78.0,0.0,0.0,30.1,2.0,,2.0,21.6,,,41.9,0.0,0.0,-0.2,10.4,8.4,,,,,113.0,92.0,115.0,92.0,112.0,93.0,111.0,88.0,,,7.0,0.0,,21.6,4.0,0.0,,,0.653,0.848,+2.3,77.8,,,,,,0.0,2026-04-13 17:49:08-07:00
126.06,2.0,9.0,2026-04-14 00:51:07,37.05895,-120.86837,142.0,0.0,169.1,-12.5,,,,,00:51:06,10.8,-0.8,9.9,0.0,-19.0,0.1,-0.02,1.0,99.0,37.0,24.0,0.0,30.08,1088.0,,,82.0,,,,,0.0,0.0,,,,,,,,,,,,,,,,,,,1.0,78.0,0.0,0.0,30.3,2.0,,2.0,21.6,,,41.9,0.0,0.0,-0.1,10.4,8.4,,,,,113.0,92.0,115.0,92.0,112.0,93.0,111.0,88.0,,,7.0,0.0,,21.6,4.0,0.0,,,0.653,0.85,+1.0,77.8,,,,,,0.0,2026-04-13 17:49:08-07:00
127.06,2.0,9.0,2026-04-14 00:51:08,37.05895,-120.86837,143.0,0.0,169.1,-12.5,,,,,00:51:07,10.8,-0.8,9.9,0.0,-18.0,0.1,-0.01,1.0,99.0,53.0,24.0,0.0,30.08,1089.0,,,82.0,,,,,0.0,0.0,,,,,,,,,,,,,,,,,,,0.0,78.0,0.0,0.0,30.3,2.0,,2.0,21.5,,,41.9,0.0,0.0,-0.1,10.4,8.4,,,,,113.0,92.0,115.0,92.0,111.0,94.0,111.0,88.0,,,7.0,0.0,,21.5,4.0,0.0,,,0.653,0.848,+0.4,77.8,,,,,,0.0,2026-04-13 17:49:08-07:00
128.06,2.0,9.0,2026-04-14 00:51:09,37.05894,-120.86835,142.0,0.0,169.1,-12.5,,,,,00:51:08,10.8,-0.7,9.9,0.0,-18.0,0.1,-0.01,1.0,99.0,2.0,24.0,0.0,30.08,1089.0,,,82.0,,,,,0.0,0.0,,,,,,,,,,,,,,,,,,,0.0,78.0,0.0,0.0,30.3,2.0,,2.0,21.5,,,41.9,0.0,0.0,-0.0,10.4,8.4,,,,,112.0,92.0,115.0,92.0,111.0,94.0,111.0,88.0,,,7.0,0.0,,21.5,4.0,0.0,,,0.653,0.85,+0.0,77.8,,,,,,0.0,2026-04-13 17:49:08-07:00
129.06,2.0,9.0,2026-04-14 00:51:10,37.05894,-120.86835,144.0,0.1,169.1,-12.5,,,,,00:51:09,10.8,-0.7,9.9,0.0,-18.0,0.1,-0.01,1.0,99.0,1.0,24.0,0.0,30.08,1089.0,,,82.0,,,,,0.0,0.0,,,,,,,,,,,,,,,,,,,0.0,78.0,0.0,0.0,30.3,2.0,,2.0,21.4,,,41.9,0.0,0.0,-0.0,10.4,8.4,,,,,112.0,92.0,115.0,92.0,111.0,93.0,111.0,88.0,,,7.0,0.0,,21.4,4.0,0.0,,,0.653,0.85,+0.0,77.8,,,,,,0.0,2026-04-13 17:49:08-07:00
130.06,2.0,9.0,2026-04-14 00:51:11,37.05894,-120.86835,143.0,0.0,169.1,-12.5,,,,,00:51:10,10.9,-0.7,9.9,0.0,-18.0,0.1,-0.01,1.0,99.0,-7.0,24.0,0.0,30.08,1099.0,,,82.0,,,,,0.0,0.0,,,,,,,,,,,,,,,,,,,0.0,71.0,0.0,0.0,30.3,2.0,,2.0,21.5,,,41.9,0.0,0.0,-0.1,10.4,8.4,,,,,110.0,89.0,112.0,88.0,109.0,90.0,109.0,84.0,,,7.0,0.0,,21.5,4.0,0.0,,,0.652,0.848,+0.0,70.5,,,,,,0.0,2026-04-13 17:49:08-07:00
131.06,2.0,9.0,2026-04-14 00:51:12,37.05894,-120.86836,144.0,0.0,169.1,-12.5,,,,,00:51:11,10.9,-0.7,10.0,0.0,-18.0,0.1,-0.01,1.0,99.0,-10.0,24.0,0.0,30.08,1099.0,,,82.0,,,,,0.0,0.0,,,,,,,,,,,,,,,,,,,13.0,73.0,208.0,208.0,30.0,1.6,,1.6,22.9,,,41.9,0.0,0.0,-0.3,10.4,8.4,,,,,111.0,90.0,113.0,90.0,110.0,92.0,109.0,86.0,,,7.0,0.0,,22.9,4.0,0.0,,,0.652,0.848,+13.4,73.5,,,1.0,L,,208.0,2026-04-13 17:49:08-07:00
132.06,2.0,9.0,2026-04-14 00:51:13,37.05894,-120.86836,146.0,0.1,169.1,-12.5,,,,,00:51:12,10.8,-0.7,10.0,0.0,-17.0,0.1,-0.02,1.0,99.0,50.0,24.0,0.0,30.08,1099.0,,,82.0,,,,,0.0,0.0,,,,,,,,,,,,,,,,,,,50.0,78.0,722.0,722.0,26.7,2.4,,2.4,22.1,,,41.9,0.0,0.0,-0.3,10.4,8.4,,,,,112.0,103.0,114.0,106.0,111.0,114.0,111.0,113.0,,,7.0,0.0,,22.1,4.0,0.002,,,0.657,0.85,+49.8,78.0,,,10.0,L,,722.0,2026-04-13 17:49:08-07:00
133.06,2.0,9.0,2026-04-14 00:51:14,37.05894,-120.86836,147.0,0.0,169.1,-12.5,,,,,00:51:13,10.8,-0.7,9.9,0.0,-17.0,0.1,-0.01,0.9,99.0,10.0,24.0,0.0,30.08,1100.0,,,82.0,,,,,0.0,0.0,,,,,,,,,,,,,,,,,,,46.0,78.0,570.0,570.0,27.0,3.0,,3.0,21.9,,,41.9,0.0,0.0,-0.2,10.4,8.4,,,,,112.0,101.0,114.0,104.0,111.0,122.0,111.0,131.0,,,6.0,0.0,,21.9,4.0,0.001,,,0.656,0.85,+46.4,77.8,,,17.0,L,,570.0,2026-04-13 17:49:08-07:00
134.06,2.0,9.0,2026-04-14 00:51:15,37.05894,-120.86836,148.0,0.0,169.1,-12.5,,,,,00:51:14,10.9,-0.7,9.8,0.0,-17.0,0.1,-0.02,1.0,99.0,-15.0,24.0,0.0,30.08,1100.0,,,82.0,,,,,0.0,0.0,,,,,,,,,,,,,,,,,,,46.0,78.0,580.0,580.0,27.5,3.4,,3.4,22.4,,,41.9,0.0,0.0,-0.1,10.4,8.4,,,,,112.0,100.0,114.0,103.0,111.0,140.0,111.0,154.0,,,6.0,0.0,,22.4,4.0,0.002,,,0.654,0.85,+45.9,77.9,,,23.0,L,,580.0,2026-04-13 17:49:08-07:00
135.06,2.0,9.0,2026-04-14 00:51:16,37.05894,-120.86836,149.0,0.0,169.1,-12.5,,,,,00:51:15,10.8,-0.7,9.9,0.0,-17.0,0.1,-0.02,0.9,99.0,-11.0,24.0,0.0,30.08,1100.0,,,82.0,,,,,0.0,0.0,,,,,,,,,,,,,,,,,,,55.0,78.0,1043.0,1043.0,25.4,3.6,,3.6,23.3,,,41.9,0.0,0.0,-0.1,10.4,8.4,,,,,112.0,121.0,114.0,124.0,111.0,177.0,111.0,190.0,,,6.0,0.0,,23.3,4.0,0.002,,,0.66,0.85,+55.4,77.9,,,26.0,L,,1043.0,2026-04-13 17:49:08-07:00
136.06,2.0,9.0,2026-04-14 00:51:17,37.05894,-120.86837,150.0,0.1,169.1,-12.5,,,,,00:51:16,10.8,-0.7,9.9,0.0,-17.0,0.1,-0.01,1.0,99.0,1.0,24.0,0.0,30.08,1100.0,,,82.0,,,,,0.0,0.0,,,,,,,,,,,,,,,,,,,73.0,78.0,1641.0,1641.0,18.1,3.6,,3.6,24.5,,,41.9,0.0,0.0,-0.1,10.5,8.4,,,,,112.0,191.0,114.0,180.0,111.0,230.0,112.0,242.0,,,6.0,0.0,,24.5,4.0,0.002,,,0.66,0.85,+72.7,77.9,,,24.0,R,,1641.0,2026-04-13 17:49:08-07:00
137.06,2.0,9.0,2026-04-14 00:51:18,37.05893,-120.86838,158.0,0.0,169.1,-12.5,,,,,00:51:17,10.8,-0.6,9.9,0.0,-17.0,0.1,-0.02,1.0,99.0,-3.0,24.0,0.0,30.08,1100.0,,,82.0,,,,,0.0,0.0,,,,,,,,,,,,,,,,,,,71.0,78.0,1592.0,1592.0,16.1,3.5,,3.5,24.4,,,41.9,0.0,0.0,-0.1,10.5,8.4,,,,,112.0,264.0,115.0,244.0,112.0,299.0,112.0,307.0,,,6.0,0.0,,24.4,4.0,0.002,,,0.66,0.85,+71.1,77.9,,,,,,1592.0,2026-04-13 17:49:08-07:00
138.06,2.0,9.0,2026-04-14 00:51:19,37.05893,-120.86838,157.0,0.0,169.1,-12.5,,,,,00:51:18,10.8,-0.6,9.9,0.0,-17.0,0.1,-0.02,1.0,99.0,-30.0,24.0,0.0,30.08,1100.0,,,82.0,,,,,0.0,0.0,,,,,,,,,,,,,,,,,,,73.0,78.0,1652.0,1652.0,15.4,3.7,,3.7,24.6,,,41.9,0.0,0.0,-0.1,10.5,8.4,,,,,113.0,316.0,115.0,293.0,112.0,345.0,112.0,349.0,,,6.0,0.0,,24.6,4.0,0.001,,,0.669,0.85,+73.4,78.0,,,,,,1652.0,2026-04-13 17:49:08-07:00
139.06,2.0,9.0,2026-04-14 00:51:20,37.05893,-120.86838,157.0,0.0,169.1,-12.5,,,,,00:51:19,10.8,-0.6,9.9,0.0,-17.0,0.1,-0.01,1.0,99.0,-37.0,24.0,0.0,30.08,1100.0,,,82.0,,,,,0.0,0.0,,,,,,,,,,,,,,,,,,,67.0,78.0,1364.0,1364.0,14.0,3.7,,3.7,24.9,,,41.9,0.0,0.0,-0.0,10.5,8.4,,,,,113.0,363.0,116.0,336.0,112.0,380.0,113.0,381.0,,,6.0,0.0,,24.9,4.0,0.002,,,0.658,0.85,+66.6,78.0,,,,,,1364.0,2026-04-13 17:49:08-07:00
140.06,2.0,9.0,2026-04-14 00:51:21,37.05893,-120.86837,156.0,0.1,169.1,-12.5,,,,,00:51:20,10.8,-0.7,9.9,0.0,-17.0,0.1,-0.01,1.0,99.0,-18.0,25.0,0.0,30.08,1100.0,,,82.0,,,,,0.0,0.0,,,,,,,,,,,,,,,,,,,62.0,78.0,1239.0,1239.0,13.9,3.6,,3.6,24.9,,,41.9,0.0,0.0,-0.0,10.5,8.4,,,,,113.0,386.0,116.0,368.0,113.0,406.0,113.0,407.0,,,6.0,0.0,,24.9,4.0,0.002,,,0.654,0.85,+62.4,78.0,,,,,,1239.0,2026-04-13 17:49:08-07:00
141.06,2.0,9.0,2026-04-14 00:51:22,37.05892,-120.86837,156.0,0.0,169.1,-12.5,,,,,00:51:21,10.8,-0.7,9.8,0.0,-17.0,0.1,-0.01,1.0,99.0,-1.0,25.0,0.0,30.08,1100.0,,,82.0,,,,,0.0,0.0,,,,,,,,,,,,,,,,,,,61.0,78.0,1196.0,1196.0,13.9,3.4,,3.4,25.0,,,41.9,0.0,0.0,-0.1,10.5,8.4,,,,,114.0,411.0,116.0,395.0,113.0,426.0,114.0,429.0,,,6.0,0.0,,25.0,4.0,0.002,,,0.654,0.85,+61.4,78.1,,,,,,1196.0,2026-04-13 17:49:08-07:00
142.06,2.0,9.0,2026-04-14 00:51:23,37.05892,-120.86837,155.0,0.0,169.1,-12.5,,,,,00:51:22,10.8,-0.7,9.8,0.0,-17.0,0.1,-0.01,1.0,99.0,-25.0,24.0,0.0,30.08,1109.0,,,82.0,,,,,0.0,0.0,,,,,,,0.0,,,0.0,,,,,,,,,62.0,78.0,1221.0,1221.0,13.9,3.3,,3.3,25.2,,,41.9,0.0,0.0,-0.2,10.5,8.4,,,,,114.0,432.0,117.0,419.0,113.0,442.0,114.0,448.0,,,6.0,0.0,,25.2,4.0,0.002,,,0.654,0.85,+62.2,78.1,,,,,,1221.0,2026-04-13 17:49:08-07:00
143.06,2.0,9.0,2026-04-14 00:51:24,37.05892,-120.86837,155.0,0.0,169.1,-12.5,,,,,00:51:23,10.9,-0.7,9.7,0.0,-17.0,0.1,-0.01,1.0,99.0,-2.0,25.0,0.0,30.08,1109.0,,,82.0,,,,,0.0,0.0,,,,,,,0.0,,,0.0,,,,,,,,,60.0,78.0,1138.0,1138.0,13.7,3.2,,3.2,25.2,,,41.9,0.0,0.0,-0.3,10.5,8.4,,,,,114.0,446.0,117.0,437.0,113.0,458.0,114.0,464.0,,,6.0,0.0,,25.2,4.0,0.001,,,0.653,0.85,+60.3,78.1,,,,,,1138.0,2026-04-13 17:49:08-07:00
144.06,2.0,9.0,2026-04-14 00:51:25,37.05892,-120.86837,155.0,0.0,169.1,-12.5,,,,,00:51:24,10.8,-0.7,9.8,0.0,-17.0,0.1,-0.01,1.0,99.0,2.0,25.0,0.0,30.08,1109.0,,,82.0,,,,,0.0,0.0,,,,,,,0.0,,,-6.0,,,,,,,,,56.0,78.0,961.0,961.0,13.1,3.0,,3.0,25.2,,,41.9,0.0,0.0,-0.3,10.5,8.4,,,,,114.0,454.0,117.0,453.0,113.0,471.0,115.0,475.0,,,6.0,0.0,,25.2,4.0,0.001,,,0.653,0.85,+56.2,78.0,,,,,,961.0,2026-04-13 17:49:08-07:00
145.06,2.0,9.0,2026-04-14 00:51:26,37.05892,-120.86837,155.0,0.1,169.1,-12.5,,,,,00:51:25,10.8,-0.8,9.8,0.0,-17.0,0.1,-0.01,1.0,99.0,29.0,25.0,0.0,30.08,1110.0,,,82.0,,,,,0.0,0.0,,,,,,,0.0,,,-67.0,,,,,,,,,54.0,78.0,940.0,940.0,14.3,2.8,,2.8,25.2,,,41.9,0.0,0.0,-0.4,10.5,8.4,,,,,114.0,449.0,117.0,455.0,114.0,478.0,115.0,481.0,,,6.0,0.0,,25.2,4.0,0.001,,,0.654,0.85,+53.9,78.0,,,,,,940.0,2026-04-13 17:49:08-07:00
146.06,2.0,9.0,2026-04-14 00:51:27,37.05892,-120.86837,156.0,0.0,169.1,-12.5,,,,,00:51:26,10.8,-0.8,9.8,0.0,-17.0,0.1,-0.01,1.0,99.0,-22.0,25.0,0.0,30.08,1110.0,,,82.0,,,,,0.0,0.0,,,,,,,0.0,,,-67.0,,,,,3.0,0.0,0.0,1200.0,53.0,78.0,893.0,893.0,14.3,2.7,,2.7,25.2,,,41.9,0.0,0.0,-0.4,10.5,8.4,,,,,114.0,452.0,117.0,454.0,114.0,483.0,115.0,483.0,,,6.0,0.0,,25.2,4.0,0.001,,,0.653,0.85,+53.3,78.0,,,,,,893.0,2026-04-13 17:49:08-07:00
147.06,2.0,9.0,2026-04-14 00:51:28,37.05892,-120.86837,155.0,0.0,169.1,-12.5,,,,,00:51:27,10.8,-0.8,9.8,0.0,-17.0,0.1,-0.01,1.0,99.0,0.0,25.0,0.0,30.08,1110.0,,,82.0,,,,,0.0,0.0,,,,,,,0.0,,,-67.0,,,,,1.0,0.0,0.0,1200.0,53.0,78.0,884.0,884.0,14.5,2.5,,2.5,25.3,,,41.9,0.0,0.0,-0.4,10.5,8.4,,,,,114.0,448.0,117.0,456.0,114.0,487.0,115.0,489.0,,,6.0,0.0,,25.3,4.0,0.001,,,0.656,0.85,+52.9,77.9,,,,,,884.0,2026-04-13 17:49:08-07:00
148.06,2.0,9.0,2026-04-14 00:51:29,37.05891,-120.86837,155.0,0.0,169.1,-12.5,,,,,00:51:28,10.8,-0.8,9.8,0.0,-17.0,0.1,-0.01,1.0,99.0,-18.0,25.0,0.0,30.08,1110.0,,,82.0,,,,,0.0,0.0,,,,,,,0.0,,,-67.0,,,,,1.0,0.0,0.0,1200.0,52.0,78.0,829.0,829.0,14.9,2.5,,2.5,25.3,,,41.9,0.0,0.0,-0.4,10.5,8.4,,,,,114.0,452.0,117.0,455.0,114.0,491.0,115.0,492.0,,,6.0,0.0,,25.3,4.0,0.001,,,0.671,0.85,+51.9,77.9,,,,,,829.0,2026-04-13 17:49:08-07:00
149.06,2.0,9.0,2026-04-14 00:51:30,37.05891,-120.86837,155.0,0.0,169.1,-12.5,,,,,00:51:29,10.8,-0.8,9.8,0.0,-17.0,0.1,-0.01,1.0,99.0,2.0,25.0,0.0,30.08,1110.0,,,82.0,,,,,0.0,0.0,,,,,,,0.0,,,-68.0,,,,,,,,,54.0,78.0,919.0,919.0,14.7,2.4,,2.4,25.3,,,41.9,0.0,0.0,-0.4,10.5,8.4,,,,,114.0,452.0,117.0,457.0,114.0,496.0,115.0,498.0,,,6.0,0.0,,25.3,4.0,0.002,,,0.663,0.85,+53.9,77.9,,,,,,919.0,2026-04-13 17:49:08-07:00
150.06,2.0,9.0,2026-04-14 00:51:31,37.05891,-120.86837,154.0,0.0,169.1,-12.5,,,,,00:51:30,10.8,-0.8,9.8,0.0,-17.0,0.1,-0.02,1.0,99.0,-47.0,25.0,0.0,30.08,1110.0,,,82.0,,,,,0.0,0.0,,,,,,,0.0,,,-68.0,,,,,,,,,54.0,78.0,927.0,927.0,14.4,2.3,,2.3,25.3,,,41.9,0.0,0.0,-0.4,10.5,8.4,,,,,114.0,458.0,118.0,461.0,115.0,499.0,116.0,503.0,,,6.0,0.0,,25.3,4.0,0.002,,,0.66,0.85,+53.6,77.9,,,,,,927.0,2026-04-13 17:49:08-07:00
151.06,2.0,9.0,2026-04-14 00:51:32,37.05891,-120.86837,154.0,0.0,169.1,-12.5,,,,,00:51:31,10.8,-0.8,9.8,0.0,-17.0,0.1,-0.01,1.0,99.0,-42.0,25.0,0.0,30.08,1110.0,,,82.0,,,,,0.0,0.0,,,,,,,0.0,,,-69.0,,,,,,,,,54.0,80.0,899.0,899.0,13.8,2.2,,2.2,25.3,,,41.9,0.0,0.0,6.8,10.5,8.4,,,,,115.0,463.0,118.0,467.0,115.0,503.0,116.0,508.0,,,6.0,0.0,,25.3,4.0,0.002,,,0.657,0.848,+53.5,80.2,,,,,,899.0,2026-04-13 17:49:08-07:00
152.06,2.0,9.0,2026-04-14 00:51:33,37.05891,-120.86836,152.0,0.0,169.1,-12.5,,,,,00:51:32,10.8,-0.8,9.7,0.0,-17.0,0.1,-0.01,1.0,99.0,-48.0,25.0,0.0,30.08,1110.0,,,82.0,,,,,0.0,0.0,,,,,,,0.0,,,-69.0,,,,,,,,,53.0,80.0,859.0,859.0,14.5,2.1,,2.1,25.3,,,41.9,0.0,0.0,26.0,10.5,8.4,,,,,115.0,469.0,118.0,473.0,115.0,506.0,116.0,511.0,,,6.0,0.0,,25.3,4.0,0.002,,,0.66,0.85,+52.6,80.0,,,,,,859.0,2026-04-13 17:49:08-07:00
