Session Time,GPS Fix Quality,Number of Satellites,GPS Date & Time,Latitude (deg),Longitude (deg),GPS Altitude (feet),Ground Speed (knots),Ground Track (deg),Mag Var (deg),Cross Track Error (NM),Destination Waypoint ID,Range to Destination (NM),Bearing to Destination (deg),System Time,Pitch (deg),Roll (deg),Magnetic Heading (deg),Indicated Airspeed (knots),Pressure Altitude (ft),Turn Rate (deg/s),Lateral Accel (g),Vertical Accel(g),Angle of Attack (%),Vertical Speed (ft/min),OAT (deg C),True Airspeed (knots),Barometer Setting (inHg),Density Altitude (ft),Wind Direction (deg),Wind Speed (knots),Heading Bug (deg),Altitude Bug (ft),Airspeed Bug (knots),Vertical Speed Bug (ft/min),Course (deg),CDI Source Type,CDI Source Port,CDI Scale (NM),CDI Deflection (%),Glideslope (%),AP Engaged,AP Roll Mode,AP Roll Force,AP Roll Position (steps),AP Roll Slip (bool),AP Pitch Force,AP Pitch Position (steps),AP Pitch Slip (bool),AP Yaw Force,AP Yaw Position,AP Yaw Slip (bool),Transponder Status,Transponder Reply (bool),Transponder Identing (bool),Transponder Code (octal),Oil Pressure (PSI),Oil Temp (deg C),RPM L,RPM R,Manifold Pressure (inHg),Fuel Flow 1 (gal/hr),Fuel Flow 2 (gal/hr),Total Fuel Flow (gal/hr),Fuel Pressure (PSI),Fuel Level L (gal),Fuel Level R (gal),Fuel Remaining (gal),Volts 1,Volts 2,Amps,Hobbs Time,Tach Time,Thermocouple 1 (deg C),Thermocouple 2 (deg C),Thermocouple 3 (deg C),Thermocouple 4 (deg C),CHT 4 (deg C),EGT 4 (deg C),CHT 3 (deg C),EGT 3 (deg C),CHT 2 (deg C),EGT 2 (deg C),CHT 1 (deg C),EGT 1 (deg C),Thermocouple 13 (deg C),Thermocouple 14 (deg C),ELEV POSITION (%),CO PPM PRESSURE (PSI),GP Input 3,FUEL PRESSURE (PSI),AILERN POSITION (%),CANOPY CONTACT (V),GP Input 7,GP Input 8,LEFT LEVEL (Sensor V),RIGHT LEVEL (Sensor V),OIL PRESSURE (PSI),OIL TEMPERATURE (deg C),GP Input 13,Contacts,Percent Power,EGT Leaning State,Unnamed: 103,RPM,AVG_CHT,CHT_Delta_T,OIL_Delta_T,Fuel Flow Integral,Distance Traveled,MPG,Flight ID
8.06,1.0,7.0,2026-04-30 00:25:12,37.08161,-121.59956,321.0,0.0,286.4,-12.6,0.0,,0.0,0.0,0.0,10.9,-0.9,26.1,0.0,240.0,0.1,-0.01,1.0,99.0,-38.0,26.0,0.0,29.89,1656.0,0.0,0.0,144.0,0.0,0.0,0.0,0.0,0.0,0.0,0.0,0.0,0.0,0.0,0.0,0.0,0.0,0.0,0.0,0.0,0.0,0.0,0.0,0.0,0.0,0.0,0.0,0.0,0.0,26.0,0.0,0.0,31.2,0.0,0.0,0.0,0.0,0.0,0.0,21.8,0.0,0.0,-0.1,12.9,10.6,0.0,0.0,0.0,0.0,26.0,30.0,26.0,26.0,26.0,30.0,26.0,26.0,0.0,0.0,-4.0,254.3,0.0,0.0,3.0,0.0,0.0,0.0,1.304,0.835,0.0,25.7,0.0,0.0,0.0,,0.0,0.0,26.0,0.0,-0.3000000000000007,0.0,0.0,0.0,2026-04-29 17:25:12-07:00
9.06,1.0,7.0,2026-04-30 00:25:13,37.08161,-121.59962,281.0,0.1,286.4,-12.6,0.0,,0.0,0.0,0.0,10.9,-0.9,26.1,0.0,240.0,0.1,-0.01,1.0,99.0,-21.0,26.0,0.0,29.89,1656.0,0.0,0.0,144.0,0.0,0.0,0.0,0.0,0.0,0.0,0.0,0.0,0.0,0.0,0.0,0.0,0.0,0.0,0.0,0.0,0.0,0.0,0.0,0.0,0.0,0.0,0.0,0.0,0.0,26.0,0.0,0.0,31.2,0.0,0.0,0.0,0.0,0.0,0.0,21.8,0.0,0.0,-0.1,12.9,10.6,0.0,0.0,0.0,0.0,26.0,29.0,26.0,26.0,26.0,29.0,26.0,26.0,0.0,0.0,-4.0,254.3,0.0,0.0,3.0,0.0,0.0,0.0,1.304,0.835,0.0,25.7,0.0,0.0,0.0,,0.0,0.0,26.0,0.0,-0.3000000000000007,0.0,0.08433333333333333,0.0,2026-04-29 17:25:12-07:00
10.06,1.0,7.0,2026-04-30 00:25:14,37.08161,-121.59962,282.0,0.0,286.4,-12.6,0.0,,0.0,0.0,0.0,10.9,-0.9,26.1,0.0,239.0,0.1,-0.01,1.0,99.0,-28.0,26.0,0.0,29.89,1656.0,0.0,0.0,144.0,0.0,0.0,0.0,0.0,0.0,0.0,0.0,0.0,0.0,0.0,0.0,0.0,0.0,0.0,0.0,0.0,0.0,0.0,0.0,0.0,0.0,0.0,0.0,0.0,0.0,26.0,0.0,0.0,31.2,0.0,0.0,0.0,0.0,0.0,0.0,21.8,0.0,0.0,-0.1,12.9,10.6,0.0,0.0,0.0,0.0,26.0,29.0,26.0,26.0,26.0,29.0,26.0,26.0,0.0,0.0,-4.0,254.3,0.0,0.0,3.0,0.0,0.0,0.0,1.304,0.835,0.0,25.7,0.0,0.0,0.0,,0.0,0.0,26.0,0.0,-0.3000000000000007,0.0,0.16866666666666666,0.0,2026-04-29 17:25:12-07:00
11.06,1.0,7.0,2026-04-30 00:25:15,37.08161,-121.59962,283.0,0.0,286.4,-12.6,0.0,,0.0,0.0,0.0,10.9,-0.9,26.1,0.0,239.0,0.1,-0.01,1.0,99.0,-32.0,26.0,0.0,29.89,1653.0,0.0,0.0,144.0,0.0,0.0,0.0,0.0,0.0,0.0,0.0,0.0,0.0,0.0,0.0,0.0,0.0,0.0,0.0,0.0,0.0,0.0,0.0,0.0,0.0,0.0,0.0,0.0,0.0,26.0,0.0,0.0,31.2,0.0,0.0,0.0,0.0,0.0,0.0,21.8,0.0,0.0,-0.1,12.9,10.6,0.0,0.0,0.0,0.0,26.0,30.0,26.0,26.0,26.0,30.0,26.0,26.0,0.0,0.0,-4.0,254.2,0.0,0.0,3.0,0.0,0.0,0.0,1.304,0.835,0.0,25.7,0.0,0.0,0.0,,0.0,0.0,26.0,0.0,-0.3000000000000007,0.0,0.16866666666666666,0.0,2026-04-29 17:25:12-07:00
12.06,1.0,7.0,2026-04-30 00:25:16,37.08161,-121.59962,284.0,0.0,286.4,-12.6,0.0,,0.0,0.0,0.0,10.9,-0.9,26.1,0.0,238.0,0.1,-0.01,1.0,99.0,-11.0,26.0,0.0,29.89,1653.0,0.0,0.0,144.0,0.0,0.0,0.0,0.0,0.0,0.0,0.0,0.0,0.0,0.0,0.0,0.0,0.0,0.0,0.0,0.0,0.0,0.0,0.0,0.0,0.0,0.0,0.0,0.0,0.0,26.0,0.0,0.0,31.2,0.0,0.0,0.0,0.0,0.0,0.0,21.8,0.0,0.0,-0.1,12.9,10.6,0.0,0.0,0.0,0.0,26.0,30.0,26.0,26.0,26.0,30.0,26.0,26.0,0.0,0.0,-4.0,254.2,0.0,0.0,3.0,0.0,0.0,0.0,1.304,0.835,0.0,25.7,0.0,0.0,0.0,,0.0,0.0,26.0,0.0,-0.3000000000000007,0.0,0.16866666666666666,0.0,2026-04-29 17:25:12-07:00
13.06,1.0,7.0,2026-04-30 00:25:17,37.08161,-121.59962,285.0,0.0,286.4,-12.6,0.0,,0.0,0.0,0.0,10.9,-0.9,26.1,0.0,238.0,0.1,-0.01,1.0,99.0,1.0,26.0,0.0,29.89,1653.0,0.0,0.0,144.0,0.0,0.0,0.0,0.0,0.0,0.0,0.0,0.0,0.0,0.0,0.0,0.0,0.0,0.0,0.0,0.0,0.0,0.0,0.0,0.0,0.0,0.0,0.0,0.0,0.0,26.0,0.0,0.0,31.2,0.0,0.0,0.0,0.0,0.0,0.0,21.8,0.0,0.0,-0.1,12.9,10.6,0.0,0.0,0.0,0.0,26.0,29.0,26.0,26.0,26.0,29.0,26.0,26.0,0.0,0.0,-4.0,254.2,0.0,0.0,3.0,0.0,0.0,0.0,1.304,0.835,0.0,25.6,0.0,0.0,0.0,,0.0,0.0,26.0,0.0,-0.3999999999999986,0.0,0.16866666666666666,0.0,2026-04-29 17:25:12-07:00
14.06,1.0,8.0,2026-04-30 00:25:18,37.0816,-121.59955,391.0,0.0,286.4,-12.6,0.0,,0.0,0.0,0.0,10.9,-0.9,26.1,0.0,237.0,0.1,-0.02,1.0,99.0,-34.0,26.0,0.0,29.89,1661.0,0.0,0.0,144.0,0.0,0.0,0.0,0.0,0.0,0.0,0.0,0.0,0.0,0.0,0.0,0.0,0.0,0.0,0.0,0.0,0.0,0.0,0.0,0.0,0.0,0.0,0.0,0.0,0.0,26.0,0.0,0.0,31.2,0.0,0.0,0.0,0.0,0.0,0.0,21.8,0.0,0.0,-0.1,12.9,10.6,0.0,0.0,0.0,0.0,26.0,30.0,26.0,26.0,26.0,30.0,26.0,26.0,0.0,0.0,-4.0,254.2,0.0,0.0,3.0,0.0,0.0,0.0,1.304,0.835,0.0,25.6,0.0,0.0,0.0,,0.0,0.0,26.0,0.0,-0.3999999999999986,0.0,0.16866666666666666,0.0,2026-04-29 17:25:12-07:00
15.06,1.0,8.0,2026-04-30 00:25:19,37.08161,-121.59958,325.0,0.0,286.4,-12.6,0.0,,0.0,0.0,0.0,10.9,-0.9,26.1,0.0,236.0,0.1,-0.01,1.0,99.0,-20.0,27.0,0.0,29.89,1660.0,0.0,0.0,144.0,0.0,0.0,0.0,0.0,0.0,0.0,0.0,0.0,0.0,0.0,0.0,0.0,0.0,0.0,0.0,0.0,0.0,0.0,0.0,0.0,0.0,0.0,0.0,0.0,0.0,26.0,0.0,0.0,31.2,0.0,0.0,0.0,0.0,0.0,0.0,21.8,0.0,0.0,-0.1,12.9,10.6,0.0,0.0,0.0,0.0,26.0,30.0,26.0,26.0,26.0,30.0,26.0,26.0,0.0,0.0,-4.0,254.2,0.0,0.0,3.0,0.0,0.0,0.0,1.304,0.835,0.0,25.6,0.0,0.0,0.0,,0.0,0.0,26.0,-1.0,-1.3999999999999986,0.0,0.16866666666666666,0.0,2026-04-29 17:25:12-07:00
16.06,1.0,8.0,2026-04-30 00:25:20,37.08161,-121.59958,325.0,0.0,286.4,-12.6,0.0,,0.0,0.0,0.0,10.9,-0.9,26.1,0.0,235.0,0.1,-0.02,1.0,99.0,-54.0,27.0,0.0,29.89,1660.0,0.0,0.0,144.0,0.0,0.0,0.0,0.0,0.0,0.0,0.0,0.0,0.0,0.0,0.0,0.0,0.0,0.0,0.0,0.0,0.0,0.0,0.0,0.0,0.0,0.0,0.0,0.0,0.0,26.0,0.0,0.0,31.2,0.0,0.0,0.0,0.0,0.0,0.0,21.8,0.0,0.0,-0.1,12.9,10.6,0.0,0.0,0.0,0.0,26.0,30.0,26.0,26.0,26.0,30.0,26.0,26.0,0.0,0.0,-4.0,254.2,0.0,0.0,3.0,0.0,0.0,0.0,1.304,0.835,0.0,25.6,0.0,0.0,0.0,,0.0,0.0,26.0,-1.0,-1.3999999999999986,0.0,0.16866666666666666,0.0,2026-04-29 17:25:12-07:00
17.06,1.0,8.0,2026-04-30 00:25:21,37.0816,-121.59958,326.0,0.0,286.4,-12.6,0.0,,0.0,0.0,0.0,10.9,-0.9,26.1,0.0,235.0,0.1,-0.01,1.0,99.0,-11.0,27.0,0.0,29.89,1658.0,0.0,0.0,144.0,0.0,0.0,0.0,0.0,0.0,0.0,0.0,0.0,0.0,0.0,0.0,0.0,0.0,0.0,0.0,0.0,0.0,0.0,0.0,0.0,0.0,0.0,0.0,0.0,0.0,26.0,0.0,0.0,31.2,0.0,0.0,0.0,0.0,0.0,0.0,21.8,0.0,0.0,-0.1,12.9,10.6,0.0,0.0,0.0,0.0,26.0,30.0,26.0,26.0,26.0,30.0,26.0,26.0,0.0,0.0,-4.0,254.2,0.0,0.0,3.0,0.0,0.0,0.0,1.304,0.835,0.0,25.6,0.0,0.0,0.0,,0.0,0.0,26.0,-1.0,-1.3999999999999986,0.0,0.16866666666666666,0.0,2026-04-29 17:25:12-07:00
18.06,1.0,8.0,2026-04-30 00:25:22,37.0816,-121.59958,327.0,0.0,286.4,-12.6,0.0,,0.0,0.0,0.0,10.9,-0.9,26.1,0.0,234.0,0.1,-0.01,1.0,99.0,-42.0,27.0,0.0,29.89,1658.0,0.0,0.0,144.0,0.0,0.0,0.0,0.0,0.0,0.0,0.0,0.0,0.0,0.0,0.0,0.0,0.0,0.0,0.0,0.0,0.0,0.0,0.0,0.0,0.0,0.0,0.0,0.0,0.0,26.0,0.0,0.0,31.2,0.0,0.0,0.0,0.0,0.0,0.0,21.8,0.0,0.0,-0.1,12.9,10.6,0.0,0.0,0.0,0.0,26.0,30.0,26.0,26.0,26.0,30.0,26.0,26.0,0.0,0.0,-4.0,254.2,0.0,0.0,3.0,0.0,0.0,0.0,1.304,0.835,0.0,25.6,0.0,0.0,0.0,,0.0,0.0,26.0,-1.0,-1.3999999999999986,0.0,0.16866666666666666,0.0,2026-04-29 17:25:12-07:00
19.06,1.0,8.0,2026-04-30 00:25:23,37.0816,-121.59958,328.0,0.0,286.4,-12.6,0.0,,0.0,0.0,0.0,10.9,-0.9,26.1,0.0,233.0,0.1,-0.02,1.0,99.0,-39.0,27.0,0.0,29.89,1658.0,0.0,0.0,144.0,0.0,0.0,0.0,0.0,0.0,0.0,0.0,0.0,0.0,0.0,0.0,0.0,0.0,0.0,0.0,0.0,0.0,0.0,0.0,0.0,0.0,0.0,0.0,0.0,0.0,26.0,0.0,0.0,31.2,0.0,0.0,0.0,0.0,0.0,0.0,21.8,0.0,0.0,-0.1,12.9,10.6,0.0,0.0,0.0,0.0,26.0,30.0,26.0,26.0,26.0,30.0,26.0,26.0,0.0,0.0,-4.0,254.2,0.0,0.0,3.0,0.0,0.0,0.0,1.304,0.835,0.0,25.6,0.0,0.0,0.0,,0.0,0.0,26.0,-1.0,-1.3999999999999986,0.0,0.16866666666666666,0.0,2026-04-29 17:25:12-07:00
20.06,1.0,8.0,2026-04-30 00:25:24,37.0816,-121.59958,329.0,0.0,286.4,-12.6,0.0,,0.0,0.0,0.0,10.9,-1.0,26.1,0.0,233.0,0.1,-0.02,1.0,99.0,-31.0,27.0,0.0,29.89,1657.0,0.0,0.0,144.0,0.0,0.0,0.0,0.0,0.0,0.0,0.0,0.0,0.0,0.0,0.0,0.0,0.0,0.0,0.0,0.0,0.0,0.0,0.0,0.0,0.0,0.0,0.0,0.0,0.0,26.0,0.0,0.0,31.2,0.0,0.0,0.0,0.0,0.0,0.0,21.8,0.0,0.0,-0.1,12.9,10.6,0.0,0.0,0.0,0.0,26.0,30.0,26.0,26.0,26.0,30.0,26.0,26.0,0.0,0.0,-4.0,254.2,0.0,0.0,3.0,0.0,0.0,0.0,1.304,0.835,0.0,25.6,0.0,0.0,0.0,,0.0,0.0,26.0,-1.0,-1.3999999999999986,0.0,0.16866666666666666,0.0,2026-04-29 17:25:12-07:00
21.06,1.0,8.0,2026-04-30 00:25:25,37.0816,-121.59958,330.0,0.1,286.4,-12.6,0.0,,0.0,0.0,0.0,10.9,-1.0,26.1,0.0,231.0,0.1,-0.02,1.0,99.0,-63.0,27.0,0.0,29.89,1657.0,0.0,0.0,144.0,0.0,0.0,0.0,0.0,0.0,0.0,0.0,0.0,0.0,0.0,0.0,0.0,0.0,0.0,0.0,0.0,0.0,0.0,0.0,0.0,0.0,0.0,0.0,0.0,0.0,26.0,0.0,0.0,31.2,0.0,0.0,0.0,0.0,0.0,0.0,21.8,0.0,0.0,-0.1,12.9,10.6,0.0,0.0,0.0,0.0,26.0,30.0,26.0,26.0,26.0,30.0,26.0,26.0,0.0,0.0,-4.0,254.2,0.0,0.0,3.0,0.0,0.0,0.0,1.304,0.835,0.0,25.6,0.0,0.0,0.0,,0.0,0.0,26.0,-1.0,-1.3999999999999986,0.0,0.253,0.0,2026-04-29 17:25:12-07:00
22.06,1.0,8.0,2026-04-30 00:25:26,37.0816,-121.59958,330.0,0.0,286.4,-12.6,0.0,,0.0,0.0,0.0,10.9,-1.0,26.1,0.0,229.0,0.1,-0.02,1.0,99.0,-87.0,27.0,0.0,29.89,1657.0,0.0,0.0,144.0,0.0,0.0,0.0,0.0,0.0,0.0,0.0,0.0,0.0,0.0,0.0,0.0,0.0,0.0,0.0,0.0,0.0,0.0,0.0,0.0,0.0,0.0,0.0,0.0,0.0,26.0,0.0,0.0,31.2,0.0,0.0,0.0,0.0,0.0,0.0,21.8,0.0,0.0,-0.1,12.9,10.6,0.0,0.0,0.0,0.0,26.0,30.0,26.0,26.0,26.0,30.0,26.0,26.0,0.0,0.0,-4.0,254.2,0.0,0.0,3.0,0.0,0.0,0.0,1.304,0.835,0.0,25.6,0.0,0.0,0.0,,0.0,0.0,26.0,-1.0,-1.3999999999999986,0.0,0.3373333333333333,0.0,2026-04-29 17:25:12-07:00
23.06,1.0,8.0,2026-04-30 00:25:27,37.0816,-121.59958,331.0,0.0,286.4,-12.6,0.0,,0.0,0.0,0.0,11.0,-0.9,26.0,0.0,226.0,0.1,-0.02,1.0,99.0,-106.0,27.0,0.0,29.89,1649.0,0.0,0.0,144.0,0.0,0.0,0.0,0.0,0.0,0.0,0.0,0.0,0.0,0.0,0.0,0.0,0.0,0.0,0.0,0.0,0.0,0.0,0.0,0.0,0.0,0.0,0.0,0.0,0.0,26.0,0.0,0.0,31.2,0.0,0.0,0.0,0.0,0.0,0.0,21.8,0.0,0.0,-0.1,12.9,10.6,0.0,0.0,0.0,0.0,26.0,30.0,26.0,26.0,26.0,30.0,26.0,26.0,0.0,0.0,-4.0,254.2,0.0,0.0,3.0,0.0,0.0,0.0,1.304,0.835,0.0,25.6,0.0,0.0,0.0,,0.0,0.0,26.0,-1.0,-1.3999999999999986,0.0,0.3373333333333333,0.0,2026-04-29 17:25:12-07:00
24.06,1.0,8.0,2026-04-30 00:25:28,37.08159,-121.59958,331.0,0.0,286.4,-12.6,0.0,,0.0,0.0,0.0,11.0,-0.9,26.0,0.0,225.0,0.1,-0.01,1.0,99.0,-89.0,27.0,0.0,29.89,1649.0,0.0,0.0,144.0,0.0,0.0,0.0,0.0,0.0,0.0,0.0,0.0,0.0,0.0,0.0,0.0,0.0,0.0,0.0,0.0,0.0,0.0,0.0,0.0,0.0,0.0,0.0,0.0,0.0,26.0,0.0,0.0,31.2,0.0,0.0,0.0,0.0,0.0,0.0,21.8,0.0,0.0,-0.1,12.9,10.6,0.0,0.0,0.0,0.0,26.0,30.0,26.0,26.0,26.0,30.0,26.0,26.0,0.0,0.0,-3.0,254.2,0.0,0.0,3.0,0.0,0.0,0.0,1.304,0.835,0.0,25.6,0.0,0.0,0.0,,0.0,0.0,26.0,-1.0,-1.3999999999999986,0.0,0.3373333333333333,0.0,2026-04-29 17:25:12-07:00
25.06,1.0,8.0,2026-04-30 00:25:29,37.08159,-121.59958,332.0,0.0,286.4,-12.6,0.0,,0.0,0.0,0.0,11.0,-0.9,26.1,0.0,225.0,0.1,-0.01,1.0,99.0,-34.0,27.0,0.0,29.89,1649.0,0.0,0.0,144.0,0.0,0.0,0.0,0.0,0.0,0.0,0.0,0.0,0.0,0.0,0.0,0.0,0.0,0.0,0.0,0.0,0.0,0.0,0.0,0.0,0.0,0.0,0.0,0.0,0.0,26.0,0.0,0.0,31.2,0.0,0.0,0.0,0.0,0.0,0.0,21.8,0.0,0.0,-0.1,12.9,10.6,0.0,0.0,0.0,0.0,26.0,30.0,26.0,26.0,26.0,30.0,26.0,26.0,0.0,0.0,-1.0,254.2,0.0,0.0,3.0,0.0,0.0,0.0,1.304,0.835,0.0,25.6,0.0,0.0,0.0,,0.0,0.0,26.0,-1.0,-1.3999999999999986,0.0,0.3373333333333333,0.0,2026-04-29 17:25:12-07:00
26.06,1.0,8.0,2026-04-30 00:25:30,37.08159,-121.59958,333.0,0.0,286.4,-12.6,0.0,,0.0,0.0,0.0,11.0,-0.9,26.1,0.0,225.0,0.1,-0.01,1.0,99.0,4.0,27.0,0.0,29.89,1657.0,0.0,0.0,144.0,0.0,0.0,0.0,0.0,0.0,0.0,0.0,0.0,0.0,0.0,0.0,0.0,0.0,0.0,0.0,0.0,0.0,0.0,0.0,0.0,0.0,0.0,0.0,0.0,0.0,26.0,0.0,0.0,31.2,0.0,0.0,0.0,0.0,0.0,0.0,21.8,0.0,0.0,-0.1,12.9,10.6,0.0,0.0,0.0,0.0,27.0,30.0,27.0,26.0,27.0,30.0,27.0,26.0,0.0,0.0,0.0,254.2,0.0,0.0,3.0,0.0,0.0,0.0,1.304,0.835,0.0,25.6,0.0,0.0,0.0,,0.0,0.0,27.0,0.0,-1.3999999999999986,0.0,0.3373333333333333,0.0,2026-04-29 17:25:12-07:00
27.06,1.0,8.0,2026-04-30 00:25:31,37.08159,-121.59958,334.0,0.0,286.4,-12.6,0.0,,0.0,0.0,0.0,11.0,-0.9,26.1,0.0,225.0,0.1,-0.01,1.0,99.0,-32.0,27.0,0.0,29.89,1657.0,0.0,0.0,144.0,0.0,0.0,0.0,0.0,0.0,0.0,0.0,0.0,0.0,0.0,0.0,0.0,0.0,0.0,0.0,0.0,0.0,0.0,0.0,0.0,0.0,0.0,0.0,0.0,0.0,26.0,0.0,0.0,31.2,0.0,0.0,0.0,0.0,0.0,0.0,21.8,0.0,0.0,-0.1,12.9,10.6,0.0,0.0,0.0,0.0,26.0,30.0,26.0,26.0,26.0,30.0,26.0,26.0,0.0,0.0,1.0,254.2,0.0,0.0,3.0,0.0,0.0,0.0,1.304,0.835,0.0,25.6,0.0,0.0,0.0,,0.0,0.0,26.0,-1.0,-1.3999999999999986,0.0,0.3373333333333333,0.0,2026-04-29 17:25:12-07:00
28.06,1.0,8.0,2026-04-30 00:25:32,37.08158,-121.59958,335.0,0.0,286.4,-12.6,0.0,,0.0,0.0,0.0,11.0,-0.9,26.1,0.0,223.0,0.1,-0.01,1.0,99.0,-40.0,27.0,0.0,29.89,1657.0,0.0,0.0,144.0,0.0,0.0,0.0,0.0,0.0,0.0,0.0,0.0,0.0,0.0,0.0,0.0,0.0,0.0,0.0,0.0,0.0,0.0,0.0,0.0,0.0,0.0,0.0,0.0,0.0,26.0,0.0,0.0,31.1,0.0,0.0,0.0,0.0,0.0,0.0,21.8,0.0,0.0,-0.1,12.9,10.6,0.0,0.0,0.0,0.0,26.0,30.0,26.0,26.0,26.0,30.0,26.0,26.0,0.0,0.0,1.0,254.2,0.0,0.0,3.0,0.0,0.0,0.0,1.304,0.835,0.0,25.6,0.0,0.0,0.0,,0.0,0.0,26.0,-1.0,-1.3999999999999986,0.0,0.3373333333333333,0.0,2026-04-29 17:25:12-07:00
29.06,1.0,8.0,2026-04-30 00:25:33,37.08158,-121.59958,336.0,0.0,286.4,-12.6,0.0,,0.0,0.0,0.0,10.9,-0.9,26.1,0.0,222.0,0.1,-0.02,1.0,99.0,-75.0,27.0,0.0,29.89,1655.0,0.0,0.0,144.0,0.0,0.0,0.0,0.0,0.0,0.0,0.0,0.0,0.0,0.0,0.0,0.0,0.0,0.0,0.0,0.0,0.0,0.0,0.0,0.0,0.0,0.0,0.0,0.0,0.0,26.0,0.0,0.0,31.1,0.0,0.0,0.0,0.0,0.0,0.0,21.8,0.0,0.0,-0.1,12.9,10.6,0.0,0.0,0.0,0.0,26.0,30.0,26.0,26.0,26.0,30.0,26.0,26.0,0.0,0.0,1.0,254.2,0.0,0.0,3.0,0.0,0.0,0.0,1.304,0.835,0.0,25.6,0.0,0.0,0.0,,0.0,0.0,26.0,-1.0,-1.3999999999999986,0.0,0.3373333333333333,0.0,2026-04-29 17:25:12-07:00
30.06,1.0,8.0,2026-04-30 00:25:34,37.08158,-121.59958,337.0,0.0,286.4,-12.6,0.0,,0.0,0.0,0.0,11.0,-0.9,26.0,0.0,221.0,0.1,-0.02,1.0,99.0,-16.0,27.0,0.0,29.89,1655.0,0.0,0.0,144.0,0.0,0.0,0.0,0.0,0.0,0.0,0.0,0.0,0.0,0.0,0.0,0.0,0.0,0.0,0.0,0.0,0.0,0.0,0.0,0.0,0.0,0.0,0.0,0.0,0.0,26.0,0.0,0.0,31.1,0.0,0.0,0.0,0.0,0.0,0.0,21.8,0.0,0.0,-0.1,12.9,10.6,0.0,0.0,0.0,0.0,26.0,30.0,26.0,26.0,26.0,30.0,26.0,26.0,0.0,0.0,1.0,254.2,0.0,0.0,3.0,0.0,0.0,0.0,1.304,0.835,0.0,25.6,0.0,0.0,0.0,,0.0,0.0,26.0,-1.0,-1.3999999999999986,0.0,0.3373333333333333,0.0,2026-04-29 17:25:12-07:00
31.06,1.0,8.0,2026-04-30 00:25:35,37.08158,-121.59957,338.0,0.0,286.4,-12.6,0.0,,0.0,0.0,0.0,10.9,-1.0,26.0,0.0,221.0,0.1,-0.02,1.0,99.0,-62.0,27.0,0.0,29.89,1655.0,0.0,0.0,144.0,0.0,0.0,0.0,0.0,0.0,0.0,0.0,0.0,0.0,0.0,0.0,0.0,0.0,0.0,0.0,0.0,0.0,0.0,0.0,0.0,0.0,0.0,0.0,0.0,0.0,26.0,0.0,0.0,31.1,0.0,0.0,0.0,0.0,0.0,0.0,21.8,0.0,0.0,-0.1,12.9,10.6,0.0,0.0,0.0,0.0,27.0,30.0,27.0,26.0,27.0,30.0,27.0,26.0,0.0,0.0,1.0,254.2,0.0,0.0,3.0,0.0,0.0,0.0,1.304,0.835,0.0,25.6,0.0,0.0,0.0,,0.0,0.0,27.0,0.0,-1.3999999999999986,0.0,0.3373333333333333,0.0,2026-04-29 17:25:12-07:00
32.06,1.0,8.0,2026-04-30 00:25:36,37.08158,-121.59957,339.0,0.0,286.4,-12.6,-0.08,E16,0.1,89.9,0.0,10.9,-1.0,26.0,0.0,220.0,0.1,-0.02,1.0,99.0,-34.0,27.0,0.0,29.89,1651.0,0.0,0.0,144.0,0.0,0.0,0.0,221.0,0.0,0.0,5.0,-2.0,0.0,0.0,0.0,0.0,0.0,0.0,0.0,0.0,0.0,0.0,0.0,0.0,0.0,0.0,0.0,0.0,0.0,26.0,0.0,0.0,31.1,0.0,0.0,0.0,0.0,0.0,0.0,21.8,0.0,0.0,-0.1,12.9,10.6,0.0,0.0,0.0,0.0,26.0,30.0,26.0,26.0,26.0,30.0,26.0,26.0,0.0,0.0,1.0,254.2,0.0,0.0,3.0,0.0,0.0,0.0,1.304,0.835,0.0,25.6,0.0,0.0,0.0,,0.0,0.0,26.0,-1.0,-1.3999999999999986,0.0,0.3373333333333333,0.0,2026-04-29 17:25:12-07:00
33.06,1.0,8.0,2026-04-30 00:25:37,37.08158,-121.59957,340.0,0.0,286.4,-12.6,-0.08,E16,0.1,89.9,0.0,10.9,-1.0,26.0,0.0,220.0,0.1,-0.02,1.0,99.0,-28.0,27.0,0.0,29.89,1651.0,0.0,0.0,144.0,0.0,0.0,0.0,221.0,0.0,0.0,5.0,-2.0,0.0,0.0,0.0,0.0,0.0,0.0,0.0,0.0,0.0,0.0,0.0,0.0,0.0,0.0,0.0,0.0,0.0,26.0,0.0,0.0,31.1,0.0,0.0,0.0,0.0,0.0,0.0,21.8,0.0,0.0,-0.1,12.9,10.6,0.0,0.0,0.0,0.0,27.0,30.0,27.0,26.0,27.0,30.0,27.0,26.0,0.0,0.0,1.0,254.2,0.0,0.0,3.0,0.0,0.0,0.0,1.304,0.835,0.0,25.6,0.0,0.0,0.0,,0.0,0.0,27.0,0.0,-1.3999999999999986,0.0,0.3373333333333333,0.0,2026-04-29 17:25:12-07:00
34.06,1.0,8.0,2026-04-30 00:25:38,37.08158,-121.59957,341.0,0.0,286.4,-12.6,-0.08,E16,0.1,89.9,0.0,10.9,-1.0,25.9,0.0,217.0,0.1,-0.02,1.0,99.0,-68.0,27.0,0.0,29.89,1651.0,0.0,0.0,144.0,0.0,0.0,0.0,221.0,0.0,0.0,5.0,-2.0,0.0,0.0,0.0,0.0,0.0,0.0,0.0,0.0,0.0,0.0,0.0,0.0,0.0,0.0,0.0,0.0,0.0,26.0,0.0,0.0,31.1,0.0,0.0,0.0,0.0,0.0,0.0,21.8,0.0,0.0,-0.1,12.9,10.6,0.0,0.0,0.0,0.0,27.0,30.0,27.0,26.0,27.0,30.0,27.0,26.0,0.0,0.0,1.0,254.2,0.0,0.0,3.0,0.0,0.0,0.0,1.304,0.835,0.0,25.6,0.0,0.0,0.0,,0.0,0.0,27.0,0.0,-1.3999999999999986,0.0,0.3373333333333333,0.0,2026-04-29 17:25:12-07:00
35.06,1.0,8.0,2026-04-30 00:25:39,37.08158,-121.59957,342.0,0.0,286.4,-12.6,-0.08,E16,0.1,89.9,0.0,10.9,-1.1,25.9,0.0,217.0,0.1,-0.02,1.0,99.0,-38.0,27.0,0.0,29.89,1658.0,0.0,0.0,144.0,0.0,0.0,0.0,221.0,0.0,0.0,5.0,-2.0,0.0,0.0,0.0,0.0,0.0,0.0,0.0,0.0,0.0,0.0,0.0,0.0,0.0,0.0,0.0,0.0,0.0,26.0,0.0,0.0,31.1,0.0,0.0,0.0,0.0,0.0,0.0,21.8,0.0,0.0,-0.1,12.9,10.6,0.0,0.0,0.0,0.0,27.0,30.0,27.0,26.0,27.0,30.0,27.0,26.0,0.0,0.0,2.0,254.2,0.0,0.0,3.0,0.0,0.0,0.0,1.304,0.835,0.0,25.6,0.0,0.0,0.0,,0.0,0.0,27.0,0.0,-1.3999999999999986,0.0,0.3373333333333333,0.0,2026-04-29 17:25:12-07:00
36.06,1.0,8.0,2026-04-30 00:25:40,37.08157,-121.59957,341.0,0.0,286.4,-12.6,-0.08,E16,0.1,89.7,0.0,10.9,-1.1,25.9,0.0,217.0,0.1,-0.02,1.0,99.0,-58.0,27.0,0.0,29.89,1658.0,0.0,0.0,144.0,0.0,0.0,0.0,221.0,0.0,0.0,5.0,-2.0,0.0,0.0,0.0,0.0,0.0,0.0,0.0,0.0,0.0,0.0,0.0,0.0,0.0,0.0,0.0,0.0,0.0,26.0,0.0,0.0,31.1,0.0,0.0,0.0,0.0,0.0,0.0,21.8,0.0,0.0,-0.1,12.9,10.6,0.0,0.0,0.0,0.0,27.0,30.0,27.0,26.0,27.0,30.0,27.0,26.0,0.0,0.0,2.0,254.2,0.0,0.0,3.0,0.0,0.0,0.0,1.304,0.835,0.0,25.6,0.0,0.0,0.0,,0.0,0.0,27.0,0.0,-1.3999999999999986,0.0,0.3373333333333333,0.0,2026-04-29 17:25:12-07:00
37.06,1.0,8.0,2026-04-30 00:25:41,37.08158,-121.59957,341.0,0.0,286.4,-12.6,-0.08,E16,0.1,89.9,0.0,10.9,-1.0,25.9,0.0,217.0,0.1,-0.02,1.0,99.0,-40.0,27.0,0.0,29.89,1658.0,0.0,0.0,144.0,0.0,0.0,0.0,221.0,0.0,0.0,5.0,-2.0,0.0,0.0,0.0,0.0,0.0,0.0,0.0,0.0,0.0,0.0,0.0,0.0,0.0,0.0,0.0,0.0,0.0,26.0,0.0,0.0,31.1,0.0,0.0,0.0,0.0,0.0,0.0,21.8,0.0,0.0,-0.1,12.9,10.6,0.0,0.0,0.0,0.0,27.0,30.0,27.0,26.0,27.0,30.0,27.0,26.0,0.0,0.0,2.0,254.2,0.0,0.0,3.0,0.0,0.0,0.0,1.304,0.835,0.0,25.6,0.0,0.0,0.0,,0.0,0.0,27.0,0.0,-1.3999999999999986,0.0,0.3373333333333333,0.0,2026-04-29 17:25:12-07:00
38.06,1.0,8.0,2026-04-30 00:25:42,37.08157,-121.59957,342.0,0.0,286.4,-12.6,-0.08,E16,0.1,89.7,0.0,10.9,-1.0,25.9,0.0,216.0,0.1,-0.02,1.0,99.0,-12.0,27.0,0.0,29.89,1656.0,0.0,0.0,144.0,0.0,0.0,0.0,221.0,0.0,0.0,5.0,-2.0,0.0,0.0,0.0,0.0,0.0,0.0,0.0,0.0,0.0,0.0,0.0,0.0,0.0,0.0,0.0,0.0,0.0,26.0,0.0,0.0,31.1,0.0,0.0,0.0,0.0,0.0,0.0,21.8,0.0,0.0,-0.1,12.9,10.6,0.0,0.0,0.0,0.0,27.0,30.0,27.0,26.0,27.0,30.0,27.0,26.0,0.0,0.0,2.0,254.2,0.0,0.0,3.0,0.0,0.0,0.0,1.304,0.835,0.0,25.6,0.0,0.0,0.0,,0.0,0.0,27.0,0.0,-1.3999999999999986,0.0,0.3373333333333333,0.0,2026-04-29 17:25:12-07:00
39.06,1.0,8.0,2026-04-30 00:25:43,37.08157,-121.59957,343.0,0.0,286.4,-12.6,-0.08,E16,0.1,89.7,0.0,10.9,-1.0,25.9,0.0,216.0,0.1,-0.02,1.0,99.0,34.0,27.0,0.0,29.89,1656.0,0.0,0.0,144.0,0.0,0.0,0.0,221.0,0.0,0.0,5.0,-2.0,0.0,0.0,0.0,0.0,0.0,0.0,0.0,0.0,0.0,0.0,0.0,0.0,0.0,0.0,0.0,0.0,0.0,26.0,0.0,0.0,31.1,0.0,0.0,0.0,0.0,0.0,0.0,21.8,0.0,0.0,-0.1,12.9,10.6,0.0,0.0,0.0,0.0,27.0,30.0,27.0,26.0,27.0,30.0,27.0,26.0,0.0,0.0,2.0,254.2,0.0,0.0,3.0,0.0,0.0,0.0,1.304,0.835,0.0,25.6,0.0,0.0,0.0,,0.0,0.0,27.0,0.0,-1.3999999999999986,0.0,0.3373333333333333,0.0,2026-04-29 17:25:12-07:00
40.06,1.0,8.0,2026-04-30 00:25:44,37.08157,-121.59957,344.0,0.1,286.4,-12.6,-0.08,E16,0.1,89.7,0.0,10.9,-1.0,25.9,0.0,216.0,0.1,-0.02,1.0,99.0,-17.0,27.0,0.0,29.89,1656.0,0.0,0.0,144.0,0.0,0.0,0.0,221.0,0.0,0.0,5.0,-2.0,0.0,0.0,0.0,0.0,0.0,0.0,0.0,0.0,0.0,0.0,0.0,0.0,0.0,0.0,0.0,0.0,0.0,26.0,0.0,0.0,31.1,0.0,0.0,0.0,0.0,0.0,0.0,21.8,0.0,0.0,-0.1,12.9,10.6,0.0,0.0,0.0,0.0,27.0,30.0,27.0,26.0,27.0,30.0,27.0,26.0,0.0,0.0,2.0,254.2,0.0,0.0,3.0,0.0,0.0,0.0,1.304,0.835,0.0,25.6,0.0,0.0,0.0,,0.0,0.0,27.0,0.0,-1.3999999999999986,0.0,0.42166666666666663,0.0,2026-04-29 17:25:12-07:00
41.06,1.0,8.0,2026-04-30 00:25:45,37.08157,-121.59957,345.0,0.1,286.4,-12.6,-0.08,E16,0.1,89.7,0.0,10.9,-1.0,25.9,0.0,216.0,0.1,-0.02,1.0,99.0,-22.0,27.0,0.0,29.89,1657.0,0.0,0.0,144.0,0.0,0.0,0.0,221.0,0.0,0.0,5.0,-2.0,0.0,0.0,0.0,0.0,0.0,0.0,0.0,0.0,0.0,0.0,0.0,0.0,0.0,0.0,0.0,0.0,0.0,26.0,0.0,0.0,31.1,0.0,0.0,0.0,0.0,0.0,0.0,21.8,0.0,0.0,-0.1,12.9,10.6,0.0,0.0,0.0,0.0,27.0,30.0,27.0,26.0,27.0,30.0,27.0,26.0,0.0,0.0,2.0,254.2,0.0,0.0,3.0,0.0,0.0,0.0,1.304,0.836,0.0,25.6,0.0,0.0,0.0,,0.0,0.0,27.0,0.0,-1.3999999999999986,0.0,0.5903333333333334,0.0,2026-04-29 17:25:12-07:00
42.06,1.0,8.0,2026-04-30 00:25:46,37.08157,-121.59956,345.0,0.0,286.4,-12.6,-0.08,E16,0.1,89.7,0.0,10.9,-1.0,25.9,0.0,215.0,0.1,-0.02,1.0,99.0,-35.0,27.0,0.0,29.89,1657.0,0.0,0.0,144.0,0.0,0.0,0.0,221.0,0.0,0.0,5.0,-2.0,0.0,0.0,0.0,0.0,0.0,0.0,0.0,0.0,0.0,0.0,0.0,0.0,0.0,0.0,0.0,0.0,0.0,26.0,0.0,0.0,31.1,0.0,0.0,0.0,0.0,0.0,0.0,21.8,0.0,0.0,-0.1,12.9,10.6,0.0,0.0,0.0,0.0,27.0,30.0,27.0,26.0,27.0,30.0,27.0,26.0,0.0,0.0,3.0,236.8,0.0,0.0,3.0,0.0,0.0,0.0,1.304,0.835,0.0,25.6,0.0,0.0,0.0,,0.0,0.0,27.0,0.0,-1.3999999999999986,0.0,0.6746666666666666,0.0,2026-04-29 17:25:12-07:00
43.06,1.0,8.0,2026-04-30 00:25:47,37.08157,-121.59956,346.0,0.0,286.4,-12.6,-0.08,E16,0.1,89.7,0.0,10.9,-1.0,25.9,0.0,214.0,0.1,-0.02,1.0,99.0,-42.0,27.0,0.0,29.89,1657.0,0.0,0.0,144.0,0.0,0.0,0.0,221.0,0.0,0.0,5.0,-2.0,0.0,0.0,0.0,0.0,0.0,0.0,0.0,0.0,0.0,0.0,0.0,0.0,0.0,0.0,0.0,0.0,0.0,26.0,0.0,0.0,31.1,0.0,0.0,0.0,0.0,0.0,0.0,21.8,0.0,0.0,-0.1,12.9,10.6,0.0,0.0,0.0,0.0,27.0,30.0,27.0,26.0,27.0,30.0,27.0,26.0,0.0,0.0,3.0,184.3,0.0,0.0,3.0,0.0,0.0,0.0,1.304,0.835,0.0,25.6,0.0,0.0,0.0,,0.0,0.0,27.0,0.0,-1.3999999999999986,0.0,0.6746666666666666,0.0,2026-04-29 17:25:12-07:00
44.06,1.0,8.0,2026-04-30 00:25:48,37.08157,-121.59956,346.0,0.0,286.4,-12.6,-0.08,E16,0.1,89.7,0.0,10.9,-1.0,25.9,0.0,213.0,0.1,-0.02,1.0,99.0,-29.0,27.0,0.0,29.89,1663.0,0.0,0.0,144.0,0.0,0.0,0.0,221.0,0.0,0.0,5.0,-2.0,0.0,0.0,0.0,0.0,0.0,0.0,0.0,0.0,0.0,0.0,0.0,0.0,0.0,0.0,0.0,0.0,0.0,26.0,0.0,0.0,31.1,0.0,0.0,0.0,0.0,0.0,0.0,21.8,0.0,0.0,-0.1,12.9,10.6,0.0,0.0,0.0,0.0,27.0,31.0,27.0,26.0,27.0,30.0,27.0,26.0,0.0,0.0,3.0,143.5,0.0,0.0,3.0,0.0,0.0,0.0,1.304,0.835,0.0,25.5,0.0,0.0,0.0,,0.0,0.0,27.0,0.0,-1.5,0.0,0.6746666666666666,0.0,2026-04-29 17:25:12-07:00
45.06,1.0,8.0,2026-04-30 00:25:49,37.08157,-121.59956,347.0,0.0,286.4,-12.6,-0.08,E16,0.1,89.7,0.0,10.9,-1.0,25.9,0.0,213.0,0.1,-0.02,1.0,99.0,16.0,27.0,0.0,29.89,1663.0,0.0,0.0,144.0,0.0,0.0,0.0,221.0,0.0,0.0,5.0,-2.0,0.0,0.0,0.0,0.0,0.0,0.0,0.0,0.0,0.0,0.0,0.0,0.0,0.0,0.0,0.0,0.0,0.0,26.0,0.0,0.0,31.1,0.0,0.0,0.0,0.0,0.0,0.0,21.8,0.0,0.0,-0.1,12.9,10.6,0.0,0.0,0.0,0.0,27.0,31.0,27.0,26.0,27.0,31.0,27.0,26.0,0.0,0.0,3.0,111.7,0.0,0.0,3.0,0.0,0.0,0.0,1.304,0.837,0.0,25.6,0.0,0.0,0.0,,0.0,0.0,27.0,0.0,-1.3999999999999986,0.0,0.6746666666666666,0.0,2026-04-29 17:25:12-07:00
46.06,1.0,8.0,2026-04-30 00:25:50,37.08157,-121.59956,347.0,0.0,286.4,-12.6,-0.08,E16,0.1,89.7,0.0,10.9,-1.0,25.9,0.0,213.0,0.1,-0.02,1.0,99.0,-3.0,27.0,0.0,29.89,1663.0,0.0,0.0,144.0,0.0,0.0,0.0,221.0,0.0,0.0,5.0,-2.0,0.0,0.0,0.0,0.0,0.0,0.0,0.0,0.0,0.0,0.0,0.0,0.0,0.0,0.0,0.0,0.0,0.0,26.0,0.0,0.0,31.1,0.0,0.0,0.0,0.0,0.0,0.0,21.8,0.0,0.0,-0.1,12.9,10.6,0.0,0.0,0.0,0.0,27.0,31.0,27.0,26.0,27.0,31.0,27.0,26.0,0.0,0.0,3.0,87.1,0.0,0.0,3.0,0.0,0.0,0.0,1.304,0.835,0.0,25.5,0.0,0.0,0.0,,0.0,0.0,27.0,0.0,-1.5,0.0,0.6746666666666666,0.0,2026-04-29 17:25:12-07:00
47.06,1.0,8.0,2026-04-30 00:25:51,37.08157,-121.59956,348.0,0.0,286.4,-12.6,-0.08,E16,0.1,89.7,0.0,10.9,-1.0,25.9,0.0,213.0,0.1,-0.02,1.0,99.0,45.0,27.0,0.0,29.89,1663.0,0.0,0.0,144.0,0.0,0.0,0.0,221.0,0.0,0.0,5.0,-2.0,0.0,0.0,0.0,0.0,0.0,0.0,0.0,0.0,0.0,0.0,0.0,0.0,0.0,0.0,0.0,0.0,0.0,26.0,0.0,0.0,31.1,0.0,0.0,0.0,0.0,0.0,0.0,21.8,0.0,0.0,-0.1,12.9,10.6,0.0,0.0,0.0,0.0,27.0,31.0,26.0,26.0,27.0,30.0,27.0,26.0,0.0,0.0,3.0,67.9,0.0,0.0,3.0,0.0,0.0,0.0,1.304,0.835,0.0,25.5,0.0,0.0,0.0,,0.0,0.0,26.75,-0.25,-1.5,0.0,0.6746666666666666,0.0,2026-04-29 17:25:12-07:00
48.06,1.0,8.0,2026-04-30 00:25:52,37.08157,-121.59956,351.0,0.0,286.4,-12.6,-0.08,E16,0.1,89.7,0.0,10.9,-1.0,25.9,0.0,213.0,0.1,-0.02,1.0,99.0,24.0,27.0,0.0,29.89,1663.0,0.0,0.0,144.0,0.0,0.0,0.0,221.0,0.0,0.0,5.0,-2.0,0.0,0.0,0.0,0.0,0.0,0.0,0.0,0.0,0.0,0.0,0.0,0.0,0.0,0.0,0.0,0.0,0.0,26.0,0.0,0.0,31.1,0.0,0.0,0.0,0.0,0.0,0.0,21.8,0.0,0.0,-0.1,12.9,10.6,0.0,0.0,0.0,0.0,27.0,31.0,27.0,26.0,27.0,31.0,27.0,26.0,0.0,0.0,3.0,53.0,0.0,0.0,3.0,0.0,0.0,0.0,1.304,0.835,0.0,25.5,0.0,0.0,0.0,,0.0,0.0,27.0,0.0,-1.5,0.0,0.6746666666666666,0.0,2026-04-29 17:25:12-07:00
49.06,1.0,8.0,2026-04-30 00:25:53,37.08157,-121.59956,351.0,0.0,286.4,-12.6,-0.08,E16,0.1,89.7,0.0,10.9,-0.9,25.9,0.0,213.0,0.1,-0.02,1.0,99.0,8.0,27.0,0.0,29.89,1663.0,0.0,0.0,144.0,0.0,0.0,0.0,221.0,0.0,0.0,5.0,-2.0,0.0,0.0,0.0,0.0,0.0,0.0,0.0,0.0,0.0,0.0,0.0,0.0,0.0,0.0,0.0,0.0,0.0,26.0,0.0,0.0,31.1,0.0,0.0,0.0,27.3,0.0,0.0,21.8,0.0,0.0,-0.1,12.9,10.6,0.0,0.0,0.0,0.0,27.0,31.0,27.0,26.0,27.0,31.0,27.0,26.0,0.0,0.0,3.0,41.4,0.0,27.3,3.0,0.0,0.0,0.0,1.304,0.835,0.0,25.6,0.0,0.0,0.0,,0.0,0.0,27.0,0.0,-1.3999999999999986,0.0,0.6746666666666666,0.0,2026-04-29 17:25:12-07:00
50.06,1.0,8.0,2026-04-30 00:25:54,37.08157,-121.59956,352.0,0.0,286.4,-12.6,-0.08,E16,0.1,89.7,0.0,10.9,-1.0,25.9,0.0,213.0,0.1,-0.01,1.0,99.0,18.0,27.0,0.0,29.89,1664.0,0.0,0.0,144.0,0.0,0.0,0.0,221.0,0.0,0.0,5.0,-2.0,0.0,0.0,0.0,0.0,0.0,0.0,0.0,0.0,0.0,0.0,0.0,0.0,0.0,0.0,0.0,0.0,0.0,26.0,0.0,0.0,31.1,0.5,0.0,0.5,32.4,0.0,0.0,21.8,0.0,0.0,-0.1,12.9,10.6,0.0,0.0,0.0,0.0,27.0,31.0,27.0,26.0,27.0,31.0,27.0,26.0,0.0,0.0,3.0,32.4,0.0,32.4,3.0,0.0,0.0,0.0,1.304,0.835,0.0,25.6,0.0,0.0,0.0,,0.0,0.0,27.0,0.0,-1.3999999999999986,6.944444444444444e-05,0.6746666666666666,0.0,2026-04-29 17:25:12-07:00
51.06,1.0,8.0,2026-04-30 00:25:55,37.08157,-121.59956,352.0,0.0,286.4,-12.6,-0.08,E16,0.1,89.7,0.0,10.9,-1.0,25.9,0.0,213.0,0.1,-0.01,1.0,99.0,-4.0,27.0,0.0,29.89,1664.0,0.0,0.0,144.0,0.0,0.0,0.0,221.0,0.0,0.0,5.0,-2.0,0.0,0.0,0.0,0.0,0.0,0.0,0.0,0.0,0.0,0.0,0.0,0.0,0.0,0.0,0.0,0.0,0.0,26.0,0.0,0.0,31.2,1.2,0.0,1.2,32.6,0.0,0.0,21.8,0.0,0.0,-0.1,12.9,10.6,0.0,0.0,0.0,0.0,27.0,31.0,27.0,26.0,27.0,31.0,27.0,26.0,0.0,0.0,3.0,25.4,0.0,32.6,3.0,0.0,0.0,0.0,1.304,0.835,0.0,25.5,0.0,0.0,0.0,,0.0,0.0,27.0,0.0,-1.5,0.00030555555555555555,0.6746666666666666,0.0,2026-04-29 17:25:12-07:00
52.06,1.0,8.0,2026-04-30 00:25:56,37.08157,-121.59956,353.0,0.0,286.4,-12.6,-0.08,E16,0.1,89.7,0.0,10.9,-1.0,25.9,0.0,213.0,0.1,-0.02,1.0,99.0,25.0,27.0,0.0,29.89,1664.0,0.0,0.0,144.0,0.0,0.0,0.0,221.0,0.0,0.0,5.0,-2.0,0.0,0.0,0.0,0.0,0.0,0.0,0.0,0.0,0.0,0.0,0.0,0.0,0.0,0.0,0.0,0.0,0.0,26.0,0.0,0.0,31.2,1.8,0.0,1.8,32.6,0.0,0.0,21.8,0.0,0.0,-0.1,12.9,10.6,0.0,0.0,0.0,0.0,27.0,31.0,27.0,27.0,27.0,31.0,27.0,27.0,0.0,0.0,3.0,19.9,0.0,32.6,3.0,0.0,0.0,0.0,1.304,0.835,0.0,25.5,0.0,0.0,0.0,,0.0,0.0,27.0,0.0,-1.5,0.0007222222222222222,0.6746666666666666,0.0,2026-04-29 17:25:12-07:00
53.06,1.0,8.0,2026-04-30 00:25:57,37.08157,-121.59956,353.0,0.0,286.4,-12.6,-0.08,E16,0.1,89.7,0.0,11.0,-1.0,25.9,0.0,213.0,0.1,-0.02,1.0,99.0,8.0,27.0,0.0,29.89,1674.0,0.0,0.0,144.0,0.0,0.0,0.0,221.0,0.0,0.0,5.0,-2.0,0.0,0.0,0.0,0.0,0.0,0.0,0.0,0.0,0.0,0.0,0.0,0.0,0.0,0.0,0.0,0.0,0.0,26.0,0.0,0.0,31.1,2.2,0.0,2.2,32.6,0.0,0.0,21.8,0.0,0.0,-0.1,12.9,10.6,0.0,0.0,0.0,0.0,27.0,31.0,27.0,27.0,27.0,31.0,27.0,27.0,0.0,0.0,3.0,15.7,0.0,32.6,3.0,0.0,0.0,0.0,1.304,0.835,0.0,25.6,0.0,0.0,0.0,,0.0,0.0,27.0,0.0,-1.3999999999999986,0.0012777777777777779,0.6746666666666666,0.0,2026-04-29 17:25:12-07:00
54.06,1.0,8.0,2026-04-30 00:25:58,37.08157,-121.59956,353.0,0.0,286.4,-12.6,-0.08,E16,0.1,89.7,0.0,10.9,-1.0,25.9,0.0,213.0,0.1,-0.02,1.0,99.0,0.0,27.0,0.0,29.89,1674.0,0.0,0.0,144.0,0.0,0.0,0.0,221.0,0.0,0.0,5.0,-2.0,0.0,0.0,0.0,0.0,0.0,0.0,0.0,0.0,0.0,0.0,0.0,0.0,0.0,0.0,0.0,0.0,0.0,26.0,0.0,0.0,31.2,2.5,0.0,2.5,33.0,0.0,0.0,21.8,0.0,0.0,-0.1,12.9,10.6,0.0,0.0,0.0,0.0,27.0,31.0,27.0,27.0,27.0,31.0,27.0,26.0,0.0,0.0,2.0,12.4,0.0,33.0,3.0,0.0,0.0,0.0,1.304,0.835,0.0,25.6,0.0,0.0,0.0,,0.0,0.0,27.0,0.0,-1.3999999999999986,0.0019305555555555556,0.6746666666666666,0.0,2026-04-29 17:25:12-07:00
55.06,1.0,8.0,2026-04-30 00:25:59,37.08157,-121.59956,354.0,0.0,286.4,-12.6,-0.08,E16,0.1,89.7,0.0,10.9,-1.0,25.9,0.0,213.0,0.1,-0.01,1.0,99.0,16.0,27.0,0.0,29.89,1674.0,0.0,0.0,144.0,0.0,0.0,0.0,221.0,0.0,0.0,5.0,-2.0,0.0,0.0,0.0,0.0,0.0,0.0,0.0,0.0,0.0,0.0,0.0,0.0,0.0,0.0,0.0,0.0,0.0,26.0,0.0,0.0,31.1,2.1,0.0,2.1,32.9,0.0,0.0,21.8,0.0,0.0,-0.1,12.9,10.6,0.0,0.0,0.0,0.0,27.0,31.0,27.0,27.0,27.0,31.0,27.0,27.0,0.0,0.0,2.0,9.9,0.0,32.9,3.0,0.0,0.0,0.0,1.304,0.835,0.0,25.5,0.0,0.0,0.0,,0.0,0.0,27.0,0.0,-1.5,0.0025694444444444445,0.6746666666666666,0.0,2026-04-29 17:25:12-07:00
56.06,1.0,8.0,2026-04-30 00:26:00,37.08157,-121.59956,354.0,0.0,286.4,-12.6,-0.08,E16,0.1,89.7,0.0,10.9,-1.0,25.9,0.0,213.0,0.1,-0.02,1.0,99.0,10.0,27.0,0.0,29.89,1674.0,0.0,0.0,144.0,0.0,0.0,0.0,221.0,0.0,0.0,5.0,-2.0,0.0,0.0,0.0,0.0,0.0,0.0,0.0,0.0,0.0,0.0,0.0,0.0,0.0,0.0,0.0,0.0,0.0,26.0,0.0,0.0,31.2,2.1,0.0,2.1,32.6,0.0,0.0,21.8,0.0,0.0,-0.1,12.9,10.6,0.0,0.0,0.0,0.0,27.0,31.0,27.0,27.0,27.0,31.0,27.0,27.0,0.0,0.0,2.0,7.9,0.0,32.6,3.0,0.0,0.0,0.0,1.304,0.834,0.0,25.5,0.0,0.0,0.0,,0.0,0.0,27.0,0.0,-1.5,0.003152777777777778,0.6746666666666666,0.0,2026-04-29 17:25:12-07:00
57.06,1.0,8.0,2026-04-30 00:26:01,37.08157,-121.59955,354.0,0.0,286.4,-12.6,-0.08,E16,0.1,89.7,0.0,11.0,-1.0,25.9,0.0,213.0,0.1,-0.02,1.0,99.0,37.0,27.0,0.0,29.89,1674.0,0.0,0.0,144.0,0.0,0.0,0.0,221.0,0.0,0.0,5.0,-2.0,0.0,0.0,0.0,0.0,0.0,0.0,0.0,0.0,0.0,0.0,0.0,0.0,0.0,0.0,0.0,0.0,0.0,26.0,0.0,0.0,31.2,2.1,0.0,2.1,32.4,0.0,0.0,21.8,0.0,0.0,-0.1,12.9,10.6,0.0,0.0,0.0,0.0,27.0,31.0,27.0,27.0,27.0,31.0,27.0,26.0,0.0,0.0,2.0,6.3,0.0,32.4,3.0,0.0,0.0,0.0,1.304,0.834,0.0,25.5,0.0,0.0,0.0,,0.0,0.0,27.0,0.0,-1.5,0.0037361111111111115,0.6746666666666666,0.0,2026-04-29 17:25:12-07:00
58.06,1.0,8.0,2026-04-30 00:26:02,37.08157,-121.59955,354.0,0.0,286.4,-12.6,-0.08,E16,0.1,89.7,0.0,11.0,-1.0,25.9,0.0,213.0,0.1,-0.02,1.0,99.0,-21.0,27.0,0.0,29.89,1674.0,0.0,0.0,144.0,0.0,0.0,0.0,221.0,0.0,0.0,5.0,-2.0,0.0,0.0,0.0,0.0,0.0,0.0,0.0,0.0,0.0,0.0,0.0,0.0,0.0,0.0,0.0,0.0,0.0,26.0,0.0,0.0,31.2,0.0,0.0,0.0,32.1,0.0,0.0,21.8,0.0,0.0,-0.1,12.9,10.6,0.0,0.0,0.0,0.0,27.0,31.0,27.0,27.0,27.0,31.0,27.0,27.0,0.0,0.0,2.0,5.1,0.0,32.1,3.0,0.0,0.0,0.0,1.304,0.834,0.0,25.5,0.0,0.0,0.0,,0.0,0.0,27.0,0.0,-1.5,0.004027777777777778,0.6746666666666666,0.0,2026-04-29 17:25:12-07:00
59.06,1.0,8.0,2026-04-30 00:26:03,37.08157,-121.59955,354.0,0.0,286.4,-12.6,-0.08,E16,0.1,89.6,0.0,11.0,-0.9,25.9,0.0,213.0,0.1,-0.02,1.0,99.0,-34.0,27.0,0.0,29.89,1674.0,0.0,0.0,144.0,0.0,0.0,0.0,221.0,0.0,0.0,5.0,-2.0,0.0,0.0,0.0,0.0,0.0,0.0,0.0,0.0,0.0,0.0,0.0,0.0,0.0,0.0,0.0,0.0,0.0,26.0,0.0,0.0,31.2,0.0,0.0,0.0,31.9,0.0,0.0,21.8,0.0,0.0,-0.1,12.9,10.6,0.0,0.0,0.0,0.0,27.0,31.0,27.0,27.0,27.0,31.0,27.0,26.0,0.0,0.0,2.0,4.2,0.0,31.9,3.0,0.0,0.0,0.0,1.304,0.834,0.0,25.5,0.0,0.0,0.0,,0.0,0.0,27.0,0.0,-1.5,0.004027777777777778,0.6746666666666666,0.0,2026-04-29 17:25:12-07:00
60.06,1.0,8.0,2026-04-30 00:26:04,37.08157,-121.59955,353.0,0.0,286.4,-12.6,-0.08,E16,0.1,89.6,0.0,11.0,-0.9,26.0,0.0,213.0,0.1,-0.02,1.0,99.0,-4.0,27.0,0.0,29.89,1674.0,0.0,0.0,144.0,0.0,0.0,0.0,221.0,0.0,0.0,5.0,-2.0,0.0,0.0,0.0,0.0,0.0,0.0,0.0,0.0,0.0,0.0,0.0,0.0,0.0,0.0,0.0,0.0,0.0,26.0,0.0,0.0,31.2,0.0,0.0,0.0,31.7,0.0,0.0,21.8,0.0,0.0,-0.1,12.9,10.6,0.0,0.0,0.0,0.0,27.0,31.0,27.0,27.0,27.0,31.0,27.0,27.0,0.0,0.0,2.0,3.5,0.0,31.7,3.0,0.0,0.0,0.0,1.304,0.834,0.0,25.5,0.0,0.0,0.0,,0.0,0.0,27.0,0.0,-1.5,0.004027777777777778,0.6746666666666666,0.0,2026-04-29 17:25:12-07:00
61.06,1.0,8.0,2026-04-30 00:26:05,37.08157,-121.59955,353.0,0.0,286.4,-12.6,-0.08,E16,0.1,89.6,0.0,10.9,-0.9,26.0,0.0,213.0,0.1,-0.02,1.0,99.0,-15.0,27.0,0.0,29.89,1684.0,0.0,0.0,144.0,0.0,0.0,0.0,221.0,0.0,0.0,5.0,-2.0,0.0,0.0,0.0,0.0,0.0,0.0,0.0,0.0,0.0,0.0,0.0,0.0,0.0,0.0,0.0,0.0,0.0,26.0,0.0,0.0,31.2,0.0,0.0,0.0,31.6,0.0,0.0,21.8,0.0,0.0,-0.1,12.9,10.6,0.0,0.0,0.0,0.0,27.0,31.0,27.0,27.0,27.0,31.0,27.0,27.0,0.0,0.0,2.0,2.9,0.0,31.6,3.0,0.0,0.0,0.0,1.304,0.834,0.0,25.5,0.0,0.0,0.0,,0.0,0.0,27.0,0.0,-1.5,0.004027777777777778,0.6746666666666666,0.0,2026-04-29 17:25:12-07:00
62.06,1.0,8.0,2026-04-30 00:26:06,37.08157,-121.59955,352.0,0.0,286.4,-12.6,-0.08,E16,0.1,89.6,0.0,10.9,-0.9,26.0,0.0,212.0,0.1,-0.02,1.0,99.0,-18.0,27.0,0.0,29.89,1684.0,0.0,0.0,144.0,0.0,0.0,0.0,221.0,0.0,0.0,5.0,-2.0,0.0,0.0,0.0,0.0,0.0,0.0,0.0,0.0,0.0,0.0,0.0,0.0,0.0,0.0,0.0,0.0,0.0,26.0,0.0,0.0,31.2,0.0,0.0,0.0,31.4,0.0,0.0,21.8,0.0,0.0,-0.1,12.9,10.6,0.0,0.0,0.0,0.0,27.0,31.0,27.0,27.0,27.0,31.0,27.0,27.0,0.0,0.0,2.0,2.5,0.0,31.4,3.0,0.0,0.0,0.0,1.304,0.834,0.0,25.5,0.0,0.0,0.0,,0.0,0.0,27.0,0.0,-1.5,0.004027777777777778,0.6746666666666666,0.0,2026-04-29 17:25:12-07:00
63.06,1.0,8.0,2026-04-30 00:26:07,37.08157,-121.59955,352.0,0.0,286.4,-12.6,-0.08,E16,0.1,89.6,0.0,10.9,-0.9,26.0,0.0,212.0,0.1,-0.02,1.0,99.0,-20.0,27.0,0.0,29.89,1684.0,0.0,0.0,144.0,0.0,0.0,0.0,221.0,0.0,0.0,5.0,-2.0,0.0,0.0,0.0,0.0,0.0,0.0,0.0,0.0,0.0,0.0,0.0,0.0,0.0,0.0,0.0,0.0,0.0,26.0,0.0,0.0,31.1,0.0,0.0,0.0,31.2,0.0,0.0,21.8,0.0,0.0,-0.1,12.9,10.6,0.0,0.0,0.0,0.0,27.0,31.0,27.0,27.0,27.0,31.0,27.0,26.0,0.0,0.0,2.0,2.2,0.0,31.2,3.0,0.0,0.0,0.0,1.304,0.834,0.0,25.5,0.0,0.0,0.0,,0.0,0.0,27.0,0.0,-1.5,0.004027777777777778,0.6746666666666666,0.0,2026-04-29 17:25:12-07:00
64.06,1.0,8.0,2026-04-30 00:26:08,37.08157,-121.59955,351.0,0.0,286.4,-12.6,-0.08,E16,0.1,89.6,0.0,10.9,-0.9,26.0,0.0,212.0,0.1,-0.02,1.0,99.0,-18.0,27.0,0.0,29.89,1683.0,0.0,0.0,144.0,0.0,0.0,0.0,221.0,0.0,0.0,5.0,-2.0,0.0,0.0,0.0,0.0,0.0,0.0,0.0,0.0,0.0,0.0,0.0,0.0,0.0,0.0,0.0,0.0,0.0,26.0,0.0,0.0,31.1,0.0,0.0,0.0,31.1,0.0,0.0,21.8,0.0,0.0,-0.1,12.9,10.6,0.0,0.0,0.0,0.0,27.0,31.0,27.0,27.0,27.0,31.0,27.0,27.0,0.0,0.0,2.0,1.9,0.0,31.1,3.0,0.0,0.0,0.0,1.304,0.834,0.0,25.5,0.0,0.0,0.0,,0.0,0.0,27.0,0.0,-1.5,0.004027777777777778,0.6746666666666666,0.0,2026-04-29 17:25:12-07:00
65.06,1.0,8.0,2026-04-30 00:26:09,37.08157,-121.59955,351.0,0.0,286.4,-12.6,-0.08,E16,0.1,89.5,0.0,10.9,-0.9,26.0,0.0,211.0,0.1,-0.02,1.0,99.0,-29.0,27.0,0.0,29.89,1683.0,0.0,0.0,144.0,0.0,0.0,0.0,221.0,0.0,0.0,5.0,-2.0,0.0,0.0,0.0,0.0,0.0,0.0,0.0,0.0,0.0,0.0,0.0,0.0,0.0,0.0,0.0,0.0,0.0,26.0,0.0,0.0,31.1,0.0,0.0,0.0,31.0,0.0,0.0,21.8,0.0,0.0,-0.1,12.9,10.6,0.0,0.0,0.0,0.0,27.0,31.0,27.0,27.0,27.0,31.0,27.0,27.0,0.0,0.0,2.0,1.7,0.0,31.0,3.0,0.0,0.0,0.0,1.304,0.834,0.0,25.5,0.0,0.0,0.0,,0.0,0.0,27.0,0.0,-1.5,0.004027777777777778,0.6746666666666666,0.0,2026-04-29 17:25:12-07:00
66.06,1.0,8.0,2026-04-30 00:26:10,37.08157,-121.59955,350.0,0.0,286.4,-12.6,-0.08,E16,0.1,89.5,0.0,10.9,-0.9,26.0,0.0,211.0,0.1,-0.02,1.0,99.0,-38.0,27.0,0.0,29.89,1683.0,0.0,0.0,144.0,0.0,0.0,0.0,221.0,0.0,0.0,5.0,-2.0,0.0,0.0,0.0,0.0,0.0,0.0,0.0,0.0,0.0,0.0,0.0,0.0,0.0,0.0,0.0,0.0,0.0,26.0,0.0,0.0,31.1,0.0,0.0,0.0,30.8,0.0,0.0,21.8,0.0,0.0,-0.1,12.9,10.6,0.0,0.0,0.0,0.0,27.0,31.0,27.0,27.0,27.0,31.0,27.0,27.0,0.0,0.0,2.0,1.5,0.0,30.8,3.0,0.0,0.0,0.0,1.304,0.834,0.0,25.5,0.0,0.0,0.0,,0.0,0.0,27.0,0.0,-1.5,0.004027777777777778,0.6746666666666666,0.0,2026-04-29 17:25:12-07:00
67.06,1.0,8.0,2026-04-30 00:26:11,37.08157,-121.59955,349.0,0.0,286.4,-12.6,-0.08,E16,0.1,89.5,0.0,10.9,-1.0,26.0,0.0,209.0,0.1,-0.02,1.0,99.0,-4.0,27.0,0.0,29.89,1681.0,0.0,0.0,144.0,0.0,0.0,0.0,221.0,0.0,0.0,5.0,-2.0,0.0,0.0,0.0,0.0,0.0,0.0,0.0,0.0,0.0,0.0,0.0,0.0,0.0,0.0,0.0,0.0,0.0,26.0,0.0,0.0,31.1,0.0,0.0,0.0,30.7,0.0,0.0,21.8,0.0,0.0,-0.1,12.9,10.6,0.0,0.0,0.0,0.0,27.0,31.0,27.0,27.0,27.0,31.0,27.0,26.0,0.0,0.0,2.0,1.4,0.0,30.7,3.0,0.0,0.0,0.0,1.304,0.834,0.0,25.5,0.0,0.0,0.0,,0.0,0.0,27.0,0.0,-1.5,0.004027777777777778,0.6746666666666666,0.0,2026-04-29 17:25:12-07:00
68.06,1.0,8.0,2026-04-30 00:26:12,37.08157,-121.59955,348.0,0.0,286.4,-12.6,-0.08,E16,0.1,89.5,0.0,11.0,-1.0,26.0,0.0,209.0,0.1,-0.02,1.0,99.0,-11.0,27.0,0.0,29.89,1681.0,0.0,0.0,144.0,0.0,0.0,0.0,221.0,0.0,0.0,5.0,-2.0,0.0,0.0,0.0,0.0,0.0,0.0,0.0,0.0,0.0,0.0,0.0,0.0,0.0,0.0,0.0,0.0,0.0,26.0,0.0,0.0,31.2,0.0,0.0,0.0,30.6,0.0,0.0,21.8,0.0,0.0,-0.1,12.9,10.6,0.0,0.0,0.0,0.0,27.0,31.0,27.0,27.0,27.0,31.0,27.0,26.0,0.0,0.0,2.0,1.3,0.0,30.6,3.0,0.0,0.0,0.0,1.304,0.834,0.0,25.5,0.0,0.0,0.0,,0.0,0.0,27.0,0.0,-1.5,0.004027777777777778,0.6746666666666666,0.0,2026-04-29 17:25:12-07:00
69.06,1.0,8.0,2026-04-30 00:26:13,37.08156,-121.59954,339.0,0.0,286.4,-12.6,-0.08,E16,0.1,89.2,0.0,11.0,-1.0,25.9,0.0,209.0,0.1,-0.02,1.0,99.0,-18.0,27.0,0.0,29.89,1681.0,0.0,0.0,144.0,0.0,0.0,0.0,221.0,0.0,0.0,5.0,-2.0,0.0,0.0,0.0,0.0,0.0,0.0,0.0,0.0,0.0,0.0,0.0,0.0,0.0,0.0,0.0,0.0,0.0,26.0,0.0,0.0,31.1,0.0,0.0,0.0,30.4,0.0,0.0,21.8,0.0,0.0,-0.1,12.9,10.6,0.0,0.0,0.0,0.0,27.0,31.0,27.0,26.0,27.0,31.0,27.0,26.0,0.0,0.0,1.0,1.2,0.0,30.4,3.0,0.0,0.0,0.0,1.304,0.835,0.0,25.5,0.0,0.0,0.0,,0.0,0.0,27.0,0.0,-1.5,0.004027777777777778,0.6746666666666666,0.0,2026-04-29 17:25:12-07:00
70.06,1.0,8.0,2026-04-30 00:26:14,37.08155,-121.59954,338.0,0.0,286.4,-12.6,-0.08,E16,0.1,89.2,0.0,11.0,-1.0,25.9,0.0,209.0,0.1,-0.01,1.0,99.0,2.0,27.0,0.0,29.89,1689.0,0.0,0.0,144.0,0.0,0.0,0.0,221.0,0.0,0.0,5.0,-2.0,0.0,0.0,0.0,0.0,0.0,0.0,0.0,0.0,0.0,0.0,0.0,0.0,0.0,0.0,0.0,0.0,0.0,23.0,0.0,0.0,31.2,0.0,0.0,0.0,30.4,0.0,0.0,21.8,0.0,0.0,-0.2,12.9,10.6,0.0,0.0,0.0,0.0,23.0,26.0,23.0,21.0,23.0,26.0,23.0,21.0,0.0,0.0,2.0,1.2,0.0,30.4,3.0,0.0,0.0,0.0,1.302,0.847,0.0,22.6,0.0,0.0,0.0,,0.0,0.0,23.0,-4.0,-4.399999999999999,0.004027777777777778,0.6746666666666666,0.0,2026-04-29 17:25:12-07:00
71.06,1.0,8.0,2026-04-30 00:26:15,37.08155,-121.59954,337.0,0.1,286.4,-12.6,-0.08,E16,0.1,89.2,0.0,10.9,-1.1,25.9,0.0,209.0,0.1,-0.01,1.0,99.0,-35.0,27.0,0.0,29.89,1689.0,0.0,0.0,144.0,0.0,0.0,0.0,221.0,0.0,0.0,5.0,-2.0,0.0,0.0,0.0,0.0,0.0,0.0,0.0,0.0,0.0,0.0,0.0,0.0,0.0,0.0,0.0,0.0,1.0,24.0,1149.0,1149.0,28.2,0.8,0.0,0.8,25.4,0.0,0.0,21.8,0.0,0.0,-0.2,12.9,10.6,0.0,0.0,0.0,0.0,25.0,44.0,24.0,44.0,25.0,46.0,25.0,42.0,0.0,0.0,1.0,1.1,0.0,25.4,3.0,0.0,0.0,0.0,1.304,0.861,0.9,23.8,0.0,0.0,0.0,,0.0,1149.0,24.75,-2.25,-3.1999999999999993,0.004138888888888889,0.759,0.125,2026-04-29 17:25:12-07:00
72.06,1.0,8.0,2026-04-30 00:26:16,37.08155,-121.59954,336.0,0.1,286.4,-12.6,-0.08,E16,0.1,89.2,0.0,10.9,-1.0,25.9,0.0,209.0,0.1,-0.02,1.0,99.0,-12.0,27.0,0.0,29.89,1689.0,0.0,0.0,144.0,0.0,0.0,0.0,221.0,0.0,0.0,5.0,-2.0,0.0,0.0,0.0,0.0,0.0,0.0,0.0,0.0,0.0,0.0,0.0,0.0,0.0,0.0,0.0,0.0,5.0,26.0,1475.0,1475.0,22.1,1.8,0.0,1.8,24.3,0.0,0.0,21.8,0.0,0.0,-0.2,12.9,10.6,0.0,0.0,0.0,0.0,27.0,126.0,27.0,120.0,27.0,130.0,27.0,119.0,0.0,0.0,1.0,1.1,0.0,24.3,3.0,0.001,0.0,0.0,1.273,0.856,5.5,25.5,0.0,0.0,7.0,L,0.0,1475.0,27.0,0.0,-1.5,0.0045000000000000005,0.9276666666666666,0.05555555555555556,2026-04-29 17:25:12-07:00
73.06,1.0,8.0,2026-04-30 00:26:17,37.08155,-121.59955,333.0,0.0,286.4,-12.6,-0.08,E16,0.1,89.2,0.0,10.9,-0.9,25.9,0.0,208.0,0.1,-0.02,1.0,99.0,-2.0,27.0,0.0,29.89,1689.0,0.0,0.0,144.0,0.0,0.0,0.0,221.0,0.0,0.0,5.0,-2.0,0.0,0.0,0.0,0.0,0.0,0.0,0.0,0.0,0.0,0.0,0.0,0.0,0.0,0.0,0.0,0.0,5.0,26.0,1570.0,1570.0,20.2,2.5,0.0,2.5,24.8,0.0,0.0,21.8,0.0,0.0,-0.2,12.9,10.6,0.0,0.0,0.0,0.0,27.0,200.0,27.0,182.0,27.0,202.0,28.0,185.0,0.0,0.0,1.0,1.1,0.0,24.8,3.0,0.001,0.0,0.0,1.141,0.846,4.9,25.5,0.0,0.0,14.0,L,0.0,1570.0,27.25,0.25,-1.5,0.005097222222222223,1.012,0.0,2026-04-29 17:25:12-07:00
74.06,1.0,8.0,2026-04-30 00:26:18,37.08155,-121.59954,336.0,0.1,286.4,-12.6,-0.08,E16,0.1,89.2,0.0,10.9,-0.8,25.9,0.0,208.0,0.1,-0.01,1.0,99.0,-25.0,27.0,0.0,29.89,1689.0,0.0,0.0,144.0,0.0,0.0,0.0,221.0,0.0,0.0,5.0,-2.0,0.0,0.0,0.0,0.0,0.0,0.0,0.0,0.0,0.0,0.0,0.0,0.0,0.0,0.0,0.0,0.0,8.0,26.0,1287.0,1287.0,19.0,2.8,0.0,2.8,25.1,0.0,0.0,21.8,0.0,0.0,-0.1,12.9,10.6,0.0,0.0,0.0,0.0,28.0,260.0,28.0,237.0,28.0,267.0,29.0,236.0,0.0,0.0,1.0,1.0,0.0,25.1,3.0,0.001,0.0,0.0,1.304,0.833,7.6,25.5,0.0,0.0,15.0,R,0.0,1287.0,28.25,1.25,-1.5,0.005833333333333334,1.0963333333333334,0.03571428571428572,2026-04-29 17:25:12-07:00
75.06,1.0,8.0,2026-04-30 00:26:19,37.08155,-121.59955,334.0,0.0,286.4,-12.6,-0.08,E16,0.1,89.2,0.0,10.9,-0.9,25.9,0.0,208.0,0.1,-0.01,1.0,99.0,-26.0,27.0,0.0,29.89,1689.0,0.0,0.0,144.0,0.0,0.0,0.0,221.0,0.0,0.0,5.0,-2.0,0.0,0.0,0.0,0.0,0.0,0.0,0.0,0.0,0.0,0.0,0.0,0.0,0.0,0.0,0.0,0.0,15.0,26.0,1249.0,1249.0,19.0,3.0,0.0,3.0,25.1,0.0,0.0,21.8,0.0,0.0,-0.1,12.9,10.6,0.0,0.0,0.0,0.0,28.0,301.0,28.0,273.0,28.0,307.0,29.0,273.0,0.0,0.0,1.0,1.0,0.0,25.1,3.0,0.001,0.0,0.0,1.304,0.836,14.6,25.5,0.0,0.0,0.0,,0.0,1249.0,28.25,1.25,-1.5,0.0066388888888888895,1.1806666666666665,0.0,2026-04-29 17:25:12-07:00
76.06,1.0,8.0,2026-04-30 00:26:20,37.08155,-121.59954,335.0,0.0,286.4,-12.6,-0.08,E16,0.1,89.2,0.0,10.9,-1.0,25.8,0.0,207.0,0.1,-0.01,1.0,99.0,-4.0,27.0,0.0,29.89,1698.0,0.0,0.0,144.0,0.0,0.0,0.0,221.0,0.0,0.0,5.0,-2.0,0.0,0.0,0.0,0.0,0.0,0.0,0.0,0.0,0.0,0.0,0.0,0.0,0.0,0.0,0.0,0.0,25.0,26.0,1211.0,1211.0,18.9,3.1,0.0,3.1,25.2,0.0,0.0,21.8,0.0,0.0,-0.1,12.9,10.6,0.0,0.0,0.0,0.0,29.0,332.0,28.0,306.0,28.0,338.0,29.0,304.0,0.0,0.0,1.0,1.0,0.0,25.2,3.0,0.001,0.0,0.0,1.304,0.84,25.3,25.5,0.0,0.0,0.0,,0.0,1211.0,28.5,1.5,-1.5,0.007486111111111112,1.1806666666666665,0.0,2026-04-29 17:25:12-07:00
77.06,1.0,8.0,2026-04-30 00:26:21,37.08155,-121.59955,333.0,0.0,286.4,-12.6,-0.08,E16,0.1,89.2,0.0,11.0,-1.0,25.8,0.0,207.0,0.0,-0.01,0.9,99.0,-40.0,27.0,0.0,29.89,1698.0,0.0,0.0,144.0,0.0,0.0,0.0,221.0,0.0,0.0,5.0,-2.0,0.0,0.0,0.0,0.0,0.0,0.0,0.0,0.0,0.0,0.0,0.0,0.0,0.0,0.0,0.0,0.0,40.0,26.0,1166.0,1166.0,18.9,3.2,0.0,3.2,25.2,0.0,0.0,21.8,0.0,0.0,-0.1,12.9,10.6,0.0,0.0,0.0,0.0,29.0,356.0,29.0,331.0,29.0,364.0,30.0,331.0,0.0,0.0,2.0,1.0,0.0,25.2,3.0,0.001,0.0,0.0,1.305,0.837,39.9,25.5,0.0,0.0,0.0,,0.0,1166.0,29.25,2.25,-1.5,0.00836111111111111,1.1806666666666665,0.0,2026-04-29 17:25:12-07:00
78.06,1.0,8.0,2026-04-30 00:26:22,37.08155,-121.59955,331.0,0.0,286.4,-12.6,-0.08,E16,0.1,89.2,0.0,11.0,-1.0,25.8,0.0,207.0,0.1,-0.01,0.9,99.0,-13.0,27.0,0.0,29.89,1698.0,0.0,0.0,144.0,0.0,0.0,0.0,221.0,0.0,0.0,5.0,-2.0,0.0,0.0,0.0,0.0,0.0,0.0,0.0,0.0,0.0,0.0,0.0,0.0,0.0,0.0,0.0,0.0,55.0,26.0,1151.0,1151.0,18.9,3.2,0.0,3.2,25.2,0.0,0.0,21.8,0.0,0.0,-0.1,12.9,10.6,0.0,0.0,0.0,0.0,30.0,375.0,29.0,352.0,29.0,385.0,30.0,352.0,0.0,0.0,2.0,1.0,0.0,25.2,3.0,0.001,0.0,0.0,1.304,0.836,55.1,25.5,0.0,0.0,0.0,,0.0,1151.0,29.5,2.5,-1.5,0.009250000000000001,1.1806666666666665,0.0,2026-04-29 17:25:12-07:00
79.06,1.0,8.0,2026-04-30 00:26:23,37.08156,-121.59955,329.0,0.0,286.4,-12.6,-0.08,E16,0.1,89.2,0.0,11.0,-0.9,25.8,0.0,206.0,0.1,-0.01,1.0,99.0,-19.0,27.0,0.0,29.89,1707.0,0.0,0.0,144.0,0.0,0.0,0.0,221.0,0.0,0.0,5.0,-2.0,0.0,0.0,0.0,0.0,0.0,0.0,0.0,0.0,0.0,0.0,0.0,0.0,0.0,0.0,0.0,0.0,67.0,26.0,1126.0,1126.0,18.7,3.2,0.0,3.2,25.2,0.0,0.0,21.8,0.0,0.0,-0.1,12.9,10.6,0.0,0.0,0.0,0.0,30.0,393.0,30.0,371.0,30.0,404.0,31.0,373.0,0.0,0.0,2.0,1.0,0.0,25.2,3.0,0.001,0.0,0.0,1.304,0.839,66.6,25.5,0.0,0.0,0.0,,0.0,1126.0,30.25,3.25,-1.5,0.01013888888888889,1.1806666666666665,0.0,2026-04-29 17:25:12-07:00
80.06,1.0,8.0,2026-04-30 00:26:24,37.08156,-121.59955,328.0,0.0,286.4,-12.6,-0.08,E16,0.1,89.2,0.0,11.0,-0.9,25.8,0.0,206.0,0.1,-0.02,1.0,99.0,-2.0,27.0,0.0,29.89,1707.0,0.0,0.0,144.0,0.0,0.0,0.0,221.0,0.0,0.0,5.0,-2.0,0.0,0.0,0.0,0.0,0.0,0.0,0.0,0.0,0.0,0.0,0.0,0.0,0.0,0.0,0.0,0.0,72.0,26.0,1080.0,1080.0,18.7,3.2,0.0,3.2,25.2,0.0,0.0,21.8,0.0,0.0,-0.1,12.9,10.6,0.0,0.0,0.0,0.0,30.0,408.0,30.0,389.0,30.0,420.0,31.0,391.0,0.0,0.0,2.0,1.0,0.0,25.2,3.0,0.001,0.0,0.0,1.304,0.844,71.5,25.5,0.0,0.0,0.0,,0.0,1080.0,30.25,3.25,-1.5,0.011027777777777779,1.1806666666666665,0.0,2026-04-29 17:25:12-07:00
81.06,1.0,8.0,2026-04-30 00:26:25,37.08156,-121.59956,327.0,0.0,286.4,-12.6,-0.08,E16,0.1,89.2,0.0,11.0,-0.9,25.9,0.0,206.0,0.1,-0.02,1.0,99.0,17.0,27.0,0.0,29.89,1707.0,0.0,0.0,144.0,0.0,0.0,0.0,221.0,0.0,0.0,5.0,-2.0,0.0,0.0,0.0,0.0,0.0,0.0,0.0,0.0,0.0,0.0,0.0,0.0,0.0,0.0,0.0,0.0,71.0,26.0,964.0,964.0,18.8,3.2,0.0,3.2,25.2,0.0,0.0,21.7,0.0,0.0,-0.1,12.9,10.6,0.0,0.0,0.0,0.0,31.0,421.0,31.0,408.0,30.0,431.0,32.0,406.0,0.0,0.0,2.0,1.0,0.0,25.2,3.0,0.001,0.0,0.0,1.304,0.847,71.0,25.5,0.0,0.0,0.0,,0.0,964.0,31.0,4.0,-1.5,0.011916666666666667,1.1806666666666665,0.0,2026-04-29 17:25:12-07:00
82.06,1.0,8.0,2026-04-30 00:26:26,37.08156,-121.59956,325.0,0.0,286.4,-12.6,-0.08,E16,0.1,89.2,0.0,11.0,-0.9,25.9,0.0,206.0,0.1,-0.01,1.0,99.0,34.0,27.0,0.0,29.89,1716.0,0.0,0.0,144.0,0.0,0.0,0.0,221.0,0.0,0.0,5.0,-2.0,0.0,0.0,0.0,0.0,0.0,0.0,0.0,0.0,0.0,0.0,0.0,0.0,0.0,0.0,0.0,0.0,70.0,26.0,956.0,956.0,19.0,3.2,0.0,3.2,25.4,0.0,0.0,21.7,0.0,0.0,-0.1,12.9,10.6,0.0,0.0,0.0,0.0,31.0,431.0,31.0,420.0,31.0,439.0,32.0,416.0,0.0,0.0,2.0,1.0,0.0,25.4,3.0,0.001,0.0,0.0,1.304,0.856,70.3,25.5,0.0,0.0,0.0,,0.0,956.0,31.25,4.25,-1.5,0.012805555555555556,1.1806666666666665,0.0,2026-04-29 17:25:12-07:00
83.06,1.0,8.0,2026-04-30 00:26:27,37.08156,-121.59956,324.0,0.0,286.4,-12.6,-0.08,E16,0.1,89.2,0.0,11.0,-0.9,25.9,0.0,206.0,0.1,-0.02,1.0,99.0,52.0,27.0,0.0,29.89,1716.0,0.0,0.0,144.0,0.0,0.0,0.0,221.0,0.0,0.0,5.0,-2.0,0.0,0.0,0.0,0.0,0.0,0.0,0.0,0.0,0.0,0.0,0.0,0.0,0.0,0.0,0.0,0.0,70.0,26.0,995.0,995.0,18.9,3.0,0.0,3.0,25.5,0.0,0.0,21.7,0.0,0.0,-0.1,12.9,10.6,0.0,0.0,0.0,0.0,32.0,441.0,32.0,430.0,31.0,446.0,33.0,426.0,0.0,0.0,2.0,1.0,0.0,25.5,3.0,0.001,0.0,0.0,1.304,0.845,70.4,25.5,0.0,0.0,0.0,,0.0,995.0,32.0,5.0,-1.5,0.013666666666666667,1.1806666666666665,0.0,2026-04-29 17:25:12-07:00
84.06,1.0,8.0,2026-04-30 00:26:28,37.08157,-121.59961,269.0,0.0,286.4,-12.6,-0.08,E16,0.1,89.6,0.0,10.9,-0.9,25.9,0.0,206.0,0.1,-0.02,1.0,99.0,10.0,27.0,0.0,29.89,1716.0,0.0,0.0,144.0,0.0,0.0,0.0,221.0,0.0,0.0,5.0,-2.0,0.0,0.0,0.0,0.0,0.0,0.0,0.0,0.0,0.0,0.0,0.0,0.0,0.0,0.0,0.0,0.0,69.0,26.0,877.0,877.0,19.5,3.1,0.0,3.1,25.0,0.0,0.0,21.7,0.0,0.0,-0.1,12.9,10.6,0.0,0.0,0.0,0.0,32.0,440.0,32.0,439.0,32.0,452.0,33.0,435.0,0.0,0.0,2.0,1.0,0.0,25.0,3.0,0.001,0.0,0.0,1.304,0.847,69.0,25.5,0.0,0.0,0.0,,0.0,877.0,32.25,5.25,-1.5,0.01451388888888889,1.1806666666666665,0.0,2026-04-29 17:25:12-07:00
85.06,1.0,8.0,2026-04-30 00:26:29,37.08157,-121.59961,268.0,0.0,286.4,-12.6,-0.08,E16,0.1,89.6,0.0,10.9,-0.9,25.9,0.0,206.0,0.1,-0.02,1.0,99.0,30.0,27.0,0.0,29.89,1717.0,0.0,0.0,144.0,0.0,0.0,0.0,221.0,0.0,0.0,5.0,-2.0,0.0,0.0,0.0,0.0,0.0,0.0,0.0,0.0,0.0,0.0,0.0,0.0,0.0,0.0,0.0,0.0,67.0,26.0,834.0,834.0,20.5,3.2,0.0,3.2,24.9,0.0,0.0,21.7,0.0,0.0,-0.1,12.9,10.6,0.0,0.0,0.0,0.0,32.0,445.0,32.0,448.0,32.0,459.0,34.0,444.0,0.0,0.0,2.0,1.0,0.0,24.9,3.0,0.001,0.0,0.0,1.304,0.84,66.9,25.5,0.0,0.0,0.0,,0.0,834.0,32.5,5.5,-1.5,0.01538888888888889,1.1806666666666665,0.0,2026-04-29 17:25:12-07:00
86.06,1.0,8.0,2026-04-30 00:26:30,37.08157,-121.59961,268.0,0.0,286.4,-12.6,-0.08,E16,0.1,89.6,0.0,10.9,-0.9,25.9,0.0,206.0,0.1,-0.02,1.0,99.0,46.0,27.0,0.0,29.89,1717.0,0.0,0.0,144.0,0.0,0.0,0.0,221.0,0.0,0.0,5.0,-2.0,0.0,0.0,0.0,0.0,0.0,0.0,0.0,0.0,0.0,0.0,0.0,0.0,0.0,0.0,0.0,0.0,66.0,26.0,833.0,833.0,20.9,3.2,0.0,3.2,24.9,0.0,0.0,21.7,0.0,0.0,-0.1,12.9,10.6,0.0,0.0,0.0,0.0,33.0,450.0,33.0,454.0,32.0,463.0,34.0,452.0,0.0,0.0,2.0,1.0,0.0,24.9,3.0,0.001,0.0,0.0,1.304,0.844,65.8,25.5,0.0,0.0,0.0,,0.0,833.0,33.0,6.0,-1.5,0.01627777777777778,1.1806666666666665,0.0,2026-04-29 17:25:12-07:00
87.06,1.0,8.0,2026-04-30 00:26:31,37.08157,-121.59961,269.0,0.0,286.4,-12.6,-0.08,E16,0.1,89.6,0.0,10.9,-0.9,25.9,0.0,206.0,0.1,-0.02,1.0,99.0,28.0,27.0,0.0,29.89,1717.0,0.0,0.0,144.0,0.0,0.0,0.0,221.0,0.0,0.0,5.0,-2.0,0.0,0.0,0.0,0.0,0.0,0.0,0.0,0.0,0.0,0.0,0.0,0.0,0.0,0.0,0.0,0.0,66.0,26.0,902.0,902.0,21.1,3.3,0.0,3.3,25.0,0.0,0.0,21.7,0.0,0.0,-0.1,12.9,10.6,0.0,0.0,0.0,0.0,33.0,458.0,33.0,461.0,33.0,468.0,35.0,459.0,0.0,0.0,2.0,0.0,0.0,25.0,3.0,0.001,0.0,0.0,1.304,0.837,66.2,25.5,0.0,0.0,0.0,,0.0,902.0,33.5,6.5,-1.5,0.017180555555555557,1.1806666666666665,0.0,2026-04-29 17:25:12-07:00
88.06,1.0,8.0,2026-04-30 00:26:32,37.08157,-121.59961,271.0,0.0,286.4,-12.6,-0.08,E16,0.1,89.6,0.0,10.8,-1.0,25.9,0.0,206.0,0.1,-0.02,1.0,99.0,33.0,27.0,0.0,29.89,1727.0,0.0,0.0,144.0,0.0,0.0,0.0,221.0,0.0,0.0,5.0,-2.0,0.0,0.0,0.0,0.0,0.0,0.0,0.0,0.0,0.0,0.0,0.0,0.0,0.0,0.0,0.0,0.0,67.0,26.0,946.0,946.0,20.9,3.4,0.0,3.4,25.0,0.0,0.0,21.7,0.0,0.0,-0.1,12.9,10.6,0.0,0.0,0.0,0.0,33.0,463.0,34.0,469.0,33.0,473.0,35.0,465.0,0.0,0.0,2.0,0.0,0.0,25.0,3.0,0.001,0.0,0.0,1.304,0.842,67.4,25.5,0.0,0.0,9.0,R,0.0,946.0,33.75,6.75,-1.5,0.018111111111111113,1.1806666666666665,0.0,2026-04-29 17:25:12-07:00
89.06,1.0,8.0,2026-04-30 00:26:33,37.08157,-121.5996,272.0,0.1,286.4,-12.6,-0.08,E16,0.1,89.6,0.0,10.9,-0.9,25.9,0.0,206.0,0.1,-0.01,1.0,99.0,49.0,27.0,0.0,29.89,1727.0,0.0,0.0,144.0,0.0,0.0,0.0,221.0,0.0,0.0,5.0,-2.0,0.0,0.0,0.0,0.0,0.0,0.0,0.0,0.0,0.0,0.0,0.0,0.0,0.0,0.0,0.0,0.0,69.0,26.0,1075.0,1075.0,20.1,3.3,0.0,3.3,25.8,0.0,0.0,21.7,0.0,0.0,-0.1,12.9,10.6,0.0,0.0,0.0,0.0,34.0,467.0,34.0,474.0,33.0,478.0,35.0,469.0,0.0,0.0,2.0,0.0,0.0,25.8,3.0,0.001,0.0,0.0,1.304,0.85,69.4,25.6,0.0,0.0,0.0,,0.0,1075.0,34.0,7.0,-1.3999999999999986,0.01904166666666667,1.265,0.030303030303030307,2026-04-29 17:25:12-07:00
90.06,1.0,8.0,2026-04-30 00:26:34,37.08157,-121.5996,274.0,0.1,286.4,-12.6,-0.08,E16,0.1,89.6,0.0,10.9,-1.0,25.9,0.0,206.0,0.0,-0.01,1.0,99.0,65.0,27.0,0.0,29.89,1728.0,0.0,0.0,144.0,0.0,0.0,0.0,221.0,0.0,0.0,5.0,-2.0,0.0,0.0,0.0,0.0,0.0,0.0,0.0,0.0,0.0,0.0,0.0,0.0,0.0,0.0,0.0,0.0,73.0,26.0,1136.0,1136.0,18.8,3.0,0.0,3.0,25.8,0.0,0.0,21.7,0.0,0.0,-0.1,12.9,10.6,0.0,0.0,0.0,0.0,34.0,474.0,34.0,480.0,34.0,492.0,36.0,479.0,0.0,0.0,3.0,0.0,0.0,25.8,3.0,0.001,0.0,0.0,1.304,0.842,73.0,25.6,0.0,0.0,0.0,,0.0,1136.0,34.5,7.5,-1.3999999999999986,0.019916666666666666,1.4336666666666666,0.03333333333333333,2026-04-29 17:25:12-07:00
91.06,1.0,8.0,2026-04-30 00:26:35,37.08157,-121.5996,276.0,0.0,286.4,-12.6,-0.08,E16,0.1,89.6,0.0,10.9,-1.0,25.9,0.0,206.0,0.0,-0.02,0.9,99.0,46.0,28.0,0.0,29.89,1728.0,0.0,0.0,144.0,0.0,0.0,0.0,221.0,0.0,0.0,5.0,-2.0,0.0,0.0,0.0,0.0,0.0,0.0,0.0,0.0,0.0,0.0,0.0,0.0,0.0,0.0,0.0,0.0,75.0,26.0,1143.0,1143.0,18.4,2.7,0.0,2.7,25.8,0.0,0.0,21.7,0.0,0.0,-0.1,12.9,10.6,0.0,0.0,0.0,0.0,35.0,481.0,35.0,487.0,34.0,507.0,37.0,491.0,0.0,0.0,3.0,0.0,0.0,25.8,3.0,0.001,0.0,0.0,1.304,0.834,74.5,25.6,0.0,0.0,0.0,,0.0,1143.0,35.25,7.25,-2.3999999999999986,0.020708333333333336,1.518,0.0,2026-04-29 17:25:12-07:00
92.06,1.0,8.0,2026-04-30 00:26:36,37.08157,-121.5996,278.0,0.1,286.4,-12.6,-0.08,E16,0.1,89.6,0.0,11.0,-0.9,25.8,0.0,206.0,0.0,-0.01,1.0,99.0,48.0,28.0,0.0,29.89,1728.0,0.0,0.0,144.0,0.0,0.0,0.0,221.0,0.0,0.0,5.0,-2.0,0.0,0.0,0.0,0.0,0.0,0.0,0.0,0.0,0.0,0.0,0.0,0.0,0.0,0.0,0.0,0.0,70.0,26.0,705.0,705.0,17.5,2.4,0.0,2.4,25.7,0.0,0.0,21.7,0.0,0.0,-0.1,12.9,10.6,0.0,0.0,0.0,0.0,35.0,476.0,35.0,481.0,35.0,515.0,37.0,498.0,0.0,0.0,3.0,0.0,0.0,25.7,3.0,0.001,0.0,0.0,1.304,0.85,70.0,25.6,0.0,0.0,0.0,,0.0,705.0,35.5,7.5,-2.3999999999999986,0.021416666666666667,1.6023333333333332,0.04166666666666667,2026-04-29 17:25:12-07:00
93.06,1.0,8.0,2026-04-30 00:26:37,37.08157,-121.5996,280.0,0.0,286.4,-12.6,-0.08,E16,0.1,89.6,0.0,11.0,-1.0,25.8,0.0,206.0,0.0,-0.01,1.0,99.0,36.0,28.0,0.0,29.89,1737.0,0.0,0.0,144.0,0.0,0.0,0.0,221.0,0.0,0.0,5.0,-2.0,0.0,0.0,0.0,0.0,0.0,0.0,0.0,0.0,0.0,0.0,0.0,0.0,0.0,0.0,0.0,0.0,65.0,26.0,815.0,815.0,19.4,2.2,0.0,2.2,25.6,0.0,0.0,21.7,0.0,0.0,-0.1,12.9,10.6,0.0,0.0,0.0,0.0,35.0,474.0,36.0,478.0,35.0,511.0,38.0,496.0,0.0,0.0,3.0,0.0,0.0,25.6,3.0,0.001,0.0,0.0,1.304,0.845,65.2,25.6,0.0,0.0,0.0,,0.0,815.0,36.0,8.0,-2.3999999999999986,0.022055555555555557,1.6866666666666665,0.0,2026-04-29 17:25:12-07:00
94.06,1.0,8.0,2026-04-30 00:26:38,37.08157,-121.5996,281.0,0.0,286.4,-12.6,-0.08,E16,0.1,89.6,0.0,11.0,-0.9,25.8,0.0,206.0,0.1,-0.01,1.0,99.0,6.0,28.0,0.0,29.89,1737.0,0.0,0.0,144.0,0.0,0.0,0.0,221.0,0.0,0.0,5.0,-2.0,0.0,0.0,0.0,0.0,0.0,0.0,0.0,0.0,0.0,0.0,0.0,0.0,0.0,0.0,0.0,0.0,66.0,26.0,911.0,911.0,19.1,2.1,0.0,2.1,25.7,0.0,0.0,21.7,0.0,0.0,-0.1,12.9,10.6,0.0,0.0,0.0,0.0,36.0,477.0,36.0,481.0,36.0,516.0,38.0,499.0,0.0,0.0,3.0,0.0,0.0,25.7,3.0,0.001,0.0,0.0,1.304,0.837,66.3,25.6,0.0,0.0,0.0,,0.0,911.0,36.5,8.5,-2.3999999999999986,0.02265277777777778,1.6866666666666665,0.0,2026-04-29 17:25:12-07:00
95.06,1.0,8.0,2026-04-30 00:26:39,37.08157,-121.59959,283.0,0.0,286.4,-12.6,-0.08,E16,0.1,89.6,0.0,10.9,-0.9,25.8,0.0,206.0,0.1,-0.02,1.0,99.0,22.0,28.0,0.0,29.89,1738.0,0.0,0.0,144.0,0.0,0.0,0.0,221.0,0.0,0.0,5.0,-2.0,0.0,0.0,0.0,0.0,0.0,0.0,0.0,0.0,0.0,0.0,0.0,0.0,0.0,0.0,0.0,0.0,68.0,26.0,936.0,936.0,18.6,2.0,0.0,2.0,25.7,0.0,0.0,21.7,0.0,0.0,-0.1,12.9,10.6,0.0,0.0,0.0,0.0,36.0,481.0,37.0,484.0,36.0,528.0,39.0,505.0,0.0,0.0,3.0,0.0,0.0,25.7,3.0,0.001,0.0,0.0,1.304,0.839,67.7,25.6,0.0,0.0,0.0,,0.0,936.0,37.0,9.0,-2.3999999999999986,0.023222222222222224,1.6866666666666665,0.0,2026-04-29 17:25:12-07:00
96.06,1.0,8.0,2026-04-30 00:26:40,37.08157,-121.59959,285.0,0.0,286.4,-12.6,-0.08,E16,0.1,89.6,0.0,10.9,-0.9,25.9,0.0,207.0,0.1,-0.02,0.9,99.0,8.0,28.0,0.0,29.89,1739.0,0.0,0.0,144.0,0.0,0.0,0.0,221.0,0.0,0.0,5.0,-2.0,0.0,0.0,0.0,0.0,0.0,0.0,0.0,0.0,0.0,0.0,0.0,0.0,0.0,0.0,0.0,0.0,68.0,26.0,927.0,927.0,18.5,1.9,0.0,1.9,25.7,0.0,0.0,21.7,0.0,0.0,-0.1,12.9,10.6,0.0,0.0,0.0,0.0,37.0,484.0,37.0,486.0,37.0,542.0,39.0,515.0,0.0,0.0,3.0,0.0,0.0,25.7,3.0,0.001,0.0,0.0,1.304,0.846,68.2,25.6,0.0,0.0,0.0,,0.0,927.0,37.5,9.5,-2.3999999999999986,0.02376388888888889,1.6866666666666665,0.0,2026-04-29 17:25:12-07:00
97.06,1.0,8.0,2026-04-30 00:26:41,37.08157,-121.59959,287.0,0.0,286.4,-12.6,-0.08,E16,0.1,89.6,0.0,10.9,-0.9,25.9,0.0,207.0,0.1,-0.02,0.9,99.0,-35.0,28.0,0.0,29.89,1739.0,0.0,0.0,144.0,0.0,0.0,0.0,221.0,0.0,0.0,5.0,-2.0,0.0,0.0,0.0,0.0,0.0,0.0,0.0,0.0,0.0,0.0,0.0,0.0,0.0,0.0,0.0,0.0,68.0,26.0,919.0,919.0,18.5,1.9,0.0,1.9,25.7,0.0,0.0,21.7,0.0,0.0,-0.1,12.9,10.6,0.0,0.0,0.0,0.0,37.0,488.0,38.0,489.0,37.0,551.0,40.0,529.0,0.0,0.0,3.0,0.0,0.0,25.7,3.0,0.001,0.0,0.0,1.304,0.841,68.2,25.6,0.0,0.0,0.0,,0.0,919.0,38.0,10.0,-2.3999999999999986,0.024291666666666666,1.6866666666666665,0.0,2026-04-29 17:25:12-07:00
98.06,1.0,8.0,2026-04-30 00:26:42,37.08157,-121.59959,289.0,0.0,286.4,-12.6,-0.08,E16,0.1,89.6,0.0,10.9,-0.9,26.0,0.0,207.0,0.1,-0.02,1.0,99.0,-15.0,28.0,0.0,29.89,1739.0,0.0,0.0,144.0,0.0,0.0,0.0,221.0,0.0,0.0,5.0,-2.0,0.0,0.0,0.0,0.0,0.0,0.0,0.0,0.0,0.0,0.0,0.0,0.0,0.0,0.0,0.0,0.0,68.0,26.0,947.0,947.0,18.6,1.8,0.0,1.8,25.7,0.0,0.0,21.7,0.0,0.0,-0.1,12.9,10.6,0.0,0.0,0.0,0.0,38.0,491.0,38.0,492.0,37.0,562.0,40.0,539.0,0.0,0.0,3.0,0.0,0.0,25.7,3.0,0.001,0.0,0.0,1.304,0.839,68.3,25.6,0.0,0.0,0.0,,0.0,947.0,38.25,10.25,-2.3999999999999986,0.024805555555555556,1.6866666666666665,0.0,2026-04-29 17:25:12-07:00
99.06,1.0,8.0,2026-04-30 00:26:43,37.08157,-121.59959,296.0,0.0,286.4,-12.6,-0.08,E16,0.1,89.6,0.0,11.0,-0.9,26.0,0.0,207.0,0.1,-0.02,1.0,99.0,-4.0,28.0,0.0,29.89,1749.0,0.0,0.0,144.0,0.0,0.0,0.0,221.0,0.0,0.0,5.0,-2.0,0.0,0.0,0.0,0.0,0.0,0.0,0.0,0.0,0.0,0.0,0.0,0.0,0.0,0.0,0.0,0.0,68.0,26.0,914.0,914.0,18.4,1.8,0.0,1.8,25.7,0.0,0.0,21.7,0.0,0.0,-0.1,12.9,10.6,0.0,0.0,0.0,0.0,38.0,495.0,39.0,495.0,38.0,572.0,41.0,549.0,0.0,0.0,3.0,0.0,0.0,25.7,3.0,0.001,0.0,0.0,1.304,0.844,68.3,25.6,0.0,0.0,0.0,,0.0,914.0,39.0,11.0,-2.3999999999999986,0.025305555555555557,1.6866666666666665,0.0,2026-04-29 17:25:12-07:00
100.06,1.0,8.0,2026-04-30 00:26:44,37.08157,-121.59959,298.0,0.0,286.4,-12.6,-0.08,E16,0.1,89.6,0.0,11.0,-0.9,25.9,0.0,207.0,0.0,-0.02,1.0,99.0,12.0,28.0,0.0,29.89,1749.0,0.0,0.0,144.0,0.0,0.0,0.0,221.0,0.0,0.0,5.0,-2.0,0.0,0.0,0.0,0.0,0.0,0.0,0.0,0.0,0.0,0.0,0.0,0.0,0.0,0.0,0.0,0.0,68.0,26.0,945.0,945.0,18.5,1.8,0.0,1.8,25.7,0.0,0.0,21.7,0.0,0.0,-0.1,12.9,10.6,0.0,0.0,0.0,0.0,39.0,499.0,39.0,499.0,38.0,579.0,41.0,560.0,0.0,0.0,3.0,0.0,0.0,25.7,3.0,0.001,0.0,0.0,1.304,0.841,68.2,25.6,0.0,0.0,0.0,,0.0,945.0,39.25,11.25,-2.3999999999999986,0.025805555555555557,1.6866666666666665,0.0,2026-04-29 17:25:12-07:00
101.06,1.0,8.0,2026-04-30 00:26:45,37.08157,-121.59959,299.0,0.0,286.4,-12.6,-0.08,E16,0.1,89.6,0.0,11.0,-0.9,26.0,0.0,207.0,0.1,-0.02,1.0,99.0,25.0,28.0,0.0,29.89,1749.0,0.0,0.0,144.0,0.0,0.0,0.0,221.0,0.0,0.0,5.0,-2.0,0.0,0.0,0.0,0.0,0.0,0.0,0.0,0.0,0.0,0.0,0.0,0.0,0.0,0.0,0.0,0.0,68.0,26.0,939.0,939.0,18.5,1.8,0.0,1.8,25.7,0.0,0.0,21.7,0.0,0.0,-0.1,12.9,10.6,0.0,0.0,0.0,0.0,39.0,504.0,40.0,502.0,39.0,587.0,41.0,569.0,0.0,0.0,3.0,0.0,0.0,25.7,3.0,0.001,0.0,0.0,1.304,0.844,68.4,25.7,0.0,0.0,0.0,,0.0,939.0,39.75,11.75,-2.3000000000000007,0.026305555555555558,1.6866666666666665,0.0,2026-04-29 17:25:12-07:00
102.06,1.0,8.0,2026-04-30 00:26:46,37.08157,-121.59959,301.0,0.0,286.4,-12.6,-0.08,E16,0.1,89.6,0.0,11.0,-0.8,26.0,0.0,207.0,0.1,-0.02,0.9,99.0,12.0,28.0,0.0,29.89,1749.0,0.0,0.0,144.0,0.0,0.0,0.0,221.0,0.0,0.0,5.0,-2.0,0.0,0.0,0.0,0.0,0.0,0.0,0.0,0.0,0.0,0.0,0.0,0.0,0.0,0.0,0.0,0.0,69.0,26.0,949.0,949.0,18.5,1.8,0.0,1.8,25.7,0.0,0.0,21.7,0.0,0.0,-0.1,12.9,10.6,0.0,0.0,0.0,0.0,40.0,506.0,40.0,504.0,39.0,592.0,42.0,577.0,0.0,0.0,3.0,0.0,0.0,25.7,3.0,0.001,0.0,0.0,1.304,0.848,68.6,25.7,0.0,0.0,0.0,,0.0,949.0,40.25,12.25,-2.3000000000000007,0.026805555555555555,1.6866666666666665,0.0,2026-04-29 17:25:12-07:00
103.06,1.0,8.0,2026-04-30 00:26:47,37.08157,-121.59959,303.0,0.0,286.4,-12.6,-0.08,E16,0.1,89.6,0.0,11.1,-0.9,25.9,0.0,207.0,0.1,-0.02,1.0,99.0,45.0,28.0,0.0,29.89,1759.0,0.0,0.0,144.0,0.0,0.0,0.0,221.0,0.0,0.0,5.0,-2.0,0.0,0.0,0.0,0.0,0.0,0.0,0.0,0.0,0.0,0.0,0.0,0.0,0.0,0.0,0.0,0.0,69.0,26.0,948.0,948.0,18.4,1.8,0.0,1.8,25.7,0.0,0.0,21.7,0.0,0.0,-0.1,12.9,10.6,0.0,0.0,0.0,0.0,41.0,511.0,41.0,506.0,39.0,598.0,42.0,585.0,0.0,0.0,3.0,0.0,0.0,25.7,3.0,0.001,0.0,0.0,1.304,0.834,68.6,25.7,0.0,0.0,0.0,,0.0,948.0,40.75,12.75,-2.3000000000000007,0.027305555555555555,1.6866666666666665,0.0,2026-04-29 17:25:12-07:00
104.06,1.0,8.0,2026-04-30 00:26:48,37.08157,-121.59959,305.0,0.0,286.4,-12.6,-0.08,E16,0.1,89.6,0.0,11.0,-0.9,25.9,0.0,208.0,0.1,-0.01,1.0,99.0,45.0,28.0,0.0,29.89,1759.0,0.0,0.0,144.0,0.0,0.0,0.0,221.0,0.0,0.0,5.0,-2.0,0.0,0.0,0.0,0.0,0.0,0.0,0.0,0.0,0.0,0.0,0.0,0.0,0.0,0.0,0.0,0.0,69.0,26.0,952.0,952.0,18.3,1.8,0.0,1.8,25.7,0.0,0.0,21.7,0.0,0.0,-0.1,12.9,10.6,0.0,0.0,0.0,0.0,41.0,514.0,41.0,509.0,40.0,603.0,43.0,591.0,0.0,0.0,3.0,0.0,0.0,25.7,3.0,0.001,0.0,0.0,1.304,0.839,69.0,25.7,0.0,0.0,0.0,,0.0,952.0,41.25,13.25,-2.3000000000000007,0.027805555555555556,1.6866666666666665,0.0,2026-04-29 17:25:12-07:00
105.06,1.0,8.0,2026-04-30 00:26:49,37.08157,-121.59958,306.0,0.0,286.4,-12.6,-0.08,E16,0.1,89.6,0.0,11.0,-0.9,25.9,0.0,208.0,0.1,-0.02,0.9,99.0,26.0,28.0,0.0,29.89,1759.0,0.0,0.0,144.0,0.0,0.0,0.0,221.0,0.0,0.0,5.0,-2.0,0.0,0.0,0.0,0.0,0.0,0.0,0.0,0.0,0.0,0.0,0.0,0.0,0.0,0.0,0.0,0.0,69.0,26.0,951.0,951.0,18.3,1.8,0.0,1.8,25.7,0.0,0.0,21.7,0.0,0.0,-0.1,12.9,10.6,0.0,0.0,0.0,0.0,42.0,517.0,42.0,511.0,40.0,607.0,44.0,596.0,0.0,0.0,3.0,0.0,0.0,25.7,3.0,0.002,0.0,0.0,1.304,0.837,69.1,25.7,0.0,0.0,0.0,,0.0,951.0,42.0,14.0,-2.3000000000000007,0.028305555555555556,1.6866666666666665,0.0,2026-04-29 17:25:12-07:00
