Session Time,GPS Fix Quality,Number of Satellites,GPS Date & Time,Latitude (deg),Longitude (deg),GPS Altitude (feet),Ground Speed (knots),Ground Track (deg),Mag Var (deg),Cross Track Error (NM),Destination Waypoint ID,Range to Destination (NM),Bearing to Destination (deg),System Time,Pitch (deg),Roll (deg),Magnetic Heading (deg),Indicated Airspeed (knots),Pressure Altitude (ft),Turn Rate (deg/s),Lateral Accel (g),Vertical Accel(g),Angle of Attack (%),Vertical Speed (ft/min),OAT (deg C),True Airspeed (knots),Barometer Setting (inHg),Density Altitude (ft),Wind Direction (deg),Wind Speed (knots),Heading Bug (deg),Altitude Bug (ft),Airspeed Bug (knots),Vertical Speed Bug (ft/min),Course (deg),CDI Source Type,CDI Source Port,CDI Scale (NM),CDI Deflection (%),Glideslope (%),AP Engaged,AP Roll Mode,AP Roll Force,AP Roll Position (steps),AP Roll Slip (bool),AP Pitch Force,AP Pitch Position (steps),AP Pitch Slip (bool),AP Yaw Force,AP Yaw Position,AP Yaw Slip (bool),Transponder Status,Transponder Reply (bool),Transponder Identing (bool),Transponder Code (octal),Oil Pressure (PSI),Oil Temp (deg C),RPM L,RPM R,Manifold Pressure (inHg),Fuel Flow 1 (gal/hr),Fuel Flow 2 (gal/hr),Total Fuel Flow (gal/hr),Fuel Pressure (PSI),Fuel Level L (gal),Fuel Level R (gal),Fuel Remaining (gal),Volts 1,Volts 2,Amps,Hobbs Time,Tach Time,Thermocouple 1 (deg C),Thermocouple 2 (deg C),Thermocouple 3 (deg C),Thermocouple 4 (deg C),CHT 4 (deg C),EGT 4 (deg C),CHT 3 (deg C),EGT 3 (deg C),CHT 2 (deg C),EGT 2 (deg C),CHT 1 (deg C),EGT 1 (deg C),Thermocouple 13 (deg C),Thermocouple 14 (deg C),ELEV POSITION (%),CO PPM PRESSURE (PSI),GP Input 3,FUEL PRESSURE (PSI),AILERN POSITION (%),CANOPY CONTACT (V),GP Input 7,GP Input 8,LEFT LEVEL (Sensor V),RIGHT LEVEL (Sensor V),OIL PRESSURE (PSI),OIL TEMPERATURE (deg C),GP Input 13,Contacts,Percent Power,EGT Leaning State,Unnamed: 103,RPM,Flight ID
4.06,1.0,9.0,2026-04-09 22:15:49,37.08161,-121.59965,285.0,0.0,239.3,-12.6,,,,,22:15:48,10.7,-0.8,8.2,0.0,301.0,0.1,-0.01,1.0,,-108.0,28.0,0.0,30.09,1930.0,,,317.0,,125.0,-700.0,,0.0,0.0,,,,,,,,,,,,,,,,,,,,,0.0,0.0,,0.0,,0.0,,,,23.4,0.0,0.0,-0.2,9.2,7.4,,,,,24.0,25.0,24.0,25.0,24.0,25.0,24.0,25.0,,,9.0,254.3,,0.0,11.0,0.001,,,0.653,1.412,0.0,23.2,,,,,,0.0,2026-04-09 15:15:49-07:00
5.06,1.0,9.0,2026-04-09 22:15:50,37.08161,-121.59965,260.0,0.0,239.3,-12.6,,,,,22:15:49,10.7,-0.8,8.3,0.0,298.0,0.1,-0.01,1.0,99.0,-151.0,28.0,0.0,30.09,1930.0,,,317.0,,,,,0.0,0.0,,,,,,,,,,,,,,,,,,,0.0,23.0,0.0,0.0,30.0,0.0,,0.0,0.0,,,23.4,0.0,0.0,-0.2,9.2,7.4,,,,,24.0,25.0,24.0,25.0,24.0,25.0,24.0,25.0,,,9.0,254.3,,0.0,11.0,0.001,,,0.653,1.411,0.0,23.2,,,,,,0.0,2026-04-09 15:15:49-07:00
6.06,1.0,9.0,2026-04-09 22:15:51,37.08161,-121.59965,261.0,0.0,239.3,-12.6,,,,,22:15:50,10.8,-0.8,8.3,0.0,296.0,0.1,-0.01,1.0,99.0,-114.0,28.0,0.0,30.09,1930.0,,,317.0,,,,,0.0,0.0,,,,,,,,,,,,,,,,,,,0.0,23.0,0.0,0.0,30.0,0.0,,0.0,0.0,,,23.4,0.0,0.0,-0.2,9.2,7.4,,,,,24.0,25.0,24.0,25.0,24.0,25.0,25.0,25.0,,,9.0,254.3,,0.0,11.0,0.001,,,0.653,1.411,0.0,23.1,,,,,,0.0,2026-04-09 15:15:49-07:00
7.06,1.0,9.0,2026-04-09 22:15:52,37.08161,-121.59965,262.0,0.0,239.3,-12.6,,,,,22:15:51,10.8,-0.8,8.2,0.0,294.0,0.1,-0.01,1.0,99.0,-137.0,28.0,0.0,30.09,1931.0,,,317.0,,,,,0.0,0.0,,,,,,,,,,,,,,,,,,,0.0,23.0,0.0,0.0,30.0,0.0,,0.0,0.0,,,23.4,0.0,0.0,-0.2,9.2,7.4,,,,,24.0,25.0,24.0,25.0,24.0,25.0,24.0,25.0,,,9.0,254.3,,0.0,11.0,0.001,,,0.653,1.411,0.0,23.1,,,,,,0.0,2026-04-09 15:15:49-07:00
8.06,1.0,9.0,2026-04-09 22:15:53,37.08161,-121.59965,262.0,0.0,239.3,-12.6,,,,,22:15:52,10.8,-0.8,8.2,0.0,293.0,0.1,-0.01,1.0,99.0,-117.0,28.0,0.0,30.09,1931.0,,,317.0,,,,,0.0,0.0,,,,,,,,,,,,,,,,,,,0.0,23.0,0.0,0.0,30.0,0.0,,0.0,0.0,,,23.4,0.0,0.0,-0.2,9.2,7.4,,,,,24.0,25.0,24.0,25.0,24.0,25.0,25.0,25.0,,,9.0,254.3,,0.0,11.0,0.001,,,0.653,1.411,0.0,23.1,,,,,,0.0,2026-04-09 15:15:49-07:00
9.06,1.0,9.0,2026-04-09 22:15:54,37.08161,-121.59965,261.0,0.0,239.3,-12.6,,,,,22:15:53,10.7,-0.9,8.1,0.0,291.0,0.0,-0.01,1.0,99.0,-101.0,28.0,0.0,30.09,1931.0,,,317.0,,,,,0.0,0.0,,,,,,,,,,,,,,,,,,,0.0,23.0,0.0,0.0,30.0,0.0,,0.0,0.0,,,23.4,0.0,0.0,-0.2,9.2,7.4,,,,,24.0,25.0,24.0,25.0,24.0,25.0,24.0,25.0,,,9.0,254.3,,0.0,11.0,0.001,,,0.653,1.411,0.0,23.1,,,,,,0.0,2026-04-09 15:15:49-07:00
10.06,1.0,9.0,2026-04-09 22:15:55,37.08161,-121.59966,260.0,0.0,239.3,-12.6,,,,,22:15:54,10.8,-0.8,8.1,0.0,290.0,0.1,-0.01,1.0,99.0,-82.0,28.0,0.0,30.09,1934.0,,,317.0,,,,,0.0,0.0,,,,,,,,,,,,,,,,,,,0.0,23.0,0.0,0.0,30.0,0.0,,0.0,0.0,,,23.4,0.0,0.0,-0.2,9.2,7.4,,,,,24.0,25.0,24.0,25.0,24.0,25.0,25.0,25.0,,,9.0,254.3,,0.0,11.0,0.001,,,0.653,1.411,0.0,23.1,,,,,,0.0,2026-04-09 15:15:49-07:00
11.06,1.0,9.0,2026-04-09 22:15:56,37.08161,-121.59966,258.0,0.0,239.3,-12.6,,,,,22:15:55,10.8,-0.8,8.1,0.0,290.0,0.1,-0.01,1.0,99.0,-62.0,28.0,0.0,30.09,1934.0,,,317.0,,,,,0.0,0.0,,,,,,,,,,,,,,,,,,,0.0,23.0,0.0,0.0,30.0,0.0,,0.0,0.0,,,23.4,0.0,0.0,-0.2,9.2,7.4,,,,,24.0,25.0,24.0,25.0,24.0,25.0,25.0,25.0,,,9.0,254.2,,0.0,11.0,0.001,,,0.653,1.411,0.0,23.0,,,,,,0.0,2026-04-09 15:15:49-07:00
12.06,1.0,9.0,2026-04-09 22:15:57,37.08161,-121.59966,258.0,0.0,239.3,-12.6,,,,,22:15:56,10.7,-0.8,8.1,0.0,290.0,0.1,-0.01,1.0,99.0,-35.0,28.0,0.0,30.09,1934.0,,,317.0,,,,,0.0,0.0,,,,,,,,,,,,,,,,,,,0.0,23.0,0.0,0.0,30.0,0.0,,0.0,0.0,,,23.4,0.0,0.0,-0.2,9.2,7.4,,,,,24.0,25.0,24.0,26.0,24.0,25.0,25.0,26.0,,,9.0,254.2,,0.0,11.0,0.001,,,0.653,1.411,0.0,23.0,,,,,,0.0,2026-04-09 15:15:49-07:00
13.06,1.0,9.0,2026-04-09 22:15:58,37.08161,-121.59966,257.0,0.0,239.3,-12.6,,,,,22:15:57,10.8,-0.9,8.0,0.0,290.0,0.0,-0.01,1.0,99.0,-23.0,28.0,0.0,30.09,1934.0,,,317.0,,,,,0.0,0.0,,,,,,,,,,,,,,,,,,,0.0,23.0,0.0,0.0,30.0,0.0,,0.0,0.0,,,23.4,0.0,0.0,-0.2,9.2,7.4,,,,,24.0,25.0,24.0,25.0,24.0,25.0,25.0,25.0,,,9.0,254.2,,0.0,11.0,0.001,,,0.653,1.411,0.0,23.0,,,,,,0.0,2026-04-09 15:15:49-07:00
14.06,1.0,9.0,2026-04-09 22:15:59,37.08161,-121.59966,257.0,0.1,239.3,-12.6,,,,,22:15:58,10.8,-0.9,8.0,0.0,289.0,0.1,-0.01,1.0,99.0,-48.0,28.0,0.0,30.09,1934.0,,,317.0,,,,,0.0,0.0,,,,,,,,,,,,,,,,,,,0.0,23.0,0.0,0.0,30.0,0.0,,0.0,0.0,,,23.4,0.0,0.0,-0.2,9.2,7.4,,,,,24.0,25.0,24.0,25.0,24.0,25.0,25.0,25.0,,,9.0,254.2,,0.0,11.0,0.001,,,0.653,1.411,0.0,23.0,,,,,,0.0,2026-04-09 15:15:49-07:00
15.06,1.0,9.0,2026-04-09 22:16:00,37.08161,-121.59966,258.0,0.0,239.3,-12.6,,,,,22:15:59,10.7,-0.9,8.0,0.0,286.0,0.1,-0.01,1.0,99.0,-86.0,28.0,0.0,30.09,1934.0,,,317.0,,,,,0.0,0.0,,,,,,,,,,,,,,,,,,,0.0,23.0,0.0,0.0,30.0,0.0,,0.0,0.0,,,23.4,0.0,0.0,-0.2,9.2,7.4,,,,,24.0,25.0,24.0,25.0,24.0,25.0,25.0,25.0,,,9.0,254.2,,0.0,11.0,0.001,,,0.653,1.411,0.0,23.0,,,,,,0.0,2026-04-09 15:15:49-07:00
16.06,1.0,9.0,2026-04-09 22:16:01,37.08162,-121.59966,259.0,0.0,239.3,-12.6,,,,,22:16:00,10.8,-0.9,8.0,0.0,285.0,0.1,-0.01,1.0,99.0,-95.0,28.0,0.0,30.09,1928.0,,,317.0,,,,,0.0,0.0,,,,,,,,,,,,,,,,,,,0.0,23.0,0.0,0.0,30.0,0.0,,0.0,0.0,,,23.4,0.0,0.0,-0.2,9.2,7.4,,,,,24.0,25.0,24.0,25.0,24.0,25.0,25.0,25.0,,,10.0,254.2,,0.0,11.0,0.001,,,0.653,1.411,0.0,23.0,,,,,,0.0,2026-04-09 15:15:49-07:00
17.06,1.0,9.0,2026-04-09 22:16:02,37.08162,-121.59966,259.0,0.1,239.3,-12.6,,,,,22:16:01,10.8,-0.9,8.0,0.0,283.0,0.1,-0.01,1.0,99.0,-91.0,28.0,0.0,30.09,1928.0,,,317.0,,,,,0.0,0.0,,,,,,,,,,,,,,,,,,,0.0,23.0,0.0,0.0,30.0,0.0,,0.0,0.0,,,23.4,0.0,0.0,-0.2,9.2,7.4,,,,,24.0,25.0,24.0,26.0,24.0,25.0,25.0,26.0,,,10.0,254.2,,0.0,11.0,0.001,,,0.653,1.411,0.0,23.0,,,,,,0.0,2026-04-09 15:15:49-07:00
18.06,1.0,9.0,2026-04-09 22:16:03,37.08162,-121.59966,260.0,0.0,239.3,-12.6,,,,,22:16:02,10.8,-0.9,8.0,0.0,281.0,0.1,-0.01,1.0,99.0,-85.0,28.0,0.0,30.09,1928.0,,,317.0,,,,,0.0,0.0,,,,,,,,,,,,,,,,,,,0.0,23.0,0.0,0.0,30.0,0.0,,0.0,0.0,,,23.4,0.0,0.0,-0.2,9.2,7.4,,,,,24.0,25.0,24.0,25.0,24.0,25.0,25.0,25.0,,,10.0,254.2,,0.0,11.0,0.001,,,0.653,1.41,0.0,23.0,,,,,,0.0,2026-04-09 15:15:49-07:00
19.06,1.0,9.0,2026-04-09 22:16:04,37.08162,-121.59966,262.0,0.0,239.3,-12.6,,,,,22:16:03,10.8,-0.9,8.0,0.0,281.0,0.0,-0.01,1.0,99.0,-54.0,28.0,0.0,30.09,1925.0,,,317.0,,,,,0.0,0.0,,,,,,,,,,,,,,,,,,,0.0,23.0,0.0,0.0,30.0,0.0,,0.0,0.0,,,23.4,0.0,0.0,-0.2,9.2,7.4,,,,,24.0,25.0,24.0,25.0,24.0,25.0,25.0,25.0,,,10.0,254.2,,0.0,11.0,0.001,,,0.653,1.411,0.0,23.0,,,,,,0.0,2026-04-09 15:15:49-07:00
20.06,1.0,9.0,2026-04-09 22:16:05,37.08162,-121.59966,263.0,0.0,239.3,-12.6,,,,,22:16:04,10.8,-0.9,8.0,0.0,281.0,0.0,-0.01,1.0,99.0,-25.0,28.0,0.0,30.09,1925.0,,,317.0,,,,,0.0,0.0,,,,,,,,,,,,,,,,,,,0.0,23.0,0.0,0.0,30.0,0.0,,0.0,0.0,,,23.4,0.0,0.0,-0.2,9.2,7.4,,,,,24.0,25.0,24.0,25.0,24.0,25.0,25.0,26.0,,,10.0,254.2,,0.0,11.0,0.001,,,0.653,1.41,0.0,23.0,,,,,,0.0,2026-04-09 15:15:49-07:00
21.06,1.0,9.0,2026-04-09 22:16:06,37.08162,-121.59966,265.0,0.0,239.3,-12.6,,,,,22:16:05,10.8,-0.9,8.0,0.0,281.0,0.0,-0.01,1.0,99.0,8.0,28.0,0.0,30.09,1925.0,,,317.0,,,,,0.0,0.0,,,,,,,,,,,,,,,,,,,0.0,23.0,0.0,0.0,30.0,0.0,,0.0,0.0,,,23.4,0.0,0.0,-0.2,9.2,7.4,,,,,24.0,25.0,24.0,25.0,24.0,25.0,25.0,26.0,,,10.0,254.2,,0.0,11.0,0.001,,,0.653,1.41,0.0,23.0,,,,,,0.0,2026-04-09 15:15:49-07:00
22.06,1.0,9.0,2026-04-09 22:16:07,37.08162,-121.59966,266.0,0.0,239.3,-12.6,,,,,22:16:06,10.8,-0.9,8.1,0.0,281.0,0.0,-0.01,1.0,99.0,9.0,28.0,0.0,30.09,1934.0,,,317.0,,,,,0.0,0.0,,,,,,,,,,,,,,,,,,,0.0,23.0,0.0,0.0,30.0,0.0,,0.0,0.0,,,23.4,0.0,0.0,-0.2,9.2,7.4,,,,,24.0,25.0,24.0,25.0,24.0,25.0,25.0,26.0,,,10.0,254.2,,0.0,11.0,0.001,,,0.653,1.41,0.0,23.0,,,,,,0.0,2026-04-09 15:15:49-07:00
23.06,1.0,9.0,2026-04-09 22:16:08,37.08162,-121.59966,267.0,0.0,239.3,-12.6,,,,,22:16:07,10.8,-0.8,8.1,0.0,281.0,0.1,-0.01,1.0,99.0,12.0,28.0,0.0,30.09,1934.0,,,317.0,,,,,0.0,0.0,,,,,,,,,,,,,,,,,,,0.0,23.0,0.0,0.0,30.0,0.0,,0.0,0.0,,,23.4,0.0,0.0,-0.2,9.2,7.4,,,,,24.0,25.0,24.0,25.0,24.0,25.0,25.0,26.0,,,10.0,254.2,,0.0,11.0,0.001,,,0.653,1.41,0.0,23.0,,,,,,0.0,2026-04-09 15:15:49-07:00
24.06,1.0,9.0,2026-04-09 22:16:09,37.08162,-121.59966,267.0,0.0,239.3,-12.6,,,,,22:16:08,10.8,-0.8,8.1,0.0,281.0,0.0,-0.01,1.0,99.0,-3.0,28.0,0.0,30.09,1934.0,,,317.0,,,,,0.0,0.0,,,,,,,,,,,,,,,,,,,0.0,23.0,0.0,0.0,30.0,0.0,,0.0,0.0,,,23.4,0.0,0.0,-0.2,9.2,7.4,,,,,24.0,25.0,24.0,25.0,24.0,25.0,25.0,26.0,,,10.0,254.2,,0.0,11.0,0.001,,,0.653,1.411,0.0,23.0,,,,,,0.0,2026-04-09 15:15:49-07:00
25.06,1.0,9.0,2026-04-09 22:16:10,37.08162,-121.59966,268.0,0.0,239.3,-12.6,,,,,22:16:09,10.8,-0.8,8.1,0.0,281.0,0.1,-0.01,1.0,99.0,27.0,28.0,0.0,30.09,1934.0,,,317.0,,,,,0.0,0.0,,,,,,,,,,,,,,,,,,,0.0,23.0,0.0,0.0,30.0,0.0,,0.0,0.0,,,23.4,0.0,0.0,-0.2,9.2,7.4,,,,,24.0,25.0,24.0,25.0,24.0,25.0,25.0,26.0,,,10.0,254.2,,0.0,11.0,0.001,,,0.653,1.41,0.0,23.0,,,,,,0.0,2026-04-09 15:15:49-07:00
26.06,1.0,9.0,2026-04-09 22:16:11,37.08162,-121.59965,268.0,0.0,239.3,-12.6,,,,,22:16:10,10.8,-0.8,8.1,0.0,281.0,0.1,-0.01,1.0,99.0,25.0,28.0,0.0,30.09,1934.0,,,317.0,,,,,0.0,0.0,,,,,,,,,,,,,,,,,,,0.0,23.0,0.0,0.0,30.0,0.0,,0.0,0.0,,,23.4,0.0,0.0,-0.2,9.2,7.4,,,,,24.0,25.0,24.0,25.0,24.0,25.0,25.0,26.0,,,10.0,254.2,,0.0,11.0,0.001,,,0.654,1.41,0.0,23.0,,,,,,0.0,2026-04-09 15:15:49-07:00
27.06,1.0,9.0,2026-04-09 22:16:12,37.08162,-121.59965,268.0,0.1,239.3,-12.6,,,,,22:16:11,10.8,-0.8,8.1,0.0,281.0,0.1,-0.01,1.0,99.0,0.0,28.0,0.0,30.09,1934.0,,,317.0,,,,,0.0,0.0,,,,,,,,,,,,,,,,,,,0.0,23.0,0.0,0.0,30.0,0.0,,0.0,0.0,,,23.4,0.0,0.0,-0.2,9.2,7.4,,,,,24.0,25.0,24.0,25.0,24.0,25.0,25.0,26.0,,,11.0,254.2,,0.0,11.0,0.001,,,0.653,1.41,0.0,23.0,,,,,,0.0,2026-04-09 15:15:49-07:00
28.06,1.0,9.0,2026-04-09 22:16:13,37.08162,-121.59965,269.0,0.0,239.3,-12.6,,,,,22:16:12,10.8,-0.8,8.1,0.0,281.0,0.1,-0.01,1.0,99.0,-14.0,28.0,0.0,30.09,1934.0,,,317.0,,,,,0.0,0.0,,,,,,,,,,,,,,,,,,,0.0,23.0,0.0,0.0,30.0,0.0,,0.0,0.0,,,23.4,0.0,0.0,-0.1,9.2,7.4,,,,,24.0,25.0,24.0,25.0,24.0,25.0,25.0,26.0,,,11.0,254.2,,0.0,11.0,0.001,,,0.653,1.41,0.0,23.0,,,,,,0.0,2026-04-09 15:15:49-07:00
29.06,1.0,9.0,2026-04-09 22:16:14,37.08162,-121.59965,268.0,0.0,239.3,-12.6,,,,,22:16:13,10.8,-0.8,8.1,0.0,281.0,0.1,-0.01,1.0,99.0,-40.0,28.0,0.0,30.09,1935.0,,,317.0,,,,,0.0,0.0,,,,,,,,,,,,,,,,,,,0.0,23.0,0.0,0.0,30.0,0.0,,0.0,0.0,,,23.4,0.0,0.0,-0.1,9.2,7.4,,,,,24.0,25.0,24.0,25.0,24.0,25.0,25.0,26.0,,,11.0,254.2,,0.0,11.0,0.001,,,0.653,1.41,0.0,23.0,,,,,,0.0,2026-04-09 15:15:49-07:00
30.06,1.0,9.0,2026-04-09 22:16:15,37.08162,-121.59965,269.0,0.0,239.3,-12.6,,,,,22:16:14,10.8,-0.8,8.1,0.0,281.0,0.0,-0.01,1.0,99.0,-51.0,28.0,0.0,30.09,1935.0,,,317.0,,,,,0.0,0.0,,,,,,,,,,,,,,,,,,,0.0,23.0,0.0,0.0,30.0,0.0,,0.0,0.0,,,23.4,0.0,0.0,-0.1,9.2,7.4,,,,,24.0,25.0,24.0,25.0,24.0,25.0,25.0,26.0,,,11.0,254.2,,0.0,11.0,0.001,,,0.653,1.41,0.0,23.0,,,,,,0.0,2026-04-09 15:15:49-07:00
31.06,1.0,9.0,2026-04-09 22:16:16,37.08162,-121.59965,269.0,0.1,239.3,-12.6,,,,,22:16:15,10.8,-0.8,8.1,0.0,279.0,0.0,-0.01,1.0,99.0,-77.0,28.0,0.0,30.09,1935.0,,,317.0,,,,,0.0,0.0,,,,,,,,,,,,,,,,,,,0.0,23.0,0.0,0.0,30.0,0.0,,0.0,0.0,,,23.4,0.0,0.0,-0.1,9.2,7.4,,,,,24.0,25.0,24.0,25.0,24.0,25.0,25.0,26.0,,,11.0,254.3,,0.0,11.0,0.001,,,0.653,1.41,0.0,23.0,,,,,,0.0,2026-04-09 15:15:49-07:00
32.06,1.0,9.0,2026-04-09 22:16:17,37.08162,-121.59965,268.0,0.0,239.3,-12.6,,,,,22:16:16,10.8,-0.8,8.1,0.0,277.0,0.1,-0.01,1.0,99.0,-82.0,28.0,0.0,30.09,1941.0,,,317.0,,,,,0.0,0.0,,,,,,,,,,,,,,,,,,,0.0,23.0,0.0,0.0,30.0,0.0,,0.0,0.0,,,23.4,0.0,0.0,-0.1,9.2,7.4,,,,,24.0,25.0,24.0,25.0,24.0,25.0,25.0,26.0,,,11.0,254.3,,0.0,11.0,0.001,,,0.653,1.41,0.0,23.0,,,,,,0.0,2026-04-09 15:15:49-07:00
33.06,1.0,9.0,2026-04-09 22:16:18,37.08162,-121.59965,268.0,0.0,239.3,-12.6,,,,,22:16:17,10.8,-0.8,8.1,0.0,275.0,0.1,-0.01,1.0,99.0,-115.0,28.0,0.0,30.09,1941.0,,,317.0,,,,,0.0,0.0,,,,,,,,,,,,,,,,,,,0.0,23.0,0.0,0.0,30.0,0.0,,0.0,0.0,,,23.4,0.0,0.0,-0.1,9.2,7.4,,,,,24.0,25.0,24.0,25.0,24.0,25.0,25.0,26.0,,,12.0,254.3,,0.0,11.0,0.001,,,0.653,1.41,0.0,23.0,,,,,,0.0,2026-04-09 15:15:49-07:00
34.06,1.0,9.0,2026-04-09 22:16:19,37.08162,-121.59964,269.0,0.0,239.3,-12.6,,,,,22:16:18,10.8,-0.8,8.1,0.0,273.0,0.0,-0.01,1.0,99.0,-96.0,28.0,0.0,30.09,1941.0,,,317.0,,,,,0.0,0.0,,,,,,,,,,,,,,,,,,,0.0,23.0,0.0,0.0,30.0,0.0,,0.0,0.0,,,23.4,0.0,0.0,-0.1,9.2,7.4,,,,,24.0,25.0,24.0,25.0,24.0,25.0,25.0,26.0,,,12.0,254.3,,0.0,11.0,0.001,,,0.653,1.41,0.0,23.0,,,,,,0.0,2026-04-09 15:15:49-07:00
35.06,1.0,9.0,2026-04-09 22:16:20,37.08162,-121.59965,268.0,0.0,239.3,-12.6,,,,,22:16:19,10.8,-0.8,8.1,0.0,272.0,0.1,-0.01,1.0,99.0,-96.0,29.0,0.0,30.09,1935.0,,,317.0,,,,,0.0,0.0,,,,,,,,,,,,,,,,,,,0.0,23.0,0.0,0.0,30.0,0.0,,0.0,0.0,,,23.4,0.0,0.0,-0.1,9.2,7.4,,,,,24.0,25.0,24.0,25.0,24.0,25.0,25.0,26.0,,,12.0,254.3,,0.0,11.0,0.001,,,0.653,1.41,0.0,23.0,,,,,,0.0,2026-04-09 15:15:49-07:00
36.06,1.0,9.0,2026-04-09 22:16:21,37.08162,-121.59964,268.0,0.1,239.3,-12.6,,,,,22:16:20,10.8,-0.9,8.0,0.0,270.0,0.1,-0.01,1.0,99.0,-100.0,28.0,0.0,30.09,1935.0,,,317.0,,,,,0.0,0.0,,,,,,,,,,,,,,,,,,,0.0,23.0,0.0,0.0,30.0,0.0,,0.0,0.0,,,23.4,0.0,0.0,-0.1,9.2,7.4,,,,,24.0,25.0,24.0,25.0,24.0,25.0,25.0,26.0,,,12.0,254.3,,0.0,11.0,0.001,,,0.653,1.411,0.0,23.0,,,,,,0.0,2026-04-09 15:15:49-07:00
37.06,1.0,9.0,2026-04-09 22:16:22,37.08162,-121.59964,268.0,0.1,239.3,-12.6,,,,,22:16:21,10.8,-0.9,8.0,0.0,269.0,0.1,-0.01,1.0,99.0,-72.0,29.0,0.0,30.09,1935.0,,,317.0,,,,,0.0,0.0,,,,,,,,,,,,,,,,,,,0.0,23.0,0.0,0.0,30.0,0.0,,0.0,0.0,,,23.4,0.0,0.0,-0.1,9.2,7.4,,,,,24.0,26.0,24.0,26.0,24.0,26.0,25.0,26.0,,,12.0,254.3,,0.0,11.0,0.001,,,0.653,1.41,0.0,23.0,,,,,,0.0,2026-04-09 15:15:49-07:00
38.06,1.0,9.0,2026-04-09 22:16:23,37.08162,-121.59964,268.0,0.0,239.3,-12.6,,,,,22:16:22,10.8,-0.9,8.0,0.0,267.0,0.1,-0.01,1.0,99.0,-113.0,29.0,0.0,30.09,1938.0,,,317.0,,,,,0.0,0.0,,,,,,,,,,,,,,,,,,,0.0,23.0,0.0,0.0,30.0,0.0,,0.0,0.0,,,23.4,0.0,0.0,-0.1,9.2,7.4,,,,,24.0,25.0,24.0,25.0,24.0,25.0,25.0,26.0,,,12.0,254.3,,0.0,11.0,0.001,,,0.653,1.41,0.0,23.0,,,,,,0.0,2026-04-09 15:15:49-07:00
39.06,1.0,9.0,2026-04-09 22:16:24,37.08162,-121.59964,268.0,0.0,239.3,-12.6,,,,,22:16:23,10.9,-0.9,7.9,0.0,266.0,0.1,-0.01,1.0,99.0,-108.0,29.0,0.0,30.09,1936.0,,,317.0,,,,,0.0,0.0,,,,,,,,,,,,,,,,,,,0.0,23.0,0.0,0.0,30.0,0.0,,0.0,24.6,,,23.4,0.0,0.0,-0.1,9.2,7.4,,,,,24.0,26.0,24.0,26.0,24.0,25.0,25.0,26.0,,,12.0,254.3,,24.6,11.0,0.001,,,0.653,1.41,0.0,23.0,,,,,,0.0,2026-04-09 15:15:49-07:00
40.06,1.0,9.0,2026-04-09 22:16:25,37.08162,-121.59964,268.0,0.0,239.3,-12.6,,,,,22:16:24,10.9,-0.9,7.9,0.0,264.0,0.1,-0.01,1.0,99.0,-92.0,29.0,0.0,30.09,1936.0,,,317.0,,,,,0.0,0.0,,,,,,,,,,,,,,,,,,,0.0,23.0,0.0,0.0,30.0,0.0,,0.0,31.8,,,23.4,0.0,0.0,-0.1,9.2,7.4,,,,,24.0,25.0,24.0,25.0,24.0,25.0,25.0,26.0,,,12.0,239.6,,31.8,11.0,0.001,,,0.653,1.41,0.0,23.0,,,,,,0.0,2026-04-09 15:15:49-07:00
41.06,1.0,9.0,2026-04-09 22:16:26,37.08162,-121.59964,268.0,0.0,239.3,-12.6,,,,,22:16:25,10.8,-0.9,7.9,0.0,263.0,0.0,-0.01,1.0,99.0,-68.0,29.0,0.0,30.09,1936.0,,,317.0,,,,,0.0,0.0,,,,,,,,,,,,,,,,,,,0.0,23.0,0.0,0.0,30.0,0.6,,0.6,32.2,,,23.4,0.0,0.0,-0.1,9.2,7.4,,,,,24.0,25.0,24.0,25.0,24.0,25.0,25.0,26.0,,,12.0,186.5,,32.2,11.0,0.001,,,0.653,1.41,0.0,23.0,,,,,,0.0,2026-04-09 15:15:49-07:00
42.06,1.0,9.0,2026-04-09 22:16:27,37.08162,-121.59964,268.0,0.0,239.3,-12.6,,,,,22:16:26,10.8,-0.9,7.9,0.0,263.0,0.0,-0.01,1.0,99.0,-35.0,29.0,0.0,30.09,1933.0,,,317.0,,,,,0.0,0.0,,,,,,,,,,,,,,,,,,,0.0,23.0,0.0,0.0,30.0,1.1,,1.1,32.5,,,23.4,0.0,0.0,-0.1,9.2,7.4,,,,,24.0,25.0,24.0,25.0,24.0,25.0,25.0,26.0,,,12.0,145.2,,32.5,11.0,0.001,,,0.653,1.41,0.0,23.0,,,,,,0.0,2026-04-09 15:15:49-07:00
43.06,1.0,9.0,2026-04-09 22:16:28,37.08162,-121.59964,269.0,0.0,239.3,-12.6,,,,,22:16:27,10.8,-0.9,7.9,0.0,263.0,0.0,-0.01,1.0,99.0,-22.0,29.0,0.0,30.09,1933.0,,,317.0,,,,,0.0,0.0,,,,,,,,,,,,,,,,,,,0.0,23.0,0.0,0.0,30.0,1.6,,1.6,32.5,,,23.4,0.0,0.0,-0.1,9.2,7.4,,,,,24.0,25.0,24.0,25.0,24.0,25.0,25.0,26.0,,,12.0,113.0,,32.5,11.0,0.001,,,0.653,1.41,0.0,23.0,,,,,,0.0,2026-04-09 15:15:49-07:00
44.06,1.0,9.0,2026-04-09 22:16:29,37.08162,-121.59964,269.0,0.0,239.3,-12.6,,,,,22:16:28,10.8,-0.9,7.9,0.0,262.0,0.0,-0.01,1.0,99.0,-52.0,29.0,0.0,30.09,1933.0,,,317.0,,,,,0.0,0.0,,,,,,,,,,,,,,,,,,,0.0,23.0,0.0,0.0,30.0,1.9,,1.9,32.6,,,23.4,0.0,0.0,-0.1,9.2,7.4,,,,,24.0,26.0,24.0,26.0,24.0,25.0,25.0,26.0,,,12.0,88.1,,32.6,11.0,0.001,,,0.653,1.41,0.0,23.0,,,,,,0.0,2026-04-09 15:15:49-07:00
45.06,1.0,9.0,2026-04-09 22:16:30,37.08162,-121.59964,269.0,0.0,239.3,-12.6,,,,,22:16:29,10.9,-0.9,7.9,0.0,260.0,0.0,-0.01,1.0,99.0,-92.0,29.0,0.0,30.09,1931.0,,,317.0,,,,,0.0,0.0,,,,,,,,,,,,,,,,,,,0.0,23.0,0.0,0.0,30.0,2.2,,2.2,33.6,,,23.4,0.0,0.0,-0.1,9.2,7.4,,,,,25.0,26.0,25.0,26.0,25.0,25.0,25.0,26.0,,,12.0,68.7,,33.6,11.0,0.001,,,0.653,1.41,0.0,23.0,,,,,,0.0,2026-04-09 15:15:49-07:00
46.06,1.0,9.0,2026-04-09 22:16:31,37.08162,-121.59964,270.0,0.0,239.3,-12.6,,,,,22:16:30,10.9,-0.9,7.9,0.0,258.0,0.1,-0.01,1.0,99.0,-85.0,29.0,0.0,30.09,1931.0,,,317.0,,,,,0.0,0.0,,,,,,,,,,,,,,,,,,,0.0,23.0,0.0,0.0,30.0,1.8,,1.8,32.9,,,23.4,0.0,0.0,-0.1,9.2,7.4,,,,,25.0,26.0,25.0,26.0,25.0,25.0,25.0,26.0,,,12.0,53.6,,32.9,11.0,0.001,,,0.653,1.41,0.0,23.0,,,,,,0.0,2026-04-09 15:15:49-07:00
47.06,1.0,9.0,2026-04-09 22:16:32,37.08162,-121.59964,270.0,0.0,239.3,-12.6,,,,,22:16:31,10.9,-1.0,7.8,0.0,258.0,0.0,-0.01,1.0,99.0,-49.0,29.0,0.0,30.09,1931.0,,,317.0,,,,,0.0,0.0,,,,,,,,,,,,,,,,,,,0.0,23.0,0.0,0.0,30.0,1.8,,1.8,32.3,,,23.4,0.0,0.0,-0.1,9.2,7.4,,,,,24.0,26.0,25.0,26.0,25.0,25.0,25.0,26.0,,,12.0,41.9,,32.3,11.0,0.001,,,0.653,1.41,0.0,23.0,,,,,,0.0,2026-04-09 15:15:49-07:00
48.06,1.0,9.0,2026-04-09 22:16:33,37.08162,-121.59964,270.0,0.0,239.3,-12.6,,,,,22:16:32,10.8,-1.0,7.8,0.0,258.0,0.0,-0.01,1.0,99.0,-17.0,29.0,0.0,30.09,1928.0,,,317.0,,,,,0.0,0.0,,,,,,,,,,,,,,,,,,,0.0,23.0,0.0,0.0,30.0,1.8,,1.8,32.0,,,23.4,0.0,0.0,-0.1,9.2,7.4,,,,,25.0,26.0,25.0,26.0,25.0,25.0,25.0,26.0,,,12.0,32.8,,32.0,11.0,0.001,,,0.653,1.41,0.0,23.0,,,,,,0.0,2026-04-09 15:15:49-07:00
49.06,1.0,9.0,2026-04-09 22:16:34,37.08162,-121.59964,271.0,0.1,239.3,-12.6,,,,,22:16:33,10.8,-1.0,7.8,0.0,258.0,0.0,-0.01,1.0,99.0,6.0,29.0,0.0,30.09,1928.0,,,317.0,,,,,0.0,0.0,,,,,,,,,,,,,,,,,,,0.0,23.0,0.0,0.0,30.0,1.8,,1.8,31.8,,,23.4,0.0,0.0,-0.1,9.2,7.4,,,,,24.0,26.0,25.0,26.0,25.0,25.0,25.0,26.0,,,12.0,25.7,,31.8,11.0,0.001,,,0.653,1.41,0.0,23.0,,,,,,0.0,2026-04-09 15:15:49-07:00
50.06,1.0,9.0,2026-04-09 22:16:35,37.08162,-121.59964,271.0,0.0,239.3,-12.6,,,,,22:16:34,10.8,-1.0,7.8,0.0,258.0,0.1,-0.01,1.0,99.0,28.0,29.0,0.0,30.09,1928.0,,,317.0,,,,,0.0,0.0,,,,,,,,,,,,,,,,,,,0.0,23.0,0.0,0.0,30.0,1.8,,1.8,31.6,,,23.4,0.0,0.0,-0.1,9.2,7.4,,,,,24.0,26.0,25.0,26.0,25.0,25.0,25.0,26.0,,,12.0,20.2,,31.6,11.0,0.001,,,0.653,1.41,0.0,23.0,,,,,,0.0,2026-04-09 15:15:49-07:00
51.06,1.0,9.0,2026-04-09 22:16:36,37.08162,-121.59964,271.0,0.1,239.3,-12.6,,,,,22:16:35,10.8,-0.9,7.8,0.0,258.0,0.1,-0.01,1.0,99.0,23.0,29.0,0.0,30.09,1937.0,,,317.0,,,,,0.0,0.0,,,,,,,,,,,,,,,,,,,0.0,23.0,0.0,0.0,30.0,1.8,,1.8,31.5,,,23.4,0.0,0.0,-0.1,9.2,7.4,,,,,24.0,26.0,25.0,26.0,25.0,25.0,25.0,26.0,,,12.0,15.9,,31.5,11.0,0.001,,,0.653,1.41,0.0,23.0,,,,,,0.0,2026-04-09 15:15:49-07:00
52.06,1.0,9.0,2026-04-09 22:16:37,37.08162,-121.59964,272.0,0.0,239.3,-12.6,,,,,22:16:36,10.8,-0.9,7.9,0.0,258.0,0.1,-0.01,1.0,99.0,28.0,29.0,0.0,30.09,1937.0,,,317.0,,,,,0.0,0.0,,,,,,,,,,,,,,,,,,,0.0,23.0,0.0,0.0,30.0,0.0,,0.0,31.3,,,23.4,0.0,0.0,-0.1,9.2,7.4,,,,,24.0,26.0,25.0,26.0,25.0,25.0,25.0,26.0,,,12.0,12.6,,31.3,11.0,0.001,,,0.653,1.41,0.0,23.0,,,,,,0.0,2026-04-09 15:15:49-07:00
53.06,1.0,9.0,2026-04-09 22:16:38,37.08162,-121.59964,272.0,0.0,239.3,-12.6,,,,,22:16:37,10.8,-0.9,7.9,0.0,258.0,0.0,-0.01,1.0,99.0,22.0,29.0,0.0,30.09,1937.0,,,317.0,,,,,0.0,0.0,,,,,,,,,,,,,,,,,,,0.0,23.0,0.0,0.0,30.0,0.0,,0.0,31.1,,,23.4,0.0,0.0,-0.1,9.2,7.4,,,,,25.0,26.0,25.0,26.0,24.0,25.0,25.0,26.0,,,12.0,10.0,,31.1,11.0,0.001,,,0.653,1.41,0.0,23.0,,,,,,0.0,2026-04-09 15:15:49-07:00
54.06,1.0,9.0,2026-04-09 22:16:39,37.08162,-121.59964,273.0,0.0,239.3,-12.6,,,,,22:16:38,10.8,-0.8,7.9,0.0,258.0,0.0,-0.01,1.0,99.0,-2.0,29.0,0.0,30.09,1937.0,,,317.0,,,,,0.0,0.0,,,,,,,,,,,,,,,,,,,0.0,23.0,0.0,0.0,30.0,0.0,,0.0,31.0,,,23.4,0.0,0.0,-0.1,9.2,7.4,,,,,24.0,26.0,25.0,26.0,24.0,25.0,25.0,26.0,,,12.0,8.0,,31.0,11.0,0.001,,,0.653,1.41,0.0,23.0,,,,,,0.0,2026-04-09 15:15:49-07:00
55.06,1.0,9.0,2026-04-09 22:16:40,37.08162,-121.59964,273.0,0.0,239.3,-12.6,,,,,22:16:39,10.8,-0.8,7.9,0.0,258.0,0.0,-0.01,1.0,99.0,33.0,29.0,0.0,30.09,1937.0,,,317.0,,,,,0.0,0.0,,,,,,,,,,,,,,,,,,,0.0,23.0,0.0,0.0,30.0,0.0,,0.0,30.8,,,23.4,0.0,0.0,-0.1,9.2,7.4,,,,,24.0,26.0,25.0,26.0,24.0,25.0,25.0,26.0,,,12.0,6.4,,30.8,11.0,0.001,,,0.653,1.41,0.0,23.0,,,,,,0.0,2026-04-09 15:15:49-07:00
56.06,1.0,9.0,2026-04-09 22:16:41,37.08162,-121.59964,274.0,0.0,239.3,-12.6,,,,,22:16:40,10.8,-0.8,8.0,0.0,258.0,0.0,-0.01,1.0,99.0,41.0,29.0,0.0,30.09,1937.0,,,317.0,,,,,0.0,0.0,,,,,,,,,,,,,,,,,,,0.0,23.0,0.0,0.0,30.0,0.0,,0.0,30.7,,,23.4,0.0,0.0,-0.1,9.2,7.4,,,,,24.0,26.0,25.0,26.0,24.0,25.0,25.0,26.0,,,12.0,5.2,,30.7,11.0,0.001,,,0.653,1.41,0.0,23.0,,,,,,0.0,2026-04-09 15:15:49-07:00
57.06,1.0,9.0,2026-04-09 22:16:42,37.08162,-121.59963,274.0,0.0,239.3,-12.6,,,,,22:16:41,10.8,-0.9,8.0,0.0,258.0,0.0,-0.01,1.0,99.0,28.0,29.0,0.0,30.09,1938.0,,,317.0,,,,,0.0,0.0,,,,,,,,,,,,,,,,,,,0.0,23.0,0.0,0.0,30.0,0.0,,0.0,30.6,,,23.4,0.0,0.0,-0.1,9.2,7.4,,,,,24.0,26.0,25.0,26.0,24.0,25.0,25.0,26.0,,,12.0,4.3,,30.6,11.0,0.001,,,0.653,1.41,0.0,23.0,,,,,,0.0,2026-04-09 15:15:49-07:00
58.06,1.0,9.0,2026-04-09 22:16:43,37.08162,-121.59963,275.0,0.0,239.3,-12.6,,,,,22:16:42,10.8,-0.9,8.0,0.0,258.0,0.1,-0.01,1.0,99.0,8.0,29.0,0.0,30.09,1938.0,,,317.0,,,,,0.0,0.0,,,,,,,,,,,,,,,,,,,0.0,23.0,0.0,0.0,30.0,0.0,,0.0,30.4,,,23.4,0.0,0.0,-0.1,9.2,7.4,,,,,24.0,26.0,25.0,26.0,24.0,25.0,25.0,26.0,,,12.0,3.5,,30.4,11.0,0.001,,,0.653,1.41,0.0,23.0,,,,,,0.0,2026-04-09 15:15:49-07:00
59.06,1.0,9.0,2026-04-09 22:16:44,37.08162,-121.59963,275.0,0.0,239.3,-12.6,,,,,22:16:43,10.8,-0.8,8.0,0.0,258.0,0.0,-0.01,1.0,99.0,-2.0,29.0,0.0,30.09,1938.0,,,317.0,,,,,0.0,0.0,,,,,,,,,,,,,,,,,,,0.0,23.0,0.0,0.0,30.0,0.0,,0.0,30.3,,,23.4,0.0,0.0,-0.1,9.2,7.4,,,,,24.0,26.0,25.0,26.0,24.0,25.0,25.0,26.0,,,12.0,2.9,,30.3,11.0,0.001,,,0.653,1.409,0.0,23.0,,,,,,0.0,2026-04-09 15:15:49-07:00
60.06,1.0,9.0,2026-04-09 22:16:45,37.08162,-121.59963,276.0,0.0,239.3,-12.6,,,,,22:16:44,10.8,-0.9,8.0,0.0,258.0,0.0,-0.01,1.0,99.0,-7.0,29.0,0.0,30.09,1948.0,,,317.0,,,,,0.0,0.0,,,,,,,,,,,,,,,,,,,0.0,23.0,0.0,0.0,30.0,0.0,,0.0,30.2,,,23.4,0.0,0.0,-0.1,9.2,7.4,,,,,24.0,26.0,25.0,26.0,24.0,25.0,25.0,26.0,,,12.0,2.5,,30.2,11.0,0.001,,,0.653,1.41,0.0,23.0,,,,,,0.0,2026-04-09 15:15:49-07:00
61.06,1.0,9.0,2026-04-09 22:16:46,37.08161,-121.59963,276.0,0.1,239.3,-12.6,,,,,22:16:45,10.8,-0.8,8.1,0.0,258.0,0.0,-0.01,1.0,99.0,-6.0,29.0,0.0,30.09,1948.0,,,317.0,,,,,0.0,0.0,,,,,,,,,,,,,,,,,,,0.0,23.0,0.0,0.0,30.0,0.0,,0.0,30.1,,,23.4,0.0,0.0,-0.1,9.2,7.4,,,,,24.0,26.0,25.0,26.0,24.0,25.0,25.0,26.0,,,12.0,2.2,,30.1,11.0,0.001,,,0.653,1.41,0.0,23.0,,,,,,0.0,2026-04-09 15:15:49-07:00
62.06,1.0,9.0,2026-04-09 22:16:47,37.08161,-121.59963,277.0,0.0,239.3,-12.6,,,,,22:16:46,10.7,-0.8,8.1,0.0,258.0,0.1,-0.01,1.0,99.0,2.0,29.0,0.0,30.09,1948.0,,,317.0,,,,,0.0,0.0,,,,,,,,,,,,,,,,,,,0.0,23.0,0.0,0.0,30.0,0.0,,0.0,30.0,,,23.4,0.0,0.0,-0.1,9.2,7.4,,,,,24.0,26.0,25.0,26.0,24.0,25.0,25.0,26.0,,,12.0,1.9,,30.0,11.0,0.001,,,0.653,1.409,0.0,23.0,,,,,,0.0,2026-04-09 15:15:49-07:00
63.06,1.0,9.0,2026-04-09 22:16:48,37.08161,-121.59963,278.0,0.0,239.3,-12.6,,,,,22:16:47,10.8,-0.9,8.1,0.0,258.0,0.1,-0.01,1.0,99.0,8.0,29.0,0.0,30.09,1949.0,,,317.0,,,,,0.0,0.0,,,,,,,,,,,,,,,,,,,0.0,23.0,0.0,0.0,30.0,0.0,,0.0,29.9,,,23.4,0.0,0.0,-0.1,9.2,7.4,,,,,24.0,26.0,25.0,26.0,24.0,25.0,25.0,26.0,,,13.0,1.7,,29.9,11.0,0.001,,,0.653,1.41,0.0,23.0,,,,,,0.0,2026-04-09 15:15:49-07:00
64.06,1.0,9.0,2026-04-09 22:16:49,37.0816,-121.59962,287.0,0.0,239.3,-12.6,,,,,22:16:48,10.8,-0.9,8.0,0.0,258.0,0.1,-0.01,1.0,99.0,-2.0,29.0,0.0,30.09,1949.0,,,317.0,,,,,0.0,0.0,,,,,,,,,,,,,,,,,,,0.0,23.0,0.0,0.0,30.0,0.0,,0.0,29.8,,,23.4,0.0,0.0,-0.1,9.2,7.4,,,,,24.0,26.0,24.0,26.0,24.0,26.0,25.0,26.0,,,13.0,1.6,,29.8,11.0,0.001,,,0.653,1.41,0.0,23.0,,,,,,0.0,2026-04-09 15:15:49-07:00
65.06,1.0,9.0,2026-04-09 22:16:50,37.0816,-121.59962,288.0,0.0,239.3,-12.6,,,,,22:16:49,10.8,-0.9,8.0,0.0,258.0,0.0,-0.01,1.0,99.0,-15.0,29.0,0.0,30.09,1949.0,,,317.0,,,,,0.0,0.0,,,,,,,,,,,,,,,,,,,0.0,23.0,0.0,0.0,30.0,0.0,,0.0,29.7,,,23.4,0.0,0.0,-0.1,9.2,7.4,,,,,24.0,26.0,24.0,26.0,24.0,26.0,25.0,26.0,,,13.0,1.4,,29.7,11.0,0.001,,,0.653,1.409,0.0,23.0,,,,,,0.0,2026-04-09 15:15:49-07:00
66.06,1.0,9.0,2026-04-09 22:16:51,37.0816,-121.59962,288.0,0.0,239.3,-12.6,,,,,22:16:50,10.7,-0.8,7.9,0.0,258.0,0.0,-0.01,1.0,99.0,-37.0,29.0,0.0,30.09,1958.0,,,317.0,,,,,0.0,0.0,,,,,,,,,,,,,,,,,,,0.0,23.0,0.0,0.0,30.0,0.0,,0.0,29.6,,,23.4,0.0,0.0,-0.1,9.2,7.4,,,,,25.0,26.0,25.0,26.0,25.0,26.0,25.0,26.0,,,13.0,1.3,,29.6,11.0,0.001,,,0.653,1.41,0.0,23.0,,,,,,0.0,2026-04-09 15:15:49-07:00
67.06,1.0,9.0,2026-04-09 22:16:52,37.0816,-121.59962,289.0,0.0,239.3,-12.6,,,,,22:16:51,10.8,-0.9,7.8,0.0,258.0,0.0,-0.01,1.0,99.0,-48.0,29.0,0.0,30.09,1958.0,,,317.0,,,,,0.0,0.0,,,,,,,,,,,,,,,,,,,0.0,23.0,0.0,0.0,30.0,0.0,,0.0,29.5,,,23.4,0.0,0.0,-0.1,9.2,7.4,,,,,24.0,26.0,24.0,26.0,24.0,26.0,25.0,26.0,,,13.0,1.3,,29.5,11.0,0.001,,,0.653,1.409,0.0,23.0,,,,,,0.0,2026-04-09 15:15:49-07:00
68.06,1.0,9.0,2026-04-09 22:16:53,37.0816,-121.59962,290.0,0.0,239.3,-12.6,,,,,22:16:52,10.8,-1.0,7.7,0.0,258.0,-0.0,-0.01,1.0,99.0,-66.0,29.0,0.0,30.09,1958.0,,,317.0,,,,,0.0,0.0,,,,,,,,,,,,,,,,,,,0.0,23.0,0.0,0.0,30.0,0.0,,0.0,29.4,,,23.4,0.0,0.0,-0.1,9.2,7.4,,,,,24.0,26.0,24.0,26.0,24.0,26.0,25.0,26.0,,,13.0,1.2,,29.4,11.0,0.001,,,0.653,1.41,0.0,23.0,,,,,,0.0,2026-04-09 15:15:49-07:00
69.06,1.0,9.0,2026-04-09 22:16:54,37.0816,-121.59962,290.0,0.0,239.3,-12.6,,,,,22:16:53,10.8,-0.9,7.7,0.0,257.0,0.0,-0.01,1.0,99.0,-102.0,29.0,0.0,30.09,1958.0,,,317.0,,,,,0.0,0.0,,,,,,,,,,,,,,,,,,,0.0,23.0,0.0,0.0,30.0,0.0,,0.0,29.3,,,23.4,0.0,0.0,-0.1,9.2,7.4,,,,,24.0,26.0,24.0,26.0,24.0,26.0,25.0,26.0,,,13.0,1.1,,29.3,11.0,0.001,,,0.653,1.41,0.0,23.0,,,,,,0.0,2026-04-09 15:15:49-07:00
70.06,1.0,9.0,2026-04-09 22:16:55,37.0816,-121.59962,291.0,0.0,239.3,-12.6,,,,,22:16:54,10.8,-0.9,7.7,0.0,255.0,0.0,-0.02,1.0,99.0,-109.0,29.0,0.0,30.09,1958.0,,,317.0,,,,,0.0,0.0,,,,,,,,,,,,,,,,,,,0.0,23.0,0.0,0.0,30.0,0.0,,0.0,29.2,,,23.4,0.0,0.0,-0.1,9.2,7.4,,,,,24.0,26.0,24.0,26.0,24.0,26.0,25.0,26.0,,,13.0,1.1,,29.2,11.0,3.521,,,0.653,1.409,0.0,23.0,,,,,,0.0,2026-04-09 15:15:49-07:00
71.06,1.0,9.0,2026-04-09 22:16:56,37.0816,-121.59962,291.0,0.1,239.3,-12.6,,,,,22:16:55,10.8,-0.9,7.7,0.0,254.0,0.0,-0.01,1.0,99.0,-88.0,29.0,0.0,30.09,1958.0,,,317.0,,,,,0.0,0.0,,,,,,,,,,,,,,,,,,,0.0,23.0,0.0,0.0,30.0,0.0,,0.0,29.1,,,23.4,0.0,0.0,-0.1,9.2,7.4,,,,,25.0,26.0,25.0,26.0,25.0,26.0,25.0,26.0,,,13.0,1.1,,29.1,11.0,4.998,,,0.653,1.41,0.0,23.0,,,,,,0.0,2026-04-09 15:15:49-07:00
72.06,1.0,9.0,2026-04-09 22:16:57,37.0816,-121.59962,291.0,0.0,239.3,-12.6,,,,,22:16:56,10.8,-0.9,7.7,0.0,253.0,0.0,-0.01,1.0,99.0,-66.0,29.0,0.0,30.09,1961.0,,,317.0,,,,,0.0,0.0,,,,,,,,,,,,,,,,,,,0.0,23.0,0.0,0.0,30.0,0.0,,0.0,29.0,,,23.4,0.0,0.0,-0.1,9.2,7.4,,,,,24.0,26.0,24.0,26.0,24.0,26.0,25.0,26.0,,,13.0,1.0,,29.0,11.0,4.998,,,0.653,1.41,0.0,23.0,,,,,,0.0,2026-04-09 15:15:49-07:00
73.06,1.0,9.0,2026-04-09 22:16:58,37.0816,-121.59962,292.0,0.0,239.3,-12.6,,,,,22:16:57,10.8,-0.9,7.7,0.0,253.0,0.0,-0.01,0.9,99.0,-28.0,29.0,0.0,30.09,1961.0,,,317.0,,,,,0.0,0.0,,,,,,,,,,,,,,,,,,,0.0,23.0,0.0,0.0,30.0,0.0,,0.0,28.9,,,23.4,0.0,0.0,-0.1,9.2,7.4,,,,,25.0,26.0,25.0,26.0,25.0,26.0,25.0,26.0,,,13.0,1.0,,28.9,11.0,4.998,,,0.653,1.41,0.0,23.0,,,,,,0.0,2026-04-09 15:15:49-07:00
74.06,1.0,9.0,2026-04-09 22:16:59,37.0816,-121.59962,292.0,0.0,239.3,-12.6,,,,,22:16:58,10.8,-0.9,7.7,0.0,253.0,0.0,-0.01,1.0,99.0,8.0,29.0,0.0,30.09,1961.0,,,317.0,,,,,0.0,0.0,,,,,,,,,,,,,,,,,,,0.0,23.0,0.0,0.0,30.0,0.0,,0.0,28.8,,,23.4,0.0,0.0,-0.1,9.2,7.4,,,,,25.0,26.0,25.0,26.0,25.0,26.0,25.0,26.0,,,12.0,1.0,,28.8,11.0,4.998,,,0.653,1.41,0.0,23.0,,,,,,0.0,2026-04-09 15:15:49-07:00
75.06,1.0,9.0,2026-04-09 22:17:00,37.0816,-121.59962,292.0,0.0,239.3,-12.6,,,,,22:16:59,10.8,-1.0,7.7,0.0,253.0,0.0,-0.01,1.0,99.0,29.0,29.0,0.0,30.09,1962.0,,,317.0,,,,,0.0,0.0,,,,,,,,,,,,,,,,,,,0.0,23.0,0.0,0.0,30.0,0.0,,0.0,28.7,,,23.4,0.0,0.0,-0.1,9.2,7.4,,,,,25.0,26.0,25.0,26.0,25.0,26.0,25.0,26.0,,,12.0,1.0,,28.7,11.0,4.998,,,0.653,1.41,0.0,23.0,,,,,,0.0,2026-04-09 15:15:49-07:00
76.06,1.0,9.0,2026-04-09 22:17:01,37.0816,-121.59962,292.0,0.0,239.3,-12.6,,,,,22:17:00,10.8,-0.9,7.7,0.0,253.0,0.0,-0.01,1.0,99.0,19.0,29.0,0.0,30.09,1962.0,,,317.0,,,,,0.0,0.0,,,,,,,,,,,,,,,,,,,0.0,23.0,0.0,0.0,30.0,0.0,,0.0,28.6,,,23.4,0.0,0.0,-0.1,9.2,7.4,,,,,25.0,26.0,25.0,26.0,25.0,26.0,25.0,26.0,,,12.0,1.0,,28.6,11.0,4.998,,,0.653,1.41,0.0,23.0,,,,,,0.0,2026-04-09 15:15:49-07:00
77.06,1.0,9.0,2026-04-09 22:17:02,37.0816,-121.59962,293.0,0.0,239.3,-12.6,,,,,22:17:01,10.8,-1.0,7.7,0.0,253.0,0.0,-0.01,1.0,99.0,35.0,29.0,0.0,30.09,1962.0,,,317.0,,,,,0.0,0.0,,,,,,,,,,,,,,,,,,,0.0,23.0,0.0,0.0,30.0,0.0,,0.0,28.5,,,23.4,0.0,0.0,-0.1,9.2,7.4,,,,,25.0,26.0,25.0,26.0,25.0,26.0,25.0,26.0,,,12.0,1.0,,28.5,11.0,4.998,,,0.653,1.41,0.0,23.0,,,,,,0.0,2026-04-09 15:15:49-07:00
78.06,1.0,9.0,2026-04-09 22:17:03,37.0816,-121.59962,293.0,0.1,239.3,-12.6,,,,,22:17:02,10.8,-0.9,7.7,0.0,253.0,0.0,-0.0,1.0,99.0,20.0,29.0,0.0,30.09,1962.0,,,317.0,,,,,0.0,0.0,,,,,,,,,,,,,,,,,,,0.0,23.0,0.0,0.0,30.0,0.0,,0.0,28.4,,,23.4,0.0,0.0,-0.1,9.2,7.4,,,,,25.0,26.0,25.0,26.0,25.0,26.0,25.0,26.0,,,12.0,1.0,,28.4,11.0,4.998,,,0.653,1.432,0.0,23.0,,,,,,0.0,2026-04-09 15:15:49-07:00
79.06,1.0,9.0,2026-04-09 22:17:04,37.0816,-121.59962,293.0,0.2,239.3,-12.6,,,,,22:17:03,10.9,-0.8,7.6,0.0,253.0,0.0,-0.01,1.0,99.0,-3.0,29.0,0.0,30.09,1972.0,,,317.0,,,,,0.0,0.0,,,,,,,,,,,,,,,,,,,0.0,23.0,0.0,0.0,30.0,0.0,,0.0,28.4,,,23.4,0.0,0.0,-0.1,9.2,7.4,,,,,25.0,26.0,25.0,26.0,25.0,26.0,25.0,26.0,,,12.0,1.0,,28.4,11.0,4.998,,,0.656,1.027,0.0,23.0,,,,,,0.0,2026-04-09 15:15:49-07:00
80.06,1.0,9.0,2026-04-09 22:17:05,37.0816,-121.59962,293.0,0.1,239.3,-12.6,,,,,22:17:04,10.9,-0.9,7.7,0.0,253.0,0.0,-0.02,1.0,99.0,-21.0,29.0,0.0,30.09,1972.0,,,317.0,,,,,0.0,0.0,,,,,,,,,,,,,,,,,,,0.0,23.0,0.0,0.0,30.0,0.0,,0.0,28.3,,,23.4,0.0,0.0,-0.1,9.2,7.4,,,,,25.0,26.0,25.0,26.0,25.0,26.0,25.0,26.0,,,12.0,1.0,,28.3,11.0,4.998,,,0.657,1.071,0.0,23.0,,,,,,0.0,2026-04-09 15:15:49-07:00
81.06,1.0,9.0,2026-04-09 22:17:06,37.0816,-121.59962,294.0,0.1,239.3,-12.6,,,,,22:17:05,10.9,-0.9,7.8,0.0,253.0,0.0,-0.01,0.9,99.0,-28.0,29.0,0.0,30.09,1972.0,,,317.0,,,,,0.0,0.0,,,,,,,,,,,,,,,,,,,0.0,23.0,0.0,0.0,30.0,0.0,,0.0,28.2,,,23.4,0.0,0.0,-0.1,9.2,7.4,,,,,25.0,26.0,25.0,26.0,25.0,26.0,25.0,26.0,,,12.0,1.0,,28.2,11.0,4.998,,,0.701,1.47,0.0,23.0,,,,,,0.0,2026-04-09 15:15:49-07:00
82.06,1.0,9.0,2026-04-09 22:17:07,37.0816,-121.59962,294.0,0.1,239.3,-12.6,,,,,22:17:06,10.9,-1.0,7.8,0.0,253.0,0.0,-0.02,0.9,99.0,-2.0,29.0,0.0,30.09,1972.0,,,317.0,,,,,0.0,0.0,,,,,,,,,,,,,,,,,,,0.0,23.0,0.0,0.0,30.0,0.0,,0.0,28.1,,,23.4,0.0,0.0,-0.1,9.2,7.4,,,,,25.0,26.0,25.0,26.0,25.0,26.0,25.0,26.0,,,12.0,1.0,,28.1,11.0,4.998,,,0.657,1.256,0.0,23.0,,,,,,0.0,2026-04-09 15:15:49-07:00
83.06,1.0,9.0,2026-04-09 22:17:08,37.0816,-121.59962,294.0,0.1,239.3,-12.6,,,,,22:17:07,10.9,-1.0,7.8,0.0,253.0,0.0,-0.01,1.0,99.0,14.0,29.0,0.0,30.09,1972.0,,,317.0,,,,,0.0,0.0,,,,,,,,,,,,,,,,,,,0.0,23.0,0.0,0.0,30.0,0.0,,0.0,28.0,,,23.4,0.0,0.0,-0.1,9.2,7.4,,,,,25.0,26.0,25.0,26.0,25.0,26.0,25.0,26.0,,,12.0,1.0,,28.0,11.0,4.998,,,0.658,1.506,0.0,23.0,,,,,,0.0,2026-04-09 15:15:49-07:00
84.06,1.0,9.0,2026-04-09 22:17:09,37.0816,-121.59962,295.0,0.2,239.3,-12.6,,,,,22:17:08,10.9,-0.6,7.9,0.0,253.0,0.1,-0.01,1.0,99.0,40.0,29.0,0.0,30.09,1972.0,,,317.0,,,,,0.0,0.0,,,,,,,,,,,,,,,,,,,0.0,23.0,0.0,0.0,30.0,0.0,,0.0,27.9,,,23.4,0.0,0.0,-0.1,9.2,7.4,,,,,25.0,26.0,25.0,26.0,25.0,26.0,25.0,26.0,,,12.0,1.0,,27.9,11.0,4.998,,,0.654,1.461,0.0,23.0,,,,,,0.0,2026-04-09 15:15:49-07:00
85.06,1.0,9.0,2026-04-09 22:17:10,37.0816,-121.59962,295.0,0.1,239.3,-12.6,,,,,22:17:09,10.8,-0.6,7.8,0.0,253.0,0.0,-0.01,1.0,99.0,62.0,29.0,0.0,30.09,1972.0,,,317.0,,,,,0.0,0.0,,,,,,,,,,,,,,,,,,,0.0,23.0,0.0,0.0,30.0,0.0,,0.0,27.9,,,23.4,0.0,0.0,-0.1,9.2,7.4,,,,,25.0,26.0,25.0,26.0,25.0,26.0,25.0,26.0,,,12.0,0.0,,27.9,11.0,4.998,,,0.654,1.425,0.0,23.0,,,,,,0.0,2026-04-09 15:15:49-07:00
86.06,1.0,9.0,2026-04-09 22:17:11,37.0816,-121.59961,295.0,0.1,239.3,-12.6,,,,,22:17:10,10.8,-0.6,7.9,0.0,253.0,0.0,-0.02,1.0,99.0,80.0,29.0,0.0,30.09,1973.0,,,317.0,,,,,0.0,0.0,,,,,,,,,,,,,,,,,,,0.0,23.0,0.0,0.0,30.0,0.0,,0.0,27.8,,,23.4,0.0,0.0,-0.1,9.2,7.4,,,,,25.0,26.0,25.0,26.0,25.0,26.0,25.0,26.0,,,12.0,0.0,,27.8,11.0,4.998,,,0.656,1.466,0.0,23.0,,,,,,0.0,2026-04-09 15:15:49-07:00
87.06,1.0,9.0,2026-04-09 22:17:12,37.0816,-121.59961,295.0,0.0,239.3,-12.6,,,,,22:17:11,10.8,-0.7,7.9,0.0,253.0,0.0,-0.02,1.0,99.0,70.0,29.0,0.0,30.09,1973.0,,,317.0,,,,,0.0,0.0,,,,,,,,,,,,,,,,,,,0.0,23.0,0.0,0.0,30.0,0.0,,0.0,27.7,,,23.4,0.0,0.0,-0.1,9.2,7.4,,,,,24.0,26.0,25.0,26.0,25.0,26.0,25.0,26.0,,,12.0,0.0,,27.7,11.0,4.998,,,0.654,1.464,0.0,23.0,,,,,,0.0,2026-04-09 15:15:49-07:00
88.06,1.0,9.0,2026-04-09 22:17:13,37.0816,-121.59961,295.0,0.0,239.3,-12.6,,,,,22:17:12,10.8,-0.7,7.9,0.0,253.0,0.0,-0.01,1.0,99.0,87.0,29.0,0.0,30.09,1974.0,,,317.0,,,,,0.0,0.0,,,,,,,,,,,,,,,,,,,0.0,23.0,0.0,0.0,30.0,0.0,,0.0,27.6,,,23.4,0.0,0.0,-0.1,9.2,7.4,,,,,24.0,26.0,25.0,26.0,25.0,26.0,25.0,26.0,,,12.0,0.0,,27.6,11.0,4.998,,,0.654,1.464,0.0,23.0,,,,,,0.0,2026-04-09 15:15:49-07:00
89.06,1.0,9.0,2026-04-09 22:17:14,37.0816,-121.59961,295.0,0.0,239.3,-12.6,,,,,22:17:13,10.8,-0.6,7.9,0.0,255.0,0.1,-0.01,1.0,99.0,79.0,29.0,0.0,30.09,1976.0,,,317.0,,,,,0.0,0.0,,,,,,,,,,,,,,,,,,,0.0,23.0,0.0,0.0,30.0,0.0,,0.0,27.5,,,23.4,0.0,0.0,-0.1,9.2,7.4,,,,,25.0,26.0,25.0,26.0,25.0,26.0,25.0,26.0,,,12.0,0.0,,27.5,11.0,4.998,,,0.654,1.464,0.0,23.0,,,,,,0.0,2026-04-09 15:15:49-07:00
90.06,1.0,9.0,2026-04-09 22:17:15,37.0816,-121.59961,296.0,0.0,239.3,-12.6,,,,,22:17:14,10.7,-0.7,7.9,0.0,256.0,0.0,-0.01,1.0,99.0,83.0,29.0,0.0,30.09,1977.0,,,317.0,,,,,0.0,0.0,,,,,,,,,,,,,,,,,,,0.0,23.0,0.0,0.0,30.0,0.0,,0.0,27.5,,,23.4,0.0,0.0,-0.1,9.2,7.4,,,,,25.0,26.0,25.0,26.0,25.0,26.0,25.0,26.0,,,12.0,0.0,,27.5,11.0,4.998,,,0.653,1.464,0.0,23.0,,,,,,0.0,2026-04-09 15:15:49-07:00
91.06,1.0,9.0,2026-04-09 22:17:16,37.0816,-121.59961,296.0,0.0,239.3,-12.6,,,,,22:17:15,10.8,-0.8,7.8,0.0,257.0,0.0,-0.01,1.0,99.0,70.0,29.0,0.0,30.09,1978.0,,,317.0,,,,,0.0,0.0,,,,,,,,,,,,,,,,,,,0.0,23.0,0.0,0.0,30.0,0.0,,0.0,27.4,,,23.4,0.0,0.0,-0.1,9.2,7.4,,,,,25.0,26.0,25.0,26.0,25.0,26.0,25.0,26.0,,,13.0,0.0,,27.4,11.0,4.998,,,0.654,1.464,0.0,23.0,,,,,,0.0,2026-04-09 15:15:49-07:00
92.06,1.0,9.0,2026-04-09 22:17:17,37.0816,-121.59961,296.0,0.0,239.3,-12.6,,,,,22:17:16,10.8,-0.8,7.7,0.0,258.0,0.0,-0.01,1.0,99.0,47.0,29.0,0.0,30.09,1979.0,,,317.0,,,,,0.0,0.0,,,,,,,,,,,,,,,,,,,0.0,23.0,0.0,0.0,30.0,0.0,,0.0,27.3,,,23.4,0.0,0.0,-0.1,9.2,7.4,,,,,25.0,26.0,25.0,26.0,25.0,26.0,25.0,26.0,,,13.0,0.0,,27.3,11.0,4.998,,,0.653,1.464,0.0,23.0,,,,,,0.0,2026-04-09 15:15:49-07:00
93.06,1.0,9.0,2026-04-09 22:17:18,37.0816,-121.59961,296.0,0.0,239.3,-12.6,,,,,22:17:17,10.9,-0.7,7.7,0.0,258.0,0.0,-0.01,1.0,99.0,8.0,29.0,0.0,30.09,1979.0,,,317.0,,,,,0.0,0.0,,,,,,,,,,,,,,,,,,,0.0,23.0,0.0,0.0,30.0,0.0,,0.0,27.3,,,23.4,0.0,0.0,-0.1,9.2,7.4,,,,,25.0,26.0,25.0,26.0,25.0,26.0,25.0,26.0,,,13.0,0.0,,27.3,11.0,4.998,,,0.653,1.464,0.0,23.0,,,,,,0.0,2026-04-09 15:15:49-07:00
94.06,1.0,9.0,2026-04-09 22:17:19,37.08159,-121.5996,305.0,0.0,239.3,-12.6,,,,,22:17:18,10.9,-0.7,7.7,0.0,258.0,0.0,-0.01,1.0,99.0,-12.0,29.0,0.0,30.09,1979.0,,,317.0,,,,,0.0,0.0,,,,,,,,,,,,,,,,,,,0.0,23.0,0.0,0.0,30.0,0.0,,0.0,27.2,,,23.4,0.0,0.0,-0.1,9.2,7.4,,,,,25.0,26.0,25.0,26.0,25.0,26.0,25.0,26.0,,,13.0,0.0,,27.2,11.0,4.998,,,0.653,1.464,0.0,23.0,,,,,,0.0,2026-04-09 15:15:49-07:00
95.06,1.0,9.0,2026-04-09 22:17:20,37.08159,-121.5996,306.0,0.0,239.3,-12.6,,,,,22:17:19,10.9,-0.7,7.7,0.0,258.0,0.1,-0.01,1.0,99.0,-25.0,29.0,0.0,30.09,1989.0,,,317.0,,,,,0.0,0.0,,,,,,,,,,,,,,,,,,,0.0,23.0,0.0,0.0,30.0,0.0,,0.0,27.1,,,23.4,0.0,0.0,-0.1,9.2,7.4,,,,,25.0,26.0,25.0,26.0,25.0,26.0,25.0,26.0,,,13.0,0.0,,27.1,11.0,4.998,,,0.654,1.464,0.0,23.0,,,,,,0.0,2026-04-09 15:15:49-07:00
96.06,1.0,9.0,2026-04-09 22:17:21,37.08159,-121.5996,306.0,0.0,239.3,-12.6,,,,,22:17:20,10.8,-0.7,7.6,0.0,258.0,0.1,-0.01,1.0,99.0,-5.0,29.0,0.0,30.09,1989.0,,,317.0,,,,,0.0,0.0,,,,,,,,,,,,,,,,,,,0.0,23.0,0.0,0.0,30.0,0.0,,0.0,27.0,,,23.4,0.0,0.0,-0.1,9.2,7.4,,,,,25.0,26.0,25.0,26.0,25.0,26.0,25.0,26.0,,,13.0,0.0,,27.0,11.0,4.998,,,0.653,1.464,0.0,23.0,,,,,,0.0,2026-04-09 15:15:49-07:00
97.06,1.0,9.0,2026-04-09 22:17:22,37.0816,-121.5996,306.0,0.0,239.3,-12.6,,,,,22:17:21,10.9,-0.6,7.6,0.0,258.0,0.1,-0.01,1.0,99.0,-38.0,29.0,0.0,30.09,1989.0,,,317.0,,,,,0.0,0.0,,,,,,,,,,,,,,,,,,,0.0,23.0,0.0,0.0,30.0,0.0,,0.0,27.0,,,23.4,0.0,0.0,-0.1,9.2,7.4,,,,,25.0,26.0,25.0,26.0,25.0,26.0,25.0,26.0,,,13.0,0.0,,27.0,11.0,4.998,,,0.653,1.464,0.0,23.0,,,,,,0.0,2026-04-09 15:15:49-07:00
98.06,1.0,9.0,2026-04-09 22:17:23,37.0816,-121.5996,306.0,0.0,239.3,-12.6,,,,,22:17:22,10.8,-0.7,7.6,0.0,258.0,0.0,-0.01,1.0,99.0,-45.0,29.0,0.0,30.09,1989.0,,,317.0,,,,,0.0,0.0,,,,,,,,,,,,,,,,,,,0.0,23.0,0.0,0.0,30.0,0.0,,0.0,26.9,,,23.4,0.0,0.0,-0.1,9.2,7.4,,,,,25.0,26.0,25.0,26.0,25.0,26.0,25.0,26.0,,,13.0,0.0,,26.9,11.0,4.998,,,0.653,1.464,0.0,23.0,,,,,,0.0,2026-04-09 15:15:49-07:00
99.06,1.0,9.0,2026-04-09 22:17:24,37.0816,-121.5996,307.0,0.0,239.3,-12.6,,,,,22:17:23,10.8,-0.7,7.5,0.0,258.0,0.0,-0.01,1.0,99.0,2.0,29.0,0.0,30.09,1999.0,,,317.0,,,,,0.0,0.0,,,,,,,,,,,,,,,,,,,0.0,23.0,0.0,0.0,30.0,0.0,,0.0,26.8,,,23.4,0.0,0.0,-0.1,9.2,7.4,,,,,25.0,26.0,25.0,26.0,25.0,26.0,25.0,26.0,,,13.0,0.0,,26.8,11.0,4.998,,,0.653,1.464,0.0,23.0,,,,,,0.0,2026-04-09 15:15:49-07:00
100.06,1.0,9.0,2026-04-09 22:17:25,37.0816,-121.5996,307.0,0.0,239.3,-12.6,,,,,22:17:24,10.8,-0.6,7.5,0.0,258.0,0.0,-0.01,1.0,99.0,1.0,29.0,0.0,30.09,1999.0,,,317.0,,,,,0.0,0.0,,,,,,,,,,,,,,,,,,,0.0,23.0,0.0,0.0,30.0,0.0,,0.0,26.8,,,23.4,0.0,0.0,-0.1,9.2,7.4,,,,,25.0,26.0,25.0,26.0,25.0,26.0,25.0,26.0,,,12.0,0.0,,26.8,11.0,4.998,,,0.654,1.464,0.0,23.0,,,,,,0.0,2026-04-09 15:15:49-07:00
101.06,1.0,9.0,2026-04-09 22:17:26,37.0816,-121.5996,308.0,0.0,239.3,-12.6,,,,,22:17:25,10.8,-0.6,7.6,0.0,258.0,0.0,-0.01,1.0,99.0,-27.0,29.0,0.0,30.09,1999.0,,,317.0,,,,,0.0,0.0,,,,,,,,,,,,,,,,,,,0.0,23.0,0.0,0.0,30.0,0.0,,0.0,26.7,,,23.4,0.0,0.0,-0.1,9.2,7.4,,,,,25.0,26.0,25.0,26.0,25.0,26.0,25.0,26.0,,,13.0,0.0,,26.7,11.0,4.998,,,0.653,1.464,0.0,23.0,,,,,,0.0,2026-04-09 15:15:49-07:00
102.06,1.0,9.0,2026-04-09 22:17:27,37.0816,-121.5996,309.0,0.0,239.3,-12.6,,,,,22:17:26,10.8,-0.6,7.6,0.0,258.0,0.0,-0.01,1.0,99.0,-37.0,29.0,0.0,30.09,2000.0,,,317.0,,,,,0.0,0.0,,,,,,,,,,,,,,,,,,,0.0,23.0,0.0,0.0,30.0,0.0,,0.0,26.6,,,23.4,0.0,0.0,-0.1,9.2,7.4,,,,,25.0,26.0,25.0,26.0,25.0,26.0,25.0,26.0,,,13.0,0.0,,26.6,11.0,4.998,,,0.654,1.464,0.0,23.0,,,,,,0.0,2026-04-09 15:15:49-07:00
103.06,1.0,9.0,2026-04-09 22:17:28,37.0816,-121.5996,309.0,0.0,239.3,-12.6,,,,,22:17:27,10.8,-0.6,7.5,0.0,258.0,0.0,-0.01,1.0,99.0,-68.0,29.0,0.0,30.09,2000.0,,,317.0,,,,,0.0,0.0,,,,,,,,,,,,,,,,,,,0.0,23.0,0.0,0.0,30.0,0.0,,0.0,26.5,,,23.4,0.0,0.0,-0.1,9.2,7.4,,,,,25.0,26.0,25.0,26.0,25.0,26.0,25.0,26.0,,,13.0,0.0,,26.5,11.0,4.998,,,0.653,1.464,0.0,23.0,,,,,,0.0,2026-04-09 15:15:49-07:00
104.06,1.0,9.0,2026-04-09 22:17:29,37.0816,-121.5996,310.0,0.0,239.3,-12.6,,,,,22:17:28,10.8,-0.7,7.5,0.0,258.0,0.0,-0.01,1.0,99.0,-46.0,29.0,0.0,30.09,2000.0,,,317.0,,,,,0.0,0.0,,,,,,,,,,,,,,,,,,,0.0,23.0,0.0,0.0,30.0,0.0,,0.0,26.5,,,23.4,0.0,0.0,-0.1,9.2,7.4,,,,,25.0,26.0,25.0,26.0,25.0,26.0,25.0,26.0,,,12.0,0.0,,26.5,11.0,4.998,,,0.653,1.464,0.0,23.0,,,,,,0.0,2026-04-09 15:15:49-07:00
105.06,1.0,9.0,2026-04-09 22:17:30,37.0816,-121.5996,311.0,0.0,239.3,-12.6,,,,,22:17:29,10.8,-0.7,7.4,0.0,258.0,0.0,-0.01,1.0,99.0,-9.0,29.0,0.0,30.09,2010.0,,,317.0,,,,,0.0,0.0,,,,,,,,,,,,,,,,,,,0.0,23.0,0.0,0.0,30.0,0.0,,0.0,26.4,,,23.4,0.0,0.0,-0.1,9.2,7.4,,,,,25.0,26.0,25.0,26.0,25.0,26.0,25.0,26.0,,,12.0,0.0,,26.4,11.0,4.998,,,0.653,1.464,0.0,23.0,,,,,,0.0,2026-04-09 15:15:49-07:00
106.06,1.0,9.0,2026-04-09 22:17:31,37.0816,-121.5996,311.0,0.0,239.3,-12.6,,,,,22:17:30,10.8,-0.7,7.4,0.0,258.0,0.0,-0.01,1.0,99.0,-9.0,29.0,0.0,30.09,2010.0,,,317.0,,,,,0.0,0.0,,,,,,,,,,,,,,,,,,,0.0,23.0,0.0,0.0,30.0,0.0,,0.0,26.4,,,23.4,0.0,0.0,-0.1,9.2,7.4,,,,,25.0,26.0,25.0,26.0,25.0,26.0,25.0,26.0,,,12.0,0.0,,26.4,11.0,4.998,,,0.654,1.464,0.0,23.0,,,,,,0.0,2026-04-09 15:15:49-07:00
107.06,1.0,9.0,2026-04-09 22:17:32,37.0816,-121.5996,312.0,0.0,239.3,-12.6,,,,,22:17:31,10.8,-0.7,7.5,0.0,258.0,0.0,-0.01,1.0,99.0,-71.0,29.0,0.0,30.09,2010.0,,,317.0,,,,,0.0,0.0,,,,,,,,,,,,,,,,,,,0.0,23.0,0.0,0.0,30.0,0.0,,0.0,26.3,,,23.4,0.0,0.0,-0.1,9.2,7.4,,,,,25.0,26.0,25.0,26.0,25.0,26.0,25.0,26.0,,,12.0,0.0,,26.3,11.0,4.998,,,0.653,1.464,0.0,23.0,,,,,,0.0,2026-04-09 15:15:49-07:00
108.06,2.0,9.0,2026-04-09 22:17:33,37.0816,-121.5996,308.0,0.0,239.3,-12.6,,,,,22:17:32,10.8,-0.7,7.6,0.0,257.0,0.0,-0.01,1.0,99.0,-23.0,29.0,0.0,30.09,2010.0,,,317.0,,,,,0.0,0.0,,,,,,,,,,,,,,,,,,,0.0,23.0,0.0,0.0,30.0,0.0,,0.0,26.2,,,23.4,0.0,0.0,-0.1,9.2,7.4,,,,,25.0,26.0,25.0,26.0,25.0,26.0,25.0,26.0,,,12.0,0.0,,26.2,11.0,4.998,,,0.653,1.464,0.0,23.0,,,,,,0.0,2026-04-09 15:15:49-07:00
109.06,2.0,9.0,2026-04-09 22:17:34,37.0816,-121.5996,307.0,0.0,239.3,-12.6,,,,,22:17:33,10.7,-0.7,7.7,0.0,257.0,0.0,-0.01,1.0,99.0,-46.0,29.0,0.0,30.09,2010.0,,,317.0,,,,,0.0,0.0,,,,,,,,,,,,,,,,,,,0.0,23.0,0.0,0.0,30.0,0.0,,0.0,26.2,,,23.4,0.0,0.0,-0.1,9.2,7.4,,,,,25.0,26.0,25.0,26.0,25.0,26.0,25.0,26.0,,,12.0,0.0,,26.2,11.0,4.998,,,0.653,1.464,0.0,23.0,,,,,,0.0,2026-04-09 15:15:49-07:00
110.06,2.0,9.0,2026-04-09 22:17:35,37.0816,-121.5996,308.0,0.0,239.3,-12.6,,,,,22:17:34,10.8,-0.6,7.8,0.0,256.0,0.0,-0.01,1.0,99.0,-37.0,29.0,0.0,30.09,2019.0,,,317.0,,,,,0.0,0.0,,,,,,,,,,,,,,,,,,,0.0,23.0,0.0,0.0,30.0,0.0,,0.0,26.1,,,23.4,0.0,0.0,-0.1,9.2,7.4,,,,,25.0,26.0,25.0,26.0,25.0,26.0,25.0,26.0,,,12.0,0.0,,26.1,11.0,4.998,,,0.653,1.464,0.0,23.0,,,,,,0.0,2026-04-09 15:15:49-07:00
111.06,1.0,10.0,2026-04-09 22:17:36,37.08162,-121.59956,375.0,0.0,239.3,-12.6,,,,,22:17:35,10.8,-0.7,7.8,0.0,256.0,0.0,-0.01,1.0,99.0,-13.0,29.0,0.0,30.09,2019.0,,,317.0,,,,,0.0,0.0,,,,,,,,,,,,,,,,,,,0.0,23.0,0.0,0.0,30.0,0.0,,0.0,26.1,,,23.4,0.0,0.0,-0.1,9.2,7.4,,,,,25.0,26.0,25.0,26.0,25.0,26.0,25.0,26.0,,,12.0,0.0,,26.1,11.0,4.998,,,0.654,1.464,0.0,23.0,,,,,,0.0,2026-04-09 15:15:49-07:00
112.06,1.0,10.0,2026-04-09 22:17:37,37.08162,-121.59956,376.0,0.0,239.3,-12.6,,,,,22:17:36,10.9,-0.6,7.9,0.0,256.0,0.0,-0.01,1.0,99.0,15.0,29.0,0.0,30.09,2019.0,,,317.0,,,,,0.0,0.0,,,,,,,,,,,,,,,,,,,0.0,23.0,0.0,0.0,30.0,0.0,,0.0,26.1,,,23.4,0.0,0.0,-0.1,9.2,7.4,,,,,25.0,26.0,25.0,26.0,25.0,26.0,25.0,26.0,,,12.0,0.0,,26.1,11.0,4.998,,,0.653,1.464,0.0,23.0,,,,,,0.0,2026-04-09 15:15:49-07:00
113.06,1.0,10.0,2026-04-09 22:17:38,37.08161,-121.59956,378.0,0.0,239.3,-12.6,,,,,22:17:37,10.9,-0.7,7.8,0.0,256.0,0.0,-0.01,1.0,99.0,22.0,29.0,0.0,30.09,2028.0,,,317.0,,,,,0.0,0.0,,,,,,,,,,,,,,,,,,,0.0,23.0,0.0,0.0,30.0,0.0,,0.0,26.0,,,23.4,0.0,0.0,-0.1,9.2,7.4,,,,,25.0,26.0,25.0,26.0,25.0,26.0,25.0,26.0,,,11.0,0.0,,26.0,11.0,4.998,,,0.653,1.464,0.0,23.0,,,,,,0.0,2026-04-09 15:15:49-07:00
114.06,1.0,10.0,2026-04-09 22:17:39,37.08161,-121.59956,378.0,0.0,239.3,-12.6,,,,,22:17:38,10.9,-0.8,7.8,0.0,256.0,-0.0,-0.01,1.0,99.0,1.0,29.0,0.0,30.09,2028.0,,,317.0,,,,,0.0,0.0,,,,,,,,,,,,,,,,,,,0.0,23.0,0.0,0.0,30.0,0.0,,0.0,26.0,,,23.4,0.0,0.0,-0.1,9.2,7.4,,,,,25.0,26.0,25.0,26.0,25.0,26.0,25.0,26.0,,,11.0,0.0,,26.0,11.0,4.998,,,0.653,1.464,0.0,23.0,,,,,,0.0,2026-04-09 15:15:49-07:00
115.06,1.0,10.0,2026-04-09 22:17:40,37.08161,-121.59956,379.0,0.0,239.3,-12.6,,,,,22:17:39,10.9,-0.8,7.7,0.0,256.0,-0.0,-0.01,1.0,99.0,25.0,29.0,0.0,30.09,2028.0,,,317.0,,,,,0.0,0.0,,,,,,,,,,,,,,,,,,,0.0,23.0,0.0,0.0,30.0,0.0,,0.0,25.9,,,23.4,0.0,0.0,-0.1,9.2,7.4,,,,,25.0,26.0,25.0,26.0,25.0,26.0,25.0,26.0,,,11.0,0.0,,25.9,11.0,4.998,,,0.653,1.464,0.0,23.0,,,,,,0.0,2026-04-09 15:15:49-07:00
116.06,1.0,10.0,2026-04-09 22:17:41,37.08161,-121.59956,379.0,0.0,239.3,-12.6,,,,,22:17:40,10.9,-0.7,7.7,0.0,256.0,-0.0,-0.01,1.0,99.0,-6.0,29.0,0.0,30.09,2029.0,,,317.0,,,,,0.0,0.0,,,,,,,,,,,,,,,,,,,0.0,23.0,0.0,0.0,30.0,0.0,,0.0,25.8,,,23.4,0.0,0.0,-0.1,9.2,7.4,,,,,25.0,26.0,25.0,26.0,25.0,26.0,25.0,26.0,,,11.0,0.0,,25.8,11.0,4.998,,,0.653,1.464,0.0,23.0,,,,,,0.0,2026-04-09 15:15:49-07:00
117.06,1.0,10.0,2026-04-09 22:17:42,37.08161,-121.59956,377.0,0.0,239.3,-12.6,,,,,22:17:41,10.8,-0.7,7.7,0.0,256.0,0.0,-0.01,1.0,99.0,-4.0,29.0,0.0,30.09,2029.0,,,317.0,,,,,0.0,0.0,,,,,,,,,,,,,,,,,,,0.0,23.0,0.0,0.0,30.0,0.0,,0.0,25.8,,,23.4,0.0,0.0,-0.1,9.2,7.4,,,,,25.0,26.0,25.0,26.0,25.0,26.0,25.0,26.0,,,11.0,0.0,,25.8,11.0,4.998,,,0.654,1.464,0.0,23.0,,,,,,0.0,2026-04-09 15:15:49-07:00
118.06,1.0,10.0,2026-04-09 22:17:43,37.08161,-121.59956,377.0,0.0,239.3,-12.6,,,,,22:17:42,10.8,-0.7,7.7,0.0,256.0,-0.0,-0.01,1.0,99.0,-6.0,30.0,0.0,30.09,2030.0,,,317.0,,,,,0.0,0.0,,,,,,,,,,,,,,,,,,,0.0,23.0,0.0,0.0,30.0,0.0,,0.0,25.7,,,23.4,0.0,0.0,-0.1,9.2,7.4,,,,,25.0,26.0,25.0,26.0,25.0,26.0,25.0,26.0,,,11.0,0.0,,25.7,11.0,4.998,,,0.654,1.464,0.0,23.0,,,,,,0.0,2026-04-09 15:15:49-07:00
119.06,1.0,10.0,2026-04-09 22:17:44,37.08161,-121.59956,377.0,0.1,239.3,-12.6,,,,,22:17:43,10.8,-0.7,7.8,0.0,256.0,0.0,-0.01,1.0,99.0,-38.0,30.0,0.0,30.09,2030.0,,,317.0,,,,,0.0,0.0,,,,,,,,,,,,,,,,,,,0.0,23.0,0.0,0.0,30.0,0.0,,0.0,25.6,,,23.4,0.0,0.0,-0.1,9.2,7.4,,,,,25.0,26.0,25.0,26.0,25.0,26.0,25.0,26.0,,,11.0,0.0,,25.6,11.0,4.998,,,0.654,1.464,0.0,23.0,,,,,,0.0,2026-04-09 15:15:49-07:00
120.06,1.0,10.0,2026-04-09 22:17:45,37.08161,-121.59956,377.0,0.1,239.3,-12.6,,,,,22:17:44,10.8,-0.7,7.8,0.0,256.0,0.0,-0.01,1.0,99.0,-15.0,30.0,0.0,30.09,2030.0,,,317.0,,,,,0.0,0.0,,,,,,,,,,,,,,,,,,,0.0,23.0,0.0,0.0,30.0,0.0,,0.0,25.6,,,23.4,0.0,0.0,-0.1,9.2,7.4,,,,,25.0,26.0,25.0,26.0,25.0,26.0,25.0,26.0,,,11.0,0.0,,25.6,11.0,4.998,,,0.653,1.464,0.0,23.0,,,,,,0.0,2026-04-09 15:15:49-07:00
121.06,1.0,10.0,2026-04-09 22:17:46,37.08161,-121.59956,376.0,0.1,239.3,-12.6,,,,,22:17:45,10.8,-0.7,7.8,0.0,256.0,0.0,-0.01,1.0,99.0,5.0,30.0,0.0,30.09,2039.0,,,317.0,,,,,0.0,0.0,,,,,,,,,,,,,,,,,,,0.0,23.0,0.0,0.0,30.0,0.0,,0.0,25.5,,,23.4,0.0,0.0,-0.1,9.2,7.4,,,,,25.0,26.0,25.0,26.0,25.0,26.0,25.0,26.0,,,11.0,0.0,,25.5,11.0,4.998,,,0.653,1.464,0.0,23.0,,,,,,0.0,2026-04-09 15:15:49-07:00
122.06,1.0,10.0,2026-04-09 22:17:47,37.08161,-121.59956,376.0,0.2,239.3,-12.6,,,,,22:17:46,10.9,-0.9,7.9,0.0,256.0,0.1,-0.01,0.9,99.0,25.0,30.0,0.0,30.09,2039.0,,,317.0,,,,,0.0,0.0,,,,,,,,,,,,,,,,,,,0.0,23.0,0.0,0.0,30.0,0.0,,0.0,25.5,,,23.4,0.0,0.0,-0.1,9.2,7.4,,,,,25.0,26.0,25.0,26.0,25.0,26.0,25.0,26.0,,,11.0,0.0,,25.5,11.0,4.998,,,0.653,1.45,0.0,23.0,,,,,,0.0,2026-04-09 15:15:49-07:00
123.06,1.0,10.0,2026-04-09 22:17:48,37.08161,-121.59956,377.0,0.2,239.3,-12.6,,,,,22:17:47,10.8,-1.0,7.9,0.0,256.0,0.1,-0.03,0.9,99.0,46.0,30.0,0.0,30.09,2039.0,,,317.0,,,,,0.0,0.0,,,,,,,,,,,,,,,,,,,0.0,23.0,0.0,0.0,30.0,0.0,,0.0,25.4,,,23.4,0.0,0.0,-0.1,9.2,7.4,,,,,25.0,26.0,25.0,26.0,25.0,26.0,26.0,26.0,,,11.0,0.0,,25.4,11.0,4.998,,,0.653,1.312,0.0,23.0,,,,,,0.0,2026-04-09 15:15:49-07:00
124.06,1.0,10.0,2026-04-09 22:17:49,37.08161,-121.59956,381.0,0.1,239.3,-12.6,,,,,22:17:48,10.9,-0.8,8.0,0.0,256.0,0.0,-0.02,1.0,99.0,73.0,30.0,0.0,30.09,2039.0,,,317.0,,,,,0.0,0.0,,,,,,,,,,,,,,,,,,,0.0,23.0,0.0,0.0,30.0,0.0,,0.0,25.3,,,23.4,0.0,0.0,-0.1,9.2,7.4,,,,,25.0,26.0,25.0,26.0,25.0,26.0,26.0,26.0,,,11.0,0.0,,25.3,11.0,4.998,,,0.654,1.466,0.0,23.0,,,,,,0.0,2026-04-09 15:15:49-07:00
125.06,1.0,10.0,2026-04-09 22:17:50,37.08161,-121.59956,382.0,0.1,239.3,-12.6,,,,,22:17:49,10.8,-0.7,8.0,0.0,256.0,0.0,-0.01,1.0,99.0,75.0,30.0,0.0,30.09,2039.0,,,317.0,,,,,0.0,0.0,,,,,,,,,,,,,,,,,,,0.0,23.0,0.0,0.0,30.0,0.0,,0.0,25.3,,,23.4,0.0,0.0,-0.1,9.2,7.4,,,,,25.0,26.0,25.0,26.0,25.0,26.0,26.0,26.0,,,11.0,0.0,,25.3,11.0,4.998,,,0.657,1.409,0.0,23.0,,,,,,0.0,2026-04-09 15:15:49-07:00
126.06,1.0,10.0,2026-04-09 22:17:51,37.08168,-121.59963,350.0,0.1,239.3,-12.6,,,,,22:17:50,10.9,-0.8,8.0,0.0,256.0,0.1,-0.02,1.0,99.0,78.0,30.0,0.0,30.09,2040.0,,,317.0,,,,,0.0,0.0,,,,,,,,,,,,,,,,,,,0.0,23.0,0.0,0.0,30.0,0.0,,0.0,25.2,,,23.4,0.0,0.0,-0.1,9.2,7.4,,,,,25.0,26.0,25.0,26.0,25.0,26.0,25.0,26.0,,,11.0,0.0,,25.2,11.0,4.998,,,0.656,1.465,0.0,23.0,,,,,,0.0,2026-04-09 15:15:49-07:00
127.06,1.0,10.0,2026-04-09 22:17:52,37.08168,-121.59963,350.0,0.0,239.3,-12.6,,,,,22:17:51,10.9,-0.8,7.9,0.0,256.0,0.0,-0.02,1.0,99.0,69.0,30.0,0.0,30.09,2040.0,,,317.0,,,,,0.0,0.0,,,,,,,,,,,,,,,,,,,0.0,23.0,0.0,0.0,30.0,0.0,,0.0,25.2,,,23.4,0.0,0.0,-0.1,9.2,7.4,,,,,25.0,26.0,25.0,26.0,25.0,26.0,25.0,26.0,,,11.0,0.0,,25.2,11.0,4.998,,,0.654,1.437,0.0,23.0,,,,,,0.0,2026-04-09 15:15:49-07:00
128.06,1.0,10.0,2026-04-09 22:17:53,37.08168,-121.59963,350.0,0.0,239.3,-12.6,,,,,22:17:52,10.9,-0.8,7.9,0.0,257.0,0.0,-0.02,0.9,99.0,54.0,30.0,0.0,30.09,2041.0,,,317.0,,,,,0.0,0.0,,,,,,,,,,,,,,,,,,,0.0,23.0,0.0,0.0,30.0,0.0,,0.0,25.1,,,23.4,0.0,0.0,-0.1,9.2,7.4,,,,,25.0,26.0,25.0,26.0,25.0,26.0,25.0,26.0,,,12.0,0.0,,25.1,11.0,4.998,,,0.654,1.465,0.0,23.0,,,,,,0.0,2026-04-09 15:15:49-07:00
129.06,1.0,10.0,2026-04-09 22:17:54,37.08168,-121.59963,348.0,0.1,239.3,-12.6,,,,,22:17:53,10.9,-0.8,7.9,0.0,257.0,0.0,-0.02,1.0,99.0,54.0,30.0,0.0,30.09,2041.0,,,317.0,,,,,0.0,0.0,,,,,,,,,,,,,,,,,,,0.0,23.0,0.0,0.0,30.0,0.0,,0.0,25.0,,,23.4,0.0,0.0,-0.1,9.2,7.4,,,,,25.0,26.0,25.0,26.0,25.0,26.0,25.0,26.0,,,12.0,0.0,,25.0,11.0,4.998,,,0.654,1.465,0.0,23.0,,,,,,0.0,2026-04-09 15:15:49-07:00
130.06,1.0,10.0,2026-04-09 22:17:55,37.08168,-121.59963,347.0,0.1,239.3,-12.6,,,,,22:17:54,10.9,-0.8,7.9,0.0,259.0,0.0,-0.02,1.0,99.0,78.0,30.0,0.0,30.09,2044.0,,,317.0,,,,,0.0,0.0,,,,,,,,,,,,,,,,,,,0.0,23.0,0.0,0.0,30.0,0.0,,0.0,25.0,,,23.4,0.0,0.0,-0.1,9.2,7.4,,,,,25.0,26.0,25.0,26.0,25.0,26.0,25.0,26.0,,,12.0,0.0,,25.0,11.0,4.998,,,0.654,1.409,0.0,23.0,,,,,,0.0,2026-04-09 15:15:49-07:00
131.06,1.0,10.0,2026-04-09 22:17:56,37.08169,-121.59965,336.0,0.1,239.3,-12.6,,,,,22:17:55,10.9,-0.8,8.0,0.0,259.0,0.0,-0.02,1.0,99.0,50.0,30.0,0.0,30.09,2044.0,,,317.0,,,,,0.0,0.0,,,,,,,,,,,,,,,,,,,0.0,23.0,0.0,0.0,30.0,0.0,,0.0,24.9,,,23.4,0.0,0.0,-0.1,9.2,7.4,,,,,25.0,26.0,25.0,26.0,25.0,26.0,25.0,26.0,,,12.0,0.0,,24.9,11.0,4.998,,,0.654,1.337,0.0,23.0,,,,,,0.0,2026-04-09 15:15:49-07:00
132.06,1.0,10.0,2026-04-09 22:17:57,37.08157,-121.5996,284.0,0.1,239.3,-12.6,,,,,22:17:56,10.8,-0.7,7.9,0.0,260.0,0.0,-0.01,1.0,99.0,43.0,30.0,0.0,30.09,2045.0,,,317.0,,,,,0.0,0.0,,,,,,,,,,,,,,,,,,,0.0,23.0,0.0,0.0,30.0,0.0,,0.0,24.9,,,23.4,0.0,0.0,-0.1,9.2,7.4,,,,,25.0,26.0,25.0,26.0,25.0,26.0,25.0,26.0,,,12.0,0.0,,24.9,11.0,4.998,,,0.657,1.409,0.0,23.0,,,,,,0.0,2026-04-09 15:15:49-07:00
133.06,1.0,10.0,2026-04-09 22:17:58,37.08157,-121.5996,284.0,0.0,239.3,-12.6,,,,,22:17:57,10.8,-0.7,7.9,0.0,260.0,0.0,-0.01,1.0,99.0,14.0,30.0,0.0,30.09,2045.0,,,317.0,,,,,0.0,0.0,,,,,,,,,,,,,,,,,,,0.0,23.0,0.0,0.0,30.0,0.0,,0.0,24.8,,,23.4,0.0,0.0,-0.1,9.2,7.4,,,,,25.0,26.0,25.0,26.0,25.0,26.0,25.0,26.0,,,12.0,0.0,,24.8,11.0,4.998,,,0.656,1.41,0.0,23.0,,,,,,0.0,2026-04-09 15:15:49-07:00
134.06,1.0,10.0,2026-04-09 22:17:59,37.08157,-121.5996,281.0,0.1,239.3,-12.6,,,,,22:17:58,10.8,-0.8,7.9,0.0,260.0,0.0,-0.01,1.0,99.0,18.0,30.0,0.0,30.09,2045.0,,,317.0,,,,,0.0,0.0,,,,,,,,,,,,,,,,,,,0.0,23.0,0.0,0.0,30.0,0.0,,0.0,24.8,,,23.4,0.0,0.0,-0.1,9.2,7.4,,,,,25.0,26.0,25.0,26.0,25.0,26.0,25.0,26.0,,,12.0,0.0,,24.8,11.0,4.998,,,0.654,1.449,0.0,23.0,,,,,,0.0,2026-04-09 15:15:49-07:00
135.06,1.0,10.0,2026-04-09 22:18:00,37.08157,-121.5996,283.0,0.0,239.3,-12.6,,,,,22:17:59,10.8,-0.8,7.9,0.0,260.0,0.0,-0.01,1.0,99.0,-27.0,30.0,0.0,30.09,2055.0,,,317.0,,,,,0.0,0.0,,,,,,,,,,,,,,,,,,,0.0,23.0,0.0,0.0,30.0,0.0,,0.0,24.7,,,23.4,0.0,0.0,-0.1,9.2,7.4,,,,,25.0,26.0,25.0,26.0,25.0,26.0,25.0,26.0,,,12.0,0.0,,24.7,11.0,4.998,,,0.656,1.494,0.0,23.0,,,,,,0.0,2026-04-09 15:15:49-07:00
136.06,1.0,10.0,2026-04-09 22:18:01,37.08157,-121.5996,282.0,0.0,239.3,-12.6,,,,,22:18:00,10.8,-0.7,7.9,0.0,260.0,0.0,-0.01,1.0,99.0,15.0,30.0,0.0,30.09,2055.0,,,317.0,,,,,0.0,0.0,,,,,,,,,,,,,,,,,,,0.0,23.0,0.0,0.0,30.0,0.0,,0.0,24.6,,,23.4,0.0,0.0,-0.1,9.2,7.4,,,,,25.0,26.0,25.0,26.0,25.0,26.0,25.0,26.0,,,12.0,0.0,,24.6,11.0,4.998,,,0.654,1.462,0.0,23.0,,,,,,0.0,2026-04-09 15:15:49-07:00
137.06,1.0,10.0,2026-04-09 22:18:02,37.08157,-121.5996,281.0,0.0,239.3,-12.6,,,,,22:18:01,10.9,-0.8,7.9,0.0,260.0,0.0,-0.01,1.0,99.0,-26.0,30.0,0.0,30.09,2056.0,,,317.0,,,,,0.0,0.0,,,,,,,,,,,,,,,,,,,0.0,23.0,0.0,0.0,30.0,0.0,,0.0,24.6,,,23.4,0.0,0.0,-0.1,9.2,7.4,,,,,25.0,26.0,25.0,26.0,25.0,26.0,25.0,26.0,,,12.0,0.0,,24.6,11.0,4.998,,,0.656,1.434,0.0,23.0,,,,,,0.0,2026-04-09 15:15:49-07:00
138.06,1.0,10.0,2026-04-09 22:18:03,37.08157,-121.5996,280.0,0.0,239.3,-12.6,,,,,22:18:02,10.9,-0.6,8.0,0.0,260.0,0.1,-0.01,1.0,99.0,-29.0,30.0,0.0,30.09,2056.0,,,317.0,,,,,0.0,0.0,,,,,,,,,,,,,,,,,,,0.0,23.0,0.0,0.0,30.0,0.0,,0.0,24.5,,,23.4,0.0,0.0,-0.1,9.2,7.4,,,,,25.0,26.0,25.0,26.0,25.0,26.0,25.0,26.0,,,12.0,0.0,,24.5,11.0,4.998,,,0.654,1.442,0.0,23.0,,,,,,0.0,2026-04-09 15:15:49-07:00
139.06,1.0,10.0,2026-04-09 22:18:04,37.08157,-121.5996,277.0,0.0,239.3,-12.6,,,,,22:18:03,10.9,-0.6,8.0,0.0,260.0,0.0,-0.01,1.0,99.0,-6.0,30.0,0.0,30.09,2056.0,,,317.0,,,,,0.0,0.0,,,,,,,,,,,,,,,,,,,0.0,23.0,0.0,0.0,30.0,0.0,,0.0,24.5,,,23.4,0.0,0.0,-0.1,9.2,7.4,,,,,25.0,26.0,25.0,26.0,25.0,26.0,25.0,26.0,,,12.0,0.0,,24.5,11.0,4.998,,,0.654,1.41,0.0,23.0,,,,,,0.0,2026-04-09 15:15:49-07:00
140.06,1.0,10.0,2026-04-09 22:18:05,37.08156,-121.5996,277.0,0.0,239.3,-12.6,,,,,22:18:04,10.9,-0.7,8.1,0.0,260.0,0.0,-0.01,1.0,99.0,2.0,30.0,0.0,30.09,2065.0,,,317.0,,,,,0.0,0.0,,,,,,,,,,,,,,,,,,,0.0,23.0,0.0,0.0,30.0,0.0,,0.0,24.4,,,23.4,0.0,0.0,-0.1,9.2,7.4,,,,,25.0,26.0,25.0,26.0,25.0,26.0,25.0,26.0,,,12.0,0.0,,24.4,11.0,4.998,,,0.654,1.41,0.0,23.0,,,,,,0.0,2026-04-09 15:15:49-07:00
141.06,1.0,10.0,2026-04-09 22:18:06,37.08157,-121.5996,273.0,0.1,239.3,-12.6,,,,,22:18:05,10.9,-0.7,8.1,0.0,260.0,0.0,-0.01,1.0,99.0,22.0,30.0,0.0,30.09,2065.0,,,317.0,,,,,0.0,0.0,,,,,,,,,,,,,,,,,,,0.0,23.0,0.0,0.0,30.0,0.0,,0.0,24.3,,,23.4,0.0,0.0,-0.1,9.2,7.4,,,,,25.0,26.0,25.0,26.0,25.0,26.0,25.0,27.0,,,12.0,0.0,,24.3,11.0,4.998,,,0.654,1.431,0.0,23.0,,,,,,0.0,2026-04-09 15:15:49-07:00
142.06,1.0,10.0,2026-04-09 22:18:07,37.08156,-121.5996,272.0,0.1,239.3,-12.6,,,,,22:18:06,10.9,-0.7,8.0,0.0,260.0,0.0,-0.01,1.0,99.0,2.0,30.0,0.0,30.09,2065.0,,,317.0,,,,,0.0,0.0,,,,,,,,,,,,,,,,,,,0.0,23.0,0.0,0.0,30.0,0.0,,0.0,24.3,,,23.4,0.0,0.0,-0.1,9.2,7.4,,,,,25.0,26.0,25.0,26.0,25.0,26.0,25.0,26.0,,,12.0,0.0,,24.3,11.0,4.998,,,0.654,1.41,0.0,23.0,,,,,,0.0,2026-04-09 15:15:49-07:00
143.06,1.0,10.0,2026-04-09 22:18:08,37.08156,-121.5996,271.0,0.0,239.3,-12.6,,,,,22:18:07,10.9,-0.7,8.0,0.0,260.0,0.0,-0.01,1.0,99.0,-2.0,30.0,0.0,30.09,2066.0,,,317.0,,,,,0.0,0.0,,,,,,,,,,,,,,,,,,,0.0,23.0,0.0,0.0,30.0,0.0,,0.0,24.2,,,23.4,0.0,0.0,-0.1,9.2,7.4,,,,,25.0,26.0,25.0,26.0,25.0,26.0,25.0,26.0,,,12.0,0.0,,24.2,11.0,4.998,,,0.654,1.409,0.0,23.0,,,,,,0.0,2026-04-09 15:15:49-07:00
144.06,1.0,10.0,2026-04-09 22:18:09,37.08156,-121.5996,269.0,0.1,239.3,-12.6,,,,,22:18:08,10.9,-0.8,8.0,0.0,260.0,0.0,-0.01,1.0,99.0,-42.0,30.0,0.0,30.09,2066.0,,,317.0,,,,,0.0,0.0,,,,,,,,,,,,,,,,,,,0.0,23.0,0.0,0.0,30.0,0.0,,0.0,24.2,,,23.4,0.0,0.0,-0.1,9.2,7.4,,,,,25.0,26.0,25.0,26.0,25.0,26.0,25.0,26.0,,,12.0,0.0,,24.2,11.0,4.998,,,0.654,1.41,0.0,23.0,,,,,,0.0,2026-04-09 15:15:49-07:00
145.06,1.0,10.0,2026-04-09 22:18:10,37.08156,-121.5996,270.0,0.0,239.3,-12.6,,,,,22:18:09,10.8,-0.9,8.0,0.0,260.0,0.0,-0.01,1.0,99.0,-42.0,30.0,0.0,30.09,2066.0,,,317.0,,,,,0.0,0.0,,,,,,,,,,,,,,,,,,,0.0,23.0,0.0,0.0,30.0,0.0,,0.0,24.1,,,23.4,0.0,0.0,-0.1,9.2,7.4,,,,,25.0,26.0,25.0,26.0,25.0,26.0,25.0,27.0,,,12.0,0.0,,24.1,11.0,4.998,,,0.654,1.411,0.0,23.0,,,,,,0.0,2026-04-09 15:15:49-07:00
146.06,1.0,10.0,2026-04-09 22:18:11,37.08156,-121.5996,268.0,0.0,239.3,-12.6,,,,,22:18:10,10.8,-0.9,7.8,0.0,260.0,0.0,-0.01,1.0,99.0,-37.0,30.0,0.0,30.09,2076.0,,,317.0,,,,,0.0,0.0,,,,,,,,,,,,,,,,,,,0.0,23.0,0.0,0.0,30.0,0.0,,0.0,24.1,,,23.4,0.0,0.0,-0.1,9.2,7.4,,,,,25.0,26.0,25.0,26.0,25.0,26.0,25.0,26.0,,,12.0,0.0,,24.1,11.0,4.998,,,0.654,1.41,0.0,23.0,,,,,,0.0,2026-04-09 15:15:49-07:00
147.06,1.0,10.0,2026-04-09 22:18:12,37.08156,-121.5996,271.0,0.0,239.3,-12.6,,,,,22:18:11,10.9,-0.8,7.8,0.0,260.0,0.0,-0.01,1.0,99.0,-23.0,30.0,0.0,30.09,2077.0,,,317.0,,,,,0.0,0.0,,,,,,,,,,,,,,,,,,,0.0,23.0,0.0,0.0,30.0,0.0,,0.0,24.0,,,23.4,0.0,0.0,-0.1,9.2,7.4,,,,,25.0,26.0,25.0,26.0,25.0,26.0,25.0,27.0,,,12.0,0.0,,24.0,11.0,4.998,,,0.653,1.41,0.0,23.0,,,,,,0.0,2026-04-09 15:15:49-07:00
148.06,1.0,10.0,2026-04-09 22:18:13,37.08156,-121.59959,270.0,0.0,239.3,-12.6,,,,,22:18:12,10.8,-0.8,7.9,0.0,260.0,0.1,-0.01,1.0,99.0,-37.0,30.0,0.0,30.09,2077.0,,,317.0,,,,,0.0,0.0,,,,,,,,,,,,,,,,,,,0.0,23.0,0.0,0.0,30.0,0.0,,0.0,23.9,,,23.4,0.0,0.0,-0.1,9.2,7.4,,,,,25.0,26.0,25.0,26.0,25.0,26.0,25.0,27.0,,,12.0,0.0,,23.9,11.0,4.998,,,0.653,1.41,0.0,23.0,,,,,,0.0,2026-04-09 15:15:49-07:00
149.06,1.0,10.0,2026-04-09 22:18:14,37.08156,-121.59959,270.0,0.0,239.3,-12.6,,,,,22:18:13,10.9,-0.8,7.9,0.0,260.0,0.0,-0.01,1.0,99.0,-65.0,30.0,0.0,30.09,2077.0,,,317.0,,,,,0.0,0.0,,,,,,,,,,,,,,,,,,,0.0,23.0,0.0,0.0,30.0,0.0,,0.0,23.9,,,23.4,0.0,0.0,-0.1,9.2,7.4,,,,,25.0,26.0,25.0,26.0,25.0,26.0,25.0,27.0,,,12.0,0.0,,23.9,11.0,4.998,,,0.654,1.41,0.0,23.0,,,,,,0.0,2026-04-09 15:15:49-07:00
150.06,1.0,10.0,2026-04-09 22:18:15,37.08156,-121.59959,269.0,0.0,239.3,-12.6,,,,,22:18:14,10.8,-0.8,7.9,0.0,260.0,0.1,-0.01,1.0,99.0,-23.0,30.0,0.0,30.09,2087.0,,,317.0,,,,,0.0,0.0,,,,,,,,,,,,,,,,,,,0.0,23.0,0.0,0.0,30.0,0.0,,0.0,23.8,,,23.4,0.0,0.0,-0.1,9.2,7.4,,,,,25.0,26.0,25.0,26.0,25.0,26.0,26.0,27.0,,,12.0,0.0,,23.8,11.0,4.998,,,0.654,1.41,0.0,23.0,,,,,,0.0,2026-04-09 15:15:49-07:00
151.06,1.0,10.0,2026-04-09 22:18:16,37.08156,-121.59959,267.0,0.0,239.3,-12.6,,,,,22:18:15,10.9,-0.8,7.9,0.0,260.0,0.1,-0.01,1.0,99.0,-32.0,30.0,0.0,30.09,2087.0,,,317.0,,,,,0.0,0.0,,,,,,,,,,,,,,,,,,,0.0,23.0,0.0,0.0,30.0,0.0,,0.0,23.8,,,23.4,0.0,0.0,-0.1,9.2,7.4,,,,,25.0,26.0,25.0,26.0,25.0,26.0,26.0,27.0,,,12.0,0.0,,23.8,11.0,4.998,,,0.654,1.41,0.0,23.0,,,,,,0.0,2026-04-09 15:15:49-07:00
