Session Time,GPS Fix Quality,Number of Satellites,GPS Date & Time,Latitude (deg),Longitude (deg),GPS Altitude (feet),Ground Speed (knots),Ground Track (deg),Mag Var (deg),Cross Track Error (NM),Destination Waypoint ID,Range to Destination (NM),Bearing to Destination (deg),System Time,Pitch (deg),Roll (deg),Magnetic Heading (deg),Indicated Airspeed (knots),Pressure Altitude (ft),Turn Rate (deg/s),Lateral Accel (g),Vertical Accel(g),Angle of Attack (%),Vertical Speed (ft/min),OAT (deg C),True Airspeed (knots),Barometer Setting (inHg),Density Altitude (ft),Wind Direction (deg),Wind Speed (knots),Heading Bug (deg),Altitude Bug (ft),Airspeed Bug (knots),Vertical Speed Bug (ft/min),Course (deg),CDI Source Type,CDI Source Port,CDI Scale (NM),CDI Deflection (%),Glideslope (%),AP Engaged,AP Roll Mode,AP Roll Force,AP Roll Position (steps),AP Roll Slip (bool),AP Pitch Force,AP Pitch Position (steps),AP Pitch Slip (bool),AP Yaw Force,AP Yaw Position,AP Yaw Slip (bool),Transponder Status,Transponder Reply (bool),Transponder Identing (bool),Transponder Code (octal),Oil Pressure (PSI),Oil Temp (deg C),RPM L,RPM R,Manifold Pressure (inHg),Fuel Flow 1 (gal/hr),Fuel Flow 2 (gal/hr),Total Fuel Flow (gal/hr),Fuel Pressure (PSI),Fuel Level L (gal),Fuel Level R (gal),Fuel Remaining (gal),Volts 1,Volts 2,Amps,Hobbs Time,Tach Time,Thermocouple 1 (deg C),Thermocouple 2 (deg C),Thermocouple 3 (deg C),Thermocouple 4 (deg C),CHT 4 (deg C),EGT 4 (deg C),CHT 3 (deg C),EGT 3 (deg C),CHT 2 (deg C),EGT 2 (deg C),CHT 1 (deg C),EGT 1 (deg C),Thermocouple 13 (deg C),Thermocouple 14 (deg C),ELEV POSITION (%),CO PPM PRESSURE (PSI),GP Input 3,FUEL PRESSURE (PSI),AILERN POSITION (%),CANOPY CONTACT (V),GP Input 7,GP Input 8,LEFT LEVEL (Sensor V),RIGHT LEVEL (Sensor V),OIL PRESSURE (PSI),OIL TEMPERATURE (deg C),GP Input 13,Contacts,Percent Power,EGT Leaning State,Unnamed: 103,RPM,Flight ID
6.06,1.0,9.0,2026-01-03 22:45:42,37.08166,-121.59954,316.0,0.1,171.1,-12.6,,,,,22:45:41,11.4,0.6,229.5,0.0,328.0,-0.0,0.01,1.0,,-43.0,17.0,0.0,29.88,651.0,,,325.0,,,,,0.0,0.0,,,,,,,,,,,,,,,,,,,0.0,15.0,0.0,0.0,30.0,0.0,,0.0,0.0,,,38.7,0.0,0.0,-0.5,0.3,0.1,,,,,16.0,16.0,16.0,16.0,16.0,16.0,16.0,16.0,,,-2.0,254.4,,0.0,2.0,4.998,,,0.659,0.907,0.0,15.3,,,,,,0.0,2026-01-03 14:45:42-08:00
7.06,1.0,9.0,2026-01-03 22:45:43,37.08165,-121.59956,309.0,0.0,171.1,-12.6,,,,,22:45:42,11.4,0.6,229.5,0.0,326.0,-0.0,0.01,1.0,,-55.0,17.0,0.0,29.88,651.0,,,325.0,,,,,0.0,0.0,,,,,,,,,,,,,,,,,,,0.0,15.0,0.0,0.0,30.0,0.0,,0.0,0.0,,,38.7,0.0,0.0,-0.5,0.3,0.1,,,,,16.0,16.0,16.0,16.0,16.0,16.0,16.0,16.0,,,-2.0,254.4,,0.0,2.0,4.998,,,0.659,0.907,0.0,15.3,,,,,,0.0,2026-01-03 14:45:42-08:00
8.06,1.0,9.0,2026-01-03 22:45:44,37.08165,-121.59956,312.0,0.0,171.1,-12.6,,,,,22:45:43,11.4,0.6,229.5,0.0,326.0,-0.0,0.01,1.0,,-27.0,17.0,0.0,29.88,651.0,,,325.0,,,,,0.0,0.0,,,,,,,,,,,,,,,,,,,0.0,15.0,0.0,0.0,30.0,0.0,,0.0,0.0,,,38.7,0.0,0.0,-0.5,0.3,0.1,,,,,16.0,16.0,16.0,16.0,16.0,16.0,16.0,16.0,,,-2.0,254.4,,0.0,2.0,4.998,,,0.659,0.906,0.0,15.3,,,,,,0.0,2026-01-03 14:45:42-08:00
9.06,1.0,9.0,2026-01-03 22:45:45,37.08165,-121.59957,314.0,0.0,171.1,-12.6,,,,,22:45:44,11.4,0.6,229.6,0.0,326.0,-0.0,0.01,1.0,,-33.0,17.0,0.0,29.88,651.0,,,325.0,,,,,0.0,0.0,,,,,,,,,,,,,,,,,,,0.0,15.0,0.0,0.0,30.0,0.0,,0.0,0.0,,,38.7,0.0,0.0,-0.5,0.3,0.1,,,,,16.0,16.0,16.0,16.0,16.0,16.0,16.0,16.0,,,-2.0,254.4,,0.0,2.0,4.998,,,0.659,0.907,0.0,15.3,,,,,,0.0,2026-01-03 14:45:42-08:00
10.06,1.0,9.0,2026-01-03 22:45:46,37.08165,-121.59957,316.0,0.0,171.1,-12.6,,,,,22:45:45,11.4,0.6,229.6,0.0,326.0,-0.0,0.01,1.0,,-10.0,17.0,0.0,29.88,648.0,,,325.0,,,,,0.0,0.0,,,,,,,,,,,,,,,,,,,0.0,15.0,0.0,0.0,30.0,0.0,,0.0,0.0,,,38.7,0.0,0.0,-0.5,0.3,0.1,,,,,16.0,16.0,16.0,16.0,16.0,16.0,16.0,16.0,,,-2.0,254.4,,0.0,2.0,4.998,,,0.659,0.907,0.0,15.3,,,,,,0.0,2026-01-03 14:45:42-08:00
11.06,1.0,9.0,2026-01-03 22:45:47,37.08165,-121.59957,319.0,0.0,171.1,-12.6,,,,,22:45:46,11.4,0.6,229.6,0.0,324.0,-0.0,0.01,1.0,,-64.0,17.0,0.0,29.88,648.0,,,325.0,,,,,0.0,0.0,,,,,,,,,,,,,,,,,,,0.0,15.0,0.0,0.0,30.0,0.0,,0.0,0.0,,,38.7,0.0,0.0,-0.6,0.3,0.1,,,,,16.0,16.0,16.0,16.0,16.0,16.0,16.0,16.0,,,-2.0,254.4,,0.0,2.0,4.998,,,0.659,0.906,0.0,15.3,,,,,,0.0,2026-01-03 14:45:42-08:00
12.06,1.0,9.0,2026-01-03 22:45:48,37.08165,-121.59957,321.0,0.0,171.1,-12.6,,,,,22:45:47,11.4,0.6,229.6,0.0,322.0,0.0,0.01,1.0,,-87.0,17.0,0.0,29.88,648.0,,,325.0,,,,,0.0,0.0,,,,,,,,,,,,,,,,,,,0.0,15.0,0.0,0.0,30.0,0.0,,0.0,0.0,,,38.7,0.0,0.0,-0.6,0.3,0.1,,,,,16.0,16.0,16.0,16.0,16.0,16.0,16.0,16.0,,,-2.0,254.4,,0.0,2.0,4.998,,,0.659,0.907,0.0,15.3,,,,,,0.0,2026-01-03 14:45:42-08:00
13.06,1.0,9.0,2026-01-03 22:45:49,37.08165,-121.59957,323.0,0.0,171.1,-12.6,,,,,22:45:48,11.4,0.6,229.6,0.0,322.0,0.0,0.01,1.0,,-64.0,17.0,0.0,29.88,651.0,,,325.0,,,,,0.0,0.0,,,,,,,,,,,,,,,,,,,0.0,15.0,0.0,0.0,30.0,0.0,,0.0,0.0,,,38.7,0.0,0.0,-0.6,0.3,0.1,,,,,16.0,16.0,16.0,16.0,16.0,16.0,16.0,16.0,,,-2.0,254.4,,0.0,2.0,4.998,,,0.659,0.907,0.0,15.3,,,,,,0.0,2026-01-03 14:45:42-08:00
14.06,1.0,9.0,2026-01-03 22:45:50,37.08165,-121.59957,324.0,0.0,171.1,-12.6,,,,,22:45:49,11.4,0.6,229.6,0.0,322.0,-0.0,0.01,1.0,,-55.0,17.0,0.0,29.88,651.0,,,325.0,,,,,0.0,0.0,,,,,,,,,,,,,,,,,,,0.0,15.0,0.0,0.0,30.0,0.0,,0.0,0.0,,,38.7,0.0,0.0,-0.6,0.3,0.1,,,,,16.0,16.0,16.0,16.0,16.0,16.0,16.0,16.0,,,-2.0,254.4,,0.0,2.0,4.998,,,0.659,0.906,0.0,15.3,,,,,,0.0,2026-01-03 14:45:42-08:00
15.06,1.0,9.0,2026-01-03 22:45:51,37.08165,-121.59958,325.0,0.0,171.1,-12.6,,,,,22:45:50,11.4,0.6,229.7,0.0,321.0,0.0,0.01,1.0,,-45.0,17.0,0.0,29.88,650.0,,,325.0,,,,,0.0,0.0,,,,,,,,,,,,,,,,,,,0.0,15.0,0.0,0.0,30.0,0.0,,0.0,0.0,,,38.7,0.0,0.0,-0.6,0.3,0.1,,,,,16.0,16.0,16.0,16.0,16.0,16.0,16.0,16.0,,,-2.0,254.4,,0.0,2.0,4.998,,,0.659,0.905,0.0,15.3,,,,,,0.0,2026-01-03 14:45:42-08:00
16.06,1.0,9.0,2026-01-03 22:45:52,37.08165,-121.59958,326.0,0.0,171.1,-12.6,,,,,22:45:51,11.4,0.6,229.6,0.0,321.0,-0.0,0.01,1.0,,-19.0,17.0,0.0,29.88,650.0,,,325.0,,,,,0.0,0.0,,,,,,,,,,,,,,,,,,,0.0,15.0,0.0,0.0,30.0,0.0,,0.0,0.0,,,38.7,0.0,0.0,-0.6,0.3,0.1,,,,,16.0,16.0,16.0,16.0,16.0,16.0,16.0,16.0,,,-2.0,254.4,,0.0,2.0,4.998,,,0.659,0.905,0.0,15.3,,,,,,0.0,2026-01-03 14:45:42-08:00
17.06,1.0,9.0,2026-01-03 22:45:53,37.08165,-121.59958,327.0,0.0,171.1,-12.6,,,,,22:45:52,11.3,0.6,229.6,0.0,321.0,-0.0,0.01,1.0,,-3.0,17.0,0.0,29.88,650.0,,,325.0,,,,,0.0,0.0,,,,,,,,,,,,,,,,,,,0.0,15.0,0.0,0.0,30.0,0.0,,0.0,0.0,,,38.7,0.0,0.0,-0.6,0.3,0.1,,,,,16.0,16.0,16.0,16.0,16.0,16.0,16.0,16.0,,,-2.0,254.4,,0.0,2.0,4.998,,,0.659,0.905,0.0,15.3,,,,,,0.0,2026-01-03 14:45:42-08:00
18.06,1.0,9.0,2026-01-03 22:45:54,37.08165,-121.59958,329.0,0.0,171.1,-12.6,,,,,22:45:53,11.3,0.6,229.6,0.0,321.0,0.0,0.01,1.0,,6.0,17.0,0.0,29.88,651.0,,,325.0,,,,,0.0,0.0,,,,,,,,,,,,,,,,,,,0.0,15.0,0.0,0.0,30.0,0.0,,0.0,0.0,,,38.7,0.0,0.0,-0.6,0.3,0.1,,,,,16.0,16.0,16.0,16.0,16.0,16.0,16.0,16.0,,,-2.0,254.4,,0.0,2.0,4.998,,,0.659,0.905,0.0,15.3,,,,,,0.0,2026-01-03 14:45:42-08:00
19.06,1.0,9.0,2026-01-03 22:45:55,37.08165,-121.59958,331.0,0.0,171.1,-12.6,,,,,22:45:54,11.3,0.6,229.6,0.0,321.0,0.0,0.01,1.0,,-10.0,17.0,0.0,29.88,650.0,,,325.0,,,,,0.0,0.0,,,,,,,,,,,,,,,,,,,0.0,15.0,0.0,0.0,30.0,0.0,,0.0,0.0,,,38.7,0.0,0.0,-0.6,0.3,0.1,,,,,16.0,16.0,16.0,16.0,16.0,16.0,16.0,16.0,,,-2.0,254.4,,0.0,2.0,4.998,,,0.659,0.905,0.0,15.3,,,,,,0.0,2026-01-03 14:45:42-08:00
20.06,1.0,9.0,2026-01-03 22:45:56,37.08165,-121.59958,333.0,0.0,171.1,-12.6,,,,,22:45:55,11.3,0.6,229.6,0.0,321.0,-0.0,0.01,1.0,,24.0,17.0,0.0,29.88,650.0,,,325.0,,,,,0.0,0.0,,,,,,,,,,,,,,,,,,,0.0,15.0,0.0,0.0,30.0,0.0,,0.0,0.0,,,38.7,0.0,0.0,-0.6,0.3,0.1,,,,,16.0,16.0,16.0,16.0,16.0,16.0,16.0,16.0,,,-2.0,254.4,,0.0,2.0,4.998,,,0.659,0.902,0.0,15.3,,,,,,0.0,2026-01-03 14:45:42-08:00
21.06,1.0,9.0,2026-01-03 22:45:57,37.08165,-121.59959,334.0,0.0,171.1,-12.6,,,,,22:45:56,11.3,0.6,229.6,0.0,321.0,-0.0,0.01,1.0,,26.0,17.0,0.0,29.88,650.0,,,325.0,,,,,0.0,0.0,,,,,,,,,,,,,,,,,,,0.0,15.0,0.0,0.0,30.0,0.0,,0.0,0.0,,,38.7,0.0,0.0,-0.6,0.3,0.1,,,,,16.0,16.0,16.0,16.0,16.0,16.0,16.0,16.0,,,-2.0,254.4,,0.0,2.0,4.998,,,0.659,0.9,0.0,15.3,,,,,,0.0,2026-01-03 14:45:42-08:00
22.06,1.0,9.0,2026-01-03 22:45:58,37.08165,-121.59959,335.0,0.0,171.1,-12.6,,,,,22:45:57,11.3,0.6,229.6,0.0,321.0,-0.0,0.01,1.0,,-18.0,17.0,0.0,29.88,650.0,,,325.0,,,,,0.0,0.0,,,,,,,,,,,,,,,,,,,0.0,15.0,0.0,0.0,30.0,0.0,,0.0,0.0,,,38.7,0.0,0.0,-0.6,0.3,0.1,,,,,16.0,17.0,16.0,17.0,16.0,17.0,16.0,17.0,,,-2.0,254.4,,0.0,2.0,4.998,,,0.659,0.902,0.0,15.3,,,,,,0.0,2026-01-03 14:45:42-08:00
23.06,1.0,9.0,2026-01-03 22:45:59,37.08165,-121.59959,336.0,0.0,171.1,-12.6,,,,,22:45:58,11.3,0.6,229.6,0.0,321.0,0.0,0.01,1.0,,20.0,17.0,0.0,29.88,650.0,,,325.0,,,,,0.0,0.0,,,,,,,,,,,,,,,,,,,0.0,15.0,0.0,0.0,30.0,0.0,,0.0,0.0,,,38.7,0.0,0.0,-0.6,0.3,0.1,,,,,16.0,17.0,16.0,17.0,16.0,17.0,16.0,17.0,,,-2.0,254.4,,0.0,2.0,4.998,,,0.659,0.901,0.0,15.3,,,,,,0.0,2026-01-03 14:45:42-08:00
24.06,1.0,9.0,2026-01-03 22:46:00,37.08165,-121.59959,337.0,0.0,171.1,-12.6,,,,,22:45:59,11.3,0.6,229.5,0.0,321.0,-0.0,0.01,1.0,,12.0,17.0,0.0,29.88,650.0,,,325.0,,,,,0.0,0.0,,,,,,,,,,,,,,,,,,,0.0,15.0,0.0,0.0,30.0,0.0,,0.0,0.0,,,38.7,0.0,0.0,-0.6,0.3,0.1,,,,,16.0,17.0,16.0,17.0,16.0,17.0,16.0,17.0,,,-2.0,254.4,,0.0,2.0,4.998,,,0.659,0.901,0.0,15.3,,,,,,0.0,2026-01-03 14:45:42-08:00
25.06,1.0,9.0,2026-01-03 22:46:01,37.08165,-121.59959,338.0,0.0,171.1,-12.6,,,,,22:46:00,11.4,0.6,229.6,0.0,321.0,0.0,0.01,1.0,,-22.0,17.0,0.0,29.88,650.0,,,325.0,,,,,0.0,0.0,,,,,,,,,,,,,,,,,,,0.0,15.0,0.0,0.0,30.0,0.0,,0.0,0.0,,,38.7,0.0,0.0,-0.6,0.3,0.1,,,,,16.0,17.0,16.0,17.0,16.0,17.0,16.0,17.0,,,-2.0,254.4,,0.0,2.0,4.998,,,0.659,0.901,0.0,15.3,,,,,,0.0,2026-01-03 14:45:42-08:00
26.06,1.0,9.0,2026-01-03 22:46:02,37.08165,-121.59959,339.0,0.0,171.1,-12.6,,,,,22:46:01,11.4,0.6,229.6,0.0,320.0,0.0,0.01,1.0,,-53.0,17.0,0.0,29.88,649.0,,,325.0,,,,,0.0,0.0,,,,,,,,,,,,,,,,,,,0.0,15.0,0.0,0.0,30.0,0.0,,0.0,0.0,,,38.7,0.0,0.0,-0.6,0.3,0.1,,,,,16.0,17.0,16.0,17.0,16.0,17.0,16.0,17.0,,,-2.0,254.4,,0.0,2.0,4.998,,,0.659,0.9,0.0,15.3,,,,,,0.0,2026-01-03 14:45:42-08:00
27.06,1.0,9.0,2026-01-03 22:46:03,37.08165,-121.59959,339.0,0.0,171.1,-12.6,,,,,22:46:02,11.4,0.5,229.7,0.0,319.0,-0.0,0.01,1.0,,-41.0,17.0,0.0,29.88,649.0,,,325.0,,,,,0.0,0.0,,,,,,,,,,,,,,,,,,,0.0,15.0,0.0,0.0,30.0,0.0,,0.0,0.0,,,38.7,0.0,0.0,-0.6,0.3,0.1,,,,,16.0,17.0,16.0,17.0,16.0,17.0,16.0,17.0,,,-2.0,254.4,,0.0,2.0,4.998,,,0.659,0.9,0.0,15.3,,,,,,0.0,2026-01-03 14:45:42-08:00
28.06,1.0,9.0,2026-01-03 22:46:04,37.08165,-121.59959,340.0,0.0,171.1,-12.6,,,,,22:46:03,11.4,0.5,229.7,0.0,319.0,0.0,0.01,1.0,,-35.0,17.0,0.0,29.88,649.0,,,325.0,,,,,0.0,0.0,,,,,,,,,,,,,,,,,,,0.0,15.0,0.0,0.0,30.0,0.0,,0.0,0.0,,,38.7,0.0,0.0,-0.6,0.3,0.1,,,,,16.0,17.0,16.0,17.0,16.0,17.0,16.0,17.0,,,-2.0,254.4,,0.0,2.0,4.998,,,0.659,0.9,0.0,15.3,,,,,,0.0,2026-01-03 14:45:42-08:00
29.06,1.0,9.0,2026-01-03 22:46:05,37.08165,-121.59959,340.0,0.0,171.1,-12.6,,,,,22:46:04,11.4,0.6,229.7,0.0,319.0,-0.0,0.01,1.0,,-17.0,17.0,0.0,29.88,648.0,,,325.0,,,,,0.0,0.0,,,,,,,,,,,,,,,,,,,0.0,15.0,0.0,0.0,30.0,0.0,,0.0,0.0,,,38.7,0.0,0.0,-0.6,0.3,0.1,,,,,16.0,17.0,16.0,17.0,16.0,17.0,16.0,17.0,,,-2.0,254.4,,0.0,2.0,4.998,,,0.659,0.898,0.0,15.3,,,,,,0.0,2026-01-03 14:45:42-08:00
30.06,1.0,9.0,2026-01-03 22:46:06,37.08165,-121.59959,340.0,0.0,171.1,-12.6,,,,,22:46:05,11.4,0.6,229.7,0.0,317.0,0.0,0.01,1.0,,-54.0,17.0,0.0,29.88,648.0,,,325.0,,,,,0.0,0.0,,,,,,,,,,,,,,,,,,,0.0,15.0,0.0,0.0,30.0,0.0,,0.0,0.0,,,38.7,0.0,0.0,-0.6,0.3,0.1,,,,,16.0,17.0,16.0,17.0,16.0,17.0,16.0,17.0,,,-2.0,254.4,,0.0,2.0,4.998,,,0.659,0.898,0.0,15.3,,,,,,0.0,2026-01-03 14:45:42-08:00
31.06,1.0,9.0,2026-01-03 22:46:07,37.08165,-121.59959,341.0,0.0,171.1,-12.6,,,,,22:46:06,11.4,0.6,229.7,0.0,317.0,-0.0,0.01,1.0,,-32.0,17.0,0.0,29.88,648.0,,,325.0,,,,,0.0,0.0,,,,,,,,,,,,,,,,,,,0.0,15.0,0.0,0.0,30.0,0.0,,0.0,0.0,,,38.7,0.0,0.0,-0.6,0.3,0.1,,,,,16.0,17.0,16.0,17.0,16.0,17.0,16.0,17.0,,,-2.0,254.3,,0.0,2.0,4.998,,,0.659,0.898,0.0,15.3,,,,,,0.0,2026-01-03 14:45:42-08:00
32.06,1.0,9.0,2026-01-03 22:46:08,37.08165,-121.59959,340.0,0.0,171.1,-12.6,,,,,22:46:07,11.4,0.6,229.8,0.0,315.0,0.0,0.01,1.0,,-68.0,17.0,0.0,29.88,647.0,,,325.0,,,,,0.0,0.0,,,,,,,,,,,,,,,,,,,0.0,15.0,0.0,0.0,30.0,0.0,,0.0,0.0,,,38.7,0.0,0.0,-0.6,0.3,0.1,,,,,16.0,17.0,16.0,17.0,16.0,17.0,16.0,17.0,,,-2.0,254.3,,0.0,2.0,4.998,,,0.659,0.898,0.0,15.3,,,,,,0.0,2026-01-03 14:45:42-08:00
33.06,1.0,9.0,2026-01-03 22:46:09,37.08165,-121.59959,340.0,0.0,171.1,-12.6,,,,,22:46:08,11.4,0.5,229.7,0.0,314.0,0.0,0.01,1.0,,-68.0,17.0,0.0,29.88,647.0,,,325.0,,,,,0.0,0.0,,,,,,,,,,,,,,,,,,,0.0,15.0,0.0,0.0,30.0,0.0,,0.0,0.0,,,38.7,0.0,0.0,-0.6,0.3,0.1,,,,,16.0,17.0,16.0,17.0,16.0,17.0,16.0,17.0,,,-2.0,254.3,,0.0,2.0,4.998,,,0.659,0.9,0.0,15.3,,,,,,0.0,2026-01-03 14:45:42-08:00
34.06,1.0,9.0,2026-01-03 22:46:10,37.08165,-121.59959,341.0,0.0,171.1,-12.6,,,,,22:46:09,11.4,0.5,229.7,0.0,313.0,-0.0,0.01,1.0,,-66.0,17.0,0.0,29.88,647.0,,,325.0,,,,,0.0,0.0,,,,,,,,,,,,,,,,,,,0.0,15.0,0.0,0.0,30.0,0.0,,0.0,0.0,,,38.7,0.0,0.0,-0.6,0.3,0.1,,,,,16.0,17.0,16.0,17.0,16.0,17.0,16.0,17.0,,,-2.0,254.3,,0.0,2.0,4.998,,,0.659,0.902,0.0,15.3,,,,,,0.0,2026-01-03 14:45:42-08:00
35.06,1.0,9.0,2026-01-03 22:46:11,37.08165,-121.59959,340.0,0.1,171.1,-12.6,,,,,22:46:10,11.4,0.5,229.7,0.0,312.0,-0.0,0.01,1.0,,-80.0,17.0,0.0,29.88,642.0,,,325.0,,,,,0.0,0.0,,,,,,,,,,,,,,,,,,,0.0,15.0,0.0,0.0,30.0,0.0,,0.0,0.0,,,38.7,0.0,0.0,-0.6,0.3,0.1,,,,,16.0,17.0,16.0,17.0,16.0,17.0,16.0,17.0,,,-2.0,254.3,,0.0,2.0,4.998,,,0.659,0.902,0.0,15.3,,,,,,0.0,2026-01-03 14:45:42-08:00
36.06,1.0,9.0,2026-01-03 22:46:12,37.08165,-121.59959,340.0,0.0,171.1,-12.6,,,,,22:46:11,11.4,0.6,229.7,0.0,309.0,-0.0,0.01,1.0,,-105.0,17.0,0.0,29.88,642.0,,,325.0,,,,,0.0,0.0,,,,,,,,,,,,,,,,,,,0.0,15.0,0.0,0.0,30.0,0.0,,0.0,0.0,,,38.7,0.0,0.0,-0.6,0.3,0.1,,,,,16.0,17.0,16.0,17.0,16.0,17.0,16.0,17.0,,,-2.0,254.3,,0.0,2.0,4.998,,,0.659,0.902,0.0,15.3,,,,,,0.0,2026-01-03 14:45:42-08:00
37.06,1.0,9.0,2026-01-03 22:46:13,37.08165,-121.59959,340.0,0.0,171.1,-12.6,,,,,22:46:12,11.4,0.5,229.7,0.0,307.0,-0.0,0.01,1.0,,-98.0,17.0,0.0,29.88,642.0,,,325.0,,,,,0.0,0.0,,,,,,,,,,,,,,,,,,,0.0,15.0,0.0,0.0,30.0,0.0,,0.0,0.0,,,38.7,0.0,0.0,-0.6,0.3,0.1,,,,,16.0,17.0,16.0,17.0,16.0,17.0,16.0,17.0,,,-2.0,254.3,,0.0,2.0,4.998,,,0.659,0.902,0.0,15.3,,,,,,0.0,2026-01-03 14:45:42-08:00
38.06,1.0,9.0,2026-01-03 22:46:14,37.08165,-121.59959,339.0,0.1,171.1,-12.6,,,,,22:46:13,11.4,0.5,229.7,0.0,306.0,-0.0,0.01,1.0,,-105.0,17.0,0.0,29.88,634.0,,,325.0,,,,,0.0,0.0,,,,,,,,,,,,,,,,,,,0.0,15.0,0.0,0.0,30.0,0.0,,0.0,0.0,,,38.7,0.0,0.0,-0.6,0.3,0.1,,,,,16.0,17.0,16.0,17.0,16.0,17.0,16.0,17.0,,,-2.0,254.3,,0.0,2.0,4.998,,,0.659,0.902,0.0,15.3,,,,,,0.0,2026-01-03 14:45:42-08:00
39.06,1.0,9.0,2026-01-03 22:46:15,37.08166,-121.59959,339.0,0.1,171.1,-12.6,,,,,22:46:14,11.5,0.5,229.8,0.0,305.0,0.0,0.01,1.0,,-77.0,17.0,0.0,29.88,634.0,,,325.0,,,,,0.0,0.0,,,,,,,,,,,,,,,,,,,0.0,15.0,0.0,0.0,30.0,0.0,,0.0,0.0,,,38.7,0.0,0.0,-0.6,0.3,0.1,,,,,16.0,17.0,16.0,17.0,16.0,17.0,16.0,17.0,,,-2.0,254.3,,0.0,2.0,4.998,,,0.659,0.903,0.0,15.3,,,,,,0.0,2026-01-03 14:45:42-08:00
40.06,1.0,9.0,2026-01-03 22:46:16,37.08166,-121.59959,338.0,0.0,171.1,-12.6,,,,,22:46:15,11.4,0.5,229.8,0.0,303.0,0.0,0.01,1.0,,-72.0,17.0,0.0,29.88,634.0,,,325.0,,,,,0.0,0.0,,,,,,,,,,,,,,,,,,,0.0,15.0,0.0,0.0,30.0,0.0,,0.0,0.0,,,38.7,0.0,0.0,-0.6,0.3,0.1,,,,,16.0,17.0,16.0,17.0,16.0,17.0,16.0,17.0,,,-2.0,254.3,,0.0,2.0,4.998,,,0.659,0.905,0.0,15.3,,,,,,0.0,2026-01-03 14:45:42-08:00
41.06,1.0,9.0,2026-01-03 22:46:17,37.08166,-121.59959,338.0,0.0,171.1,-12.6,,,,,22:46:16,11.5,0.5,229.8,0.0,303.0,-0.0,0.01,1.0,,-59.0,17.0,0.0,29.88,630.0,,,325.0,,,,,0.0,0.0,,,,,,,,,,,,,,,,,,,0.0,15.0,0.0,0.0,30.0,0.0,,0.0,0.0,,,38.7,0.0,0.0,-0.6,0.3,0.1,,,,,16.0,17.0,16.0,17.0,16.0,17.0,16.0,17.0,,,-2.0,254.3,,0.0,2.0,4.998,,,0.659,0.908,0.0,15.3,,,,,,0.0,2026-01-03 14:45:42-08:00
42.06,1.0,9.0,2026-01-03 22:46:18,37.08166,-121.59959,338.0,0.0,171.1,-12.6,,,,,22:46:17,11.5,0.5,229.8,0.0,303.0,-0.0,0.01,1.0,,-21.0,17.0,0.0,29.88,630.0,,,325.0,,,,,0.0,0.0,,,,,,,,,,,,,,,,,,,0.0,15.0,0.0,0.0,30.0,0.0,,0.0,0.0,,,38.7,0.0,0.0,-0.6,0.3,0.1,,,,,16.0,17.0,16.0,17.0,16.0,17.0,16.0,17.0,,,-2.0,236.7,,0.0,2.0,4.998,,,0.659,0.907,0.0,15.3,,,,,,0.0,2026-01-03 14:45:42-08:00
43.06,1.0,9.0,2026-01-03 22:46:19,37.08166,-121.59959,337.0,0.0,171.1,-12.6,,,,,22:46:18,11.4,0.5,229.8,0.0,303.0,-0.0,0.01,1.0,,-28.0,17.0,0.0,29.88,630.0,,,325.0,,,,,0.0,0.0,,,,,,,,,,,,,,,,,,,0.0,15.0,0.0,0.0,30.0,0.0,,0.0,0.0,,,38.7,0.0,0.0,-0.6,0.3,0.1,,,,,16.0,17.0,16.0,17.0,16.0,17.0,16.0,17.0,,,-2.0,184.2,,0.0,2.0,4.998,,,0.659,0.906,0.0,15.3,,,,,,0.0,2026-01-03 14:45:42-08:00
44.06,1.0,9.0,2026-01-03 22:46:20,37.08166,-121.59959,337.0,0.0,171.1,-12.6,,,,,22:46:19,11.4,0.5,229.8,0.0,303.0,-0.0,0.01,1.0,,-15.0,17.0,0.0,29.88,630.0,,,325.0,,,,,0.0,0.0,,,,,,,,,,,,,,,,,,,0.0,15.0,0.0,0.0,30.0,0.0,,0.0,0.0,,,38.7,0.0,0.0,-0.6,0.3,0.1,,,,,16.0,17.0,16.0,17.0,16.0,17.0,16.0,17.0,,,-2.0,143.4,,0.0,2.0,4.998,,,0.659,0.906,0.0,15.3,,,,,,0.0,2026-01-03 14:45:42-08:00
45.06,1.0,9.0,2026-01-03 22:46:21,37.08165,-121.59959,336.0,0.0,171.1,-12.6,,,,,22:46:20,11.4,0.6,229.7,0.0,302.0,-0.0,0.01,1.0,,-30.0,17.0,0.0,29.88,630.0,,,325.0,,,,,0.0,0.0,,,,,,,,,,,,,,,,,,,0.0,15.0,0.0,0.0,30.0,0.0,,0.0,0.0,,,38.7,0.0,0.0,-0.6,0.3,0.1,,,,,16.0,17.0,16.0,17.0,16.0,17.0,16.0,17.0,,,-2.0,111.7,,0.0,2.0,4.998,,,0.659,0.906,0.0,15.3,,,,,,0.0,2026-01-03 14:45:42-08:00
46.06,1.0,9.0,2026-01-03 22:46:22,37.08165,-121.59959,335.0,0.0,171.1,-12.6,,,,,22:46:21,11.4,0.5,229.8,0.0,300.0,-0.0,0.01,1.0,,-68.0,17.0,0.0,29.88,630.0,,,325.0,,,,,0.0,0.0,,,,,,,,,,,,,,,,,,,0.0,15.0,0.0,0.0,30.0,0.0,,0.0,0.0,,,38.7,0.0,0.0,-0.6,0.3,0.1,,,,,16.0,17.0,16.0,17.0,16.0,17.0,16.0,17.0,,,-2.0,87.0,,0.0,2.0,4.998,,,0.659,0.906,0.0,15.3,,,,,,0.0,2026-01-03 14:45:42-08:00
47.06,1.0,9.0,2026-01-03 22:46:23,37.08165,-121.59959,335.0,0.0,171.1,-12.6,,,,,22:46:22,11.4,0.5,229.8,0.0,300.0,-0.0,0.01,1.0,,-46.0,17.0,0.0,29.88,626.0,,,325.0,,,,,0.0,0.0,,,,,,,,,,,,,,,,,,,0.0,15.0,0.0,0.0,30.0,0.0,,0.0,0.0,,,38.7,0.0,0.0,-0.6,0.3,0.1,,,,,16.0,17.0,16.0,17.0,16.0,17.0,16.0,17.0,,,-2.0,67.8,,0.0,2.0,4.998,,,0.659,0.903,0.0,15.3,,,,,,0.0,2026-01-03 14:45:42-08:00
48.06,1.0,9.0,2026-01-03 22:46:24,37.08165,-121.59958,334.0,0.0,171.1,-12.6,,,,,22:46:23,11.4,0.6,229.7,0.0,300.0,-0.0,0.01,1.0,,-44.0,17.0,0.0,29.88,626.0,,,325.0,,,,,0.0,0.0,,,,,,,,,,,,,,,,,,,0.0,15.0,0.0,0.0,30.0,0.0,,0.0,0.0,,,38.7,0.0,0.0,-0.6,0.3,0.1,,,,,16.0,17.0,16.0,17.0,16.0,17.0,16.0,17.0,,,-2.0,52.9,,0.0,2.0,4.998,,,0.659,0.897,0.0,15.3,,,,,,0.0,2026-01-03 14:45:42-08:00
49.06,1.0,9.0,2026-01-03 22:46:25,37.08165,-121.59958,334.0,0.0,171.1,-12.6,,,,,22:46:24,11.5,0.6,229.8,0.0,299.0,0.0,0.01,1.0,,-31.0,17.0,0.0,29.88,626.0,,,325.0,,,,,0.0,0.0,,,,,,,,,,,,,,,,,,,0.0,15.0,0.0,0.0,30.0,0.0,,0.0,0.0,,,38.7,0.0,0.0,-0.6,0.3,0.1,,,,,16.0,17.0,16.0,17.0,16.0,17.0,16.0,17.0,,,-2.0,41.4,,0.0,2.0,4.998,,,0.659,0.897,0.0,15.3,,,,,,0.0,2026-01-03 14:45:42-08:00
50.06,1.0,9.0,2026-01-03 22:46:26,37.08165,-121.59958,333.0,0.0,171.1,-12.6,,,,,22:46:25,11.5,0.6,229.8,0.0,299.0,0.0,0.01,1.0,,-9.0,17.0,0.0,29.88,625.0,,,325.0,,,,,0.0,0.0,,,,,,,,,,,,,,,,,,,0.0,15.0,0.0,0.0,30.0,0.0,,0.0,0.0,,,38.7,0.0,0.0,-0.6,0.3,0.1,,,,,16.0,17.0,16.0,17.0,16.0,17.0,16.0,17.0,,,-2.0,32.4,,0.0,2.0,4.998,,,0.659,0.897,0.0,15.3,,,,,,0.0,2026-01-03 14:45:42-08:00
51.06,1.0,9.0,2026-01-03 22:46:27,37.08165,-121.59958,332.0,0.0,171.1,-12.6,,,,,22:46:26,11.5,0.6,229.8,0.0,299.0,0.0,0.01,1.0,,16.0,17.0,0.0,29.88,625.0,,,325.0,,,,,0.0,0.0,,,,,,,,,,,,,,,,,,,0.0,15.0,0.0,0.0,30.0,0.0,,0.0,0.0,,,38.7,0.0,0.0,-0.6,0.3,0.1,,,,,16.0,17.0,16.0,17.0,16.0,17.0,16.0,17.0,,,-2.0,25.4,,0.0,2.0,4.998,,,0.659,0.898,0.0,15.3,,,,,,0.0,2026-01-03 14:45:42-08:00
52.06,1.0,9.0,2026-01-03 22:46:28,37.08165,-121.59958,332.0,0.0,171.1,-12.6,,,,,22:46:27,11.5,0.5,229.8,0.0,299.0,0.0,0.01,1.0,,41.0,17.0,0.0,29.88,626.0,,,325.0,,,,,0.0,0.0,,,,,,,,,,,,,,,,,,,0.0,15.0,0.0,0.0,30.0,0.0,,0.0,0.0,,,38.7,0.0,0.0,-0.6,0.3,0.1,,,,,16.0,17.0,16.0,17.0,16.0,17.0,16.0,17.0,,,-2.0,19.9,,0.0,2.0,4.998,,,0.659,0.898,0.0,15.3,,,,,,0.0,2026-01-03 14:45:42-08:00
53.06,1.0,9.0,2026-01-03 22:46:29,37.08165,-121.59958,331.0,0.0,171.1,-12.6,,,,,22:46:28,11.5,0.6,229.8,0.0,299.0,0.0,0.01,1.0,,34.0,17.0,0.0,29.88,626.0,,,325.0,,,,,0.0,0.0,,,,,,,,,,,,,,,,,,,0.0,15.0,0.0,0.0,30.0,0.0,,0.0,0.0,,,38.7,0.0,0.0,-0.6,0.3,0.1,,,,,16.0,17.0,16.0,17.0,16.0,17.0,16.0,17.0,,,-2.0,15.7,,0.0,2.0,4.998,,,0.659,0.898,0.0,15.3,,,,,,0.0,2026-01-03 14:45:42-08:00
54.06,1.0,9.0,2026-01-03 22:46:30,37.08165,-121.59958,330.0,0.0,171.1,-12.6,,,,,22:46:29,11.5,0.6,229.8,0.0,299.0,0.0,0.01,1.0,,40.0,17.0,0.0,29.88,626.0,,,325.0,,,,,0.0,0.0,,,,,,,,,,,,,,,,,,,0.0,15.0,0.0,0.0,30.0,0.0,,0.0,0.0,,,38.7,0.0,0.0,-0.6,0.3,0.1,,,,,16.0,17.0,16.0,17.0,16.0,17.0,16.0,17.0,,,-2.0,12.4,,0.0,2.0,4.998,,,0.659,0.898,0.0,15.3,,,,,,0.0,2026-01-03 14:45:42-08:00
55.06,1.0,9.0,2026-01-03 22:46:31,37.08165,-121.59958,330.0,0.0,171.1,-12.6,,,,,22:46:30,11.5,0.6,229.8,0.0,299.0,0.0,0.01,1.0,,46.0,17.0,0.0,29.88,625.0,,,325.0,,,,,0.0,0.0,,,,,,,,,,,,,,,,,,,0.0,15.0,0.0,0.0,30.0,0.0,,0.0,0.0,,,38.7,0.0,0.0,-0.6,0.3,0.1,,,,,16.0,17.0,16.0,17.0,16.0,17.0,16.0,17.0,,,-2.0,9.9,,0.0,2.0,4.998,,,0.659,0.9,0.0,15.3,,,,,,0.0,2026-01-03 14:45:42-08:00
56.06,1.0,9.0,2026-01-03 22:46:32,37.08165,-121.59958,329.0,0.0,171.1,-12.6,,,,,22:46:31,11.5,0.6,229.8,0.0,299.0,0.0,0.01,1.0,,55.0,17.0,0.0,29.88,626.0,,,325.0,,,,,0.0,0.0,,,,,,,,,,,,,,,,,,,0.0,15.0,0.0,0.0,30.0,0.0,,0.0,0.0,,,38.7,0.0,0.0,-0.6,0.3,0.1,,,,,16.0,17.0,16.0,17.0,16.0,17.0,16.0,17.0,,,-2.0,7.9,,0.0,2.0,4.998,,,0.659,0.9,0.0,15.3,,,,,,0.0,2026-01-03 14:45:42-08:00
57.06,1.0,9.0,2026-01-03 22:46:33,37.08165,-121.59958,329.0,0.0,171.1,-12.6,,,,,22:46:32,11.4,0.5,229.8,0.0,299.0,0.0,0.01,1.0,,22.0,17.0,0.0,29.88,626.0,,,325.0,,,,,0.0,0.0,,,,,,,,,,,,,,,,,,,0.0,15.0,0.0,0.0,30.0,0.0,,0.0,0.0,,,38.7,0.0,0.0,-0.6,0.3,0.1,,,,,16.0,17.0,16.0,17.0,16.0,17.0,16.0,17.0,,,-2.0,6.3,,0.0,2.0,4.998,,,0.659,0.898,0.0,15.3,,,,,,0.0,2026-01-03 14:45:42-08:00
58.06,1.0,9.0,2026-01-03 22:46:34,37.08165,-121.59957,328.0,0.0,171.1,-12.6,,,,,22:46:33,11.5,0.5,229.8,0.0,299.0,0.0,0.01,1.0,,38.0,17.0,0.0,29.88,626.0,,,325.0,,,,,0.0,0.0,,,,,,,,,,,,,,,,,,,0.0,15.0,0.0,0.0,30.0,0.0,,0.0,0.0,,,38.7,0.0,0.0,-0.6,0.3,0.1,,,,,16.0,17.0,16.0,17.0,16.0,17.0,16.0,17.0,,,-2.0,5.1,,0.0,2.0,4.998,,,0.659,0.901,0.0,15.3,,,,,,0.0,2026-01-03 14:45:42-08:00
59.06,1.0,9.0,2026-01-03 22:46:35,37.08165,-121.59957,328.0,0.0,171.1,-12.6,,,,,22:46:34,11.5,0.5,229.8,0.0,299.0,0.0,0.01,1.0,,53.0,17.0,0.0,29.88,634.0,,,325.0,,,,,0.0,0.0,,,,,,,,,,,,,,,,,,,0.0,15.0,0.0,0.0,30.0,0.0,,0.0,0.0,,,38.7,0.0,0.0,-0.6,0.3,0.1,,,,,16.0,17.0,16.0,17.0,16.0,17.0,16.0,17.0,,,-2.0,4.2,,0.0,2.0,4.998,,,0.659,0.9,0.0,15.3,,,,,,0.0,2026-01-03 14:45:42-08:00
60.06,1.0,9.0,2026-01-03 22:46:36,37.08165,-121.59957,327.0,0.0,171.1,-12.6,,,,,22:46:35,11.5,0.5,229.8,0.0,299.0,0.0,0.01,1.0,,14.0,17.0,0.0,29.88,634.0,,,325.0,,,,,0.0,0.0,,,,,,,,,,,,,,,,,,,0.0,15.0,0.0,0.0,30.0,0.0,,0.0,0.0,,,38.7,0.0,0.0,-0.6,0.3,0.1,,,,,16.0,17.0,16.0,17.0,16.0,17.0,16.0,17.0,,,-2.0,3.5,,0.0,2.0,4.998,,,0.659,0.901,0.0,15.3,,,,,,0.0,2026-01-03 14:45:42-08:00
61.06,1.0,9.0,2026-01-03 22:46:37,37.08165,-121.59957,327.0,0.0,171.1,-12.6,,,,,22:46:36,11.5,0.5,229.8,0.0,299.0,0.0,0.01,1.0,,22.0,17.0,0.0,29.88,634.0,,,325.0,,,,,0.0,0.0,,,,,,,,,,,,,,,,,,,0.0,15.0,0.0,0.0,30.0,0.0,,0.0,0.0,,,38.7,0.0,0.0,-0.6,0.3,0.1,,,,,16.0,17.0,16.0,17.0,16.0,17.0,16.0,17.0,,,-2.0,2.9,,0.0,2.0,4.998,,,0.659,0.901,0.0,15.3,,,,,,0.0,2026-01-03 14:45:42-08:00
62.06,1.0,9.0,2026-01-03 22:46:38,37.08165,-121.59957,326.0,0.0,171.1,-12.6,,,,,22:46:37,11.4,0.6,229.8,0.0,299.0,0.0,0.01,1.0,,29.0,17.0,0.0,29.88,634.0,,,325.0,,,,,0.0,0.0,,,,,,,,,,,,,,,,,,,0.0,15.0,0.0,0.0,30.0,0.0,,0.0,0.0,,,38.7,0.0,0.0,-0.6,0.3,0.1,,,,,16.0,17.0,16.0,17.0,16.0,17.0,16.0,17.0,,,-2.0,2.5,,0.0,2.0,4.998,,,0.659,0.901,0.0,15.3,,,,,,0.0,2026-01-03 14:45:42-08:00
63.06,1.0,9.0,2026-01-03 22:46:39,37.08165,-121.59957,326.0,0.0,171.1,-12.6,,,,,22:46:38,11.5,0.6,229.8,0.0,299.0,-0.0,0.01,1.0,,-5.0,17.0,0.0,29.88,634.0,,,325.0,,,,,0.0,0.0,,,,,,,,,,,,,,,,,,,0.0,15.0,0.0,0.0,30.0,0.0,,0.0,0.0,,,38.7,0.0,0.0,-0.6,0.3,0.1,,,,,16.0,17.0,16.0,17.0,16.0,17.0,16.0,17.0,,,-2.0,2.2,,0.0,2.0,4.998,,,0.659,0.901,0.0,15.3,,,,,,0.0,2026-01-03 14:45:42-08:00
64.06,1.0,9.0,2026-01-03 22:46:40,37.08165,-121.59957,325.0,0.0,171.1,-12.6,,,,,22:46:39,11.5,0.6,229.8,0.0,299.0,0.0,0.01,1.0,,3.0,17.0,0.0,29.88,634.0,,,325.0,,,,,0.0,0.0,,,,,,,,,,,,,,,,,,,0.0,15.0,0.0,0.0,30.0,0.0,,0.0,0.0,,,38.7,0.0,0.0,-0.6,0.3,0.1,,,,,16.0,17.0,16.0,17.0,16.0,17.0,16.0,17.0,,,-2.0,1.9,,0.0,2.0,4.998,,,0.659,0.902,0.0,15.3,,,,,,0.0,2026-01-03 14:45:42-08:00
65.06,1.0,9.0,2026-01-03 22:46:41,37.08165,-121.59957,325.0,0.0,171.1,-12.6,,,,,22:46:40,11.5,0.5,229.8,0.0,299.0,0.0,0.01,1.0,,-20.0,17.0,0.0,29.88,634.0,,,325.0,,,,,0.0,0.0,,,,,,,,,,,,,,,,,,,0.0,15.0,0.0,0.0,30.0,0.0,,0.0,0.0,,,38.7,0.0,0.0,-0.6,0.3,0.1,,,,,16.0,17.0,16.0,17.0,16.0,17.0,16.0,17.0,,,-2.0,1.7,,0.0,2.0,0.0,,,0.659,0.902,0.0,15.3,,,,,,0.0,2026-01-03 14:45:42-08:00
66.06,1.0,9.0,2026-01-03 22:46:42,37.08165,-121.59957,325.0,0.0,171.1,-12.6,,,,,22:46:41,11.5,0.5,229.8,0.0,299.0,0.0,0.01,1.0,,-18.0,17.0,0.0,29.88,634.0,,,325.0,,,,,0.0,0.0,,,,,,,,,,,,,,,,,,,0.0,15.0,0.0,0.0,30.0,0.0,,0.0,0.0,,,38.7,0.0,0.0,-0.6,0.3,0.1,,,,,16.0,17.0,16.0,17.0,16.0,17.0,16.0,17.0,,,-2.0,1.5,,0.0,2.0,0.0,,,0.659,0.902,0.0,15.3,,,,,,0.0,2026-01-03 14:45:42-08:00
67.06,1.0,9.0,2026-01-03 22:46:43,37.08165,-121.59956,311.0,0.0,171.1,-12.6,,,,,22:46:42,11.5,0.5,229.9,0.0,299.0,-0.0,0.01,1.0,,-18.0,17.0,0.0,29.88,634.0,,,325.0,,,,,0.0,0.0,,,,,,,,,,,,,,,,,,,0.0,15.0,0.0,0.0,30.0,0.0,,0.0,0.0,,,38.7,0.0,0.0,-0.6,0.3,0.1,,,,,16.0,17.0,16.0,17.0,16.0,17.0,16.0,17.0,,,-2.0,1.4,,0.0,2.0,0.0,,,0.659,0.903,0.0,15.3,,,,,,0.0,2026-01-03 14:45:42-08:00
68.06,1.0,9.0,2026-01-03 22:46:44,37.08165,-121.59956,312.0,0.0,171.1,-12.6,,,,,22:46:43,11.5,0.5,229.9,0.0,299.0,0.0,0.01,1.0,,-28.0,17.0,0.0,29.88,636.0,,,325.0,,,,,0.0,0.0,,,,,,,,,,,,,,,,,,,0.0,15.0,0.0,0.0,30.0,0.0,,0.0,0.0,,,38.7,0.0,0.0,-0.6,0.3,0.1,,,,,16.0,17.0,16.0,17.0,16.0,17.0,16.0,17.0,,,-2.0,1.3,,0.0,2.0,0.0,,,0.659,0.903,0.0,15.3,,,,,,0.0,2026-01-03 14:45:42-08:00
69.06,1.0,9.0,2026-01-03 22:46:45,37.08165,-121.59956,313.0,0.0,171.1,-12.6,,,,,22:46:44,11.5,0.6,229.9,0.0,299.0,-0.0,0.01,1.0,,-31.0,17.0,0.0,29.88,634.0,,,325.0,,,,,0.0,0.0,,,,,,,,,,,,,,,,,,,0.0,15.0,0.0,0.0,30.0,0.0,,0.0,0.0,,,38.7,0.0,0.0,-0.6,0.3,0.1,,,,,16.0,17.0,16.0,17.0,16.0,17.0,16.0,17.0,,,-2.0,1.2,,0.0,2.0,0.0,,,0.659,0.905,0.0,15.3,,,,,,0.0,2026-01-03 14:45:42-08:00
70.06,1.0,9.0,2026-01-03 22:46:46,37.08165,-121.59956,314.0,0.0,171.1,-12.6,,,,,22:46:45,11.5,0.6,229.8,0.0,299.0,-0.0,0.01,1.0,,-11.0,17.0,0.0,29.88,634.0,,,325.0,,,,,0.0,0.0,,,,,,,,,,,,,,,,,,,0.0,15.0,0.0,0.0,30.0,0.0,,0.0,0.0,,,38.7,0.0,0.0,-0.6,0.3,0.1,,,,,16.0,17.0,16.0,17.0,16.0,17.0,16.0,17.0,,,-2.0,1.2,,0.0,2.0,0.0,,,0.659,0.905,0.0,15.3,,,,,,0.0,2026-01-03 14:45:42-08:00
71.06,1.0,9.0,2026-01-03 22:46:47,37.08165,-121.59956,315.0,0.0,171.1,-12.6,,,,,22:46:46,11.5,0.6,229.9,0.0,299.0,-0.0,0.01,1.0,,-42.0,17.0,0.0,29.88,634.0,,,325.0,,,,,0.0,0.0,,,,,,,,,,,,,,,,,,,0.0,15.0,0.0,0.0,30.0,0.0,,0.0,0.0,,,38.7,0.0,0.0,-0.6,0.3,0.1,,,,,16.0,17.0,16.0,17.0,16.0,17.0,16.0,17.0,,,-2.0,1.1,,0.0,2.0,0.0,,,0.659,0.907,0.0,15.3,,,,,,0.0,2026-01-03 14:45:42-08:00
72.06,1.0,9.0,2026-01-03 22:46:48,37.08165,-121.59956,317.0,0.0,171.1,-12.6,,,,,22:46:47,11.5,0.5,229.9,0.0,299.0,-0.0,0.01,1.0,,-34.0,17.0,0.0,29.88,636.0,,,325.0,,,,,0.0,0.0,,,,,,,,,,,,,,,,,,,0.0,15.0,0.0,0.0,30.0,0.0,,0.0,0.0,,,38.7,0.0,0.0,-0.6,0.3,0.1,,,,,16.0,17.0,16.0,17.0,16.0,17.0,16.0,17.0,,,-2.0,1.1,,0.0,2.0,0.0,,,0.659,0.907,0.0,15.3,,,,,,0.0,2026-01-03 14:45:42-08:00
73.06,1.0,9.0,2026-01-03 22:46:49,37.08165,-121.59956,319.0,0.0,171.1,-12.6,,,,,22:46:48,11.5,0.5,229.8,0.0,299.0,-0.0,0.01,1.0,,-49.0,17.0,0.0,29.88,636.0,,,325.0,,,,,0.0,0.0,,,,,,,,,,,,,,,,,,,0.0,15.0,0.0,0.0,30.0,0.0,,0.0,0.0,,,38.7,0.0,0.0,-0.6,0.3,0.1,,,,,16.0,17.0,16.0,17.0,16.0,17.0,16.0,17.0,,,-2.0,1.1,,0.0,2.0,0.0,,,0.659,0.908,0.0,15.3,,,,,,0.0,2026-01-03 14:45:42-08:00
74.06,1.0,9.0,2026-01-03 22:46:50,37.08165,-121.59956,320.0,0.0,171.1,-12.6,,,,,22:46:49,11.5,0.5,229.9,0.0,299.0,0.0,0.01,1.0,,-27.0,17.0,0.0,29.88,634.0,,,325.0,,,,,0.0,0.0,,,,,,,,,,,,,,,,,,,0.0,15.0,0.0,0.0,30.0,0.0,,0.0,0.0,,,38.7,0.0,0.0,-0.6,0.3,0.1,,,,,16.0,17.0,16.0,17.0,16.0,17.0,16.0,17.0,,,-2.0,1.0,,0.0,2.0,0.0,,,0.659,0.909,0.0,15.3,,,,,,0.0,2026-01-03 14:45:42-08:00
75.06,1.0,9.0,2026-01-03 22:46:51,37.08165,-121.59957,321.0,0.1,171.1,-12.6,,,,,22:46:50,11.4,0.5,229.8,0.0,299.0,-0.0,0.01,1.0,,-21.0,17.0,0.0,29.88,634.0,,,325.0,,,,,0.0,0.0,,,,,,,,,,,,,,,,,,,0.0,15.0,0.0,0.0,30.0,0.0,,0.0,0.0,,,38.7,0.0,0.0,-0.6,0.3,0.1,,,,,16.0,17.0,16.0,17.0,16.0,17.0,16.0,17.0,,,-2.0,1.0,,0.0,2.0,0.0,,,0.658,0.912,0.0,15.3,,,,,,0.0,2026-01-03 14:45:42-08:00
76.06,1.0,9.0,2026-01-03 22:46:52,37.08165,-121.59957,323.0,0.0,171.1,-12.6,,,,,22:46:51,11.5,0.6,229.8,0.0,299.0,-0.0,0.01,1.0,,-22.0,17.0,0.0,29.88,634.0,,,325.0,,,,,0.0,0.0,,,,,,,,,,,,,,,,,,,0.0,15.0,0.0,0.0,30.0,0.0,,0.0,0.0,,,38.7,0.0,0.0,-0.6,0.3,0.1,,,,,16.0,17.0,16.0,17.0,16.0,17.0,16.0,17.0,,,-2.0,1.0,,0.0,2.0,0.0,,,0.659,0.913,0.0,15.3,,,,,,0.0,2026-01-03 14:45:42-08:00
77.06,1.0,9.0,2026-01-03 22:46:53,37.08165,-121.59957,324.0,0.0,171.1,-12.6,,,,,22:46:52,11.5,0.6,229.8,0.0,299.0,-0.0,0.01,1.0,,-38.0,17.0,0.0,29.88,636.0,,,325.0,,,,,0.0,0.0,,,,,,,,,,,,,,,,,,,0.0,15.0,0.0,0.0,30.0,0.0,,0.0,0.0,,,38.7,0.0,0.0,-0.6,0.3,0.1,,,,,16.0,17.0,16.0,17.0,16.0,17.0,16.0,17.0,,,-2.0,1.0,,0.0,2.0,0.0,,,0.659,0.914,0.0,15.3,,,,,,0.0,2026-01-03 14:45:42-08:00
78.06,1.0,9.0,2026-01-03 22:46:54,37.08165,-121.59957,325.0,0.0,171.1,-12.6,,,,,22:46:53,11.5,0.6,229.7,0.0,299.0,-0.0,0.01,1.0,,-65.0,17.0,0.0,29.88,636.0,,,325.0,,,,,0.0,0.0,,,,,,,,,,,,,,,,,,,0.0,15.0,0.0,0.0,30.0,0.0,,0.0,0.0,,,38.7,0.0,0.0,-0.6,0.3,0.1,,,,,16.0,17.0,16.0,17.0,16.0,17.0,16.0,17.0,,,-2.0,1.0,,0.0,2.0,0.0,,,0.659,0.916,0.0,15.3,,,,,,0.0,2026-01-03 14:45:42-08:00
79.06,1.0,9.0,2026-01-03 22:46:55,37.08165,-121.59958,326.0,0.0,171.1,-12.6,,,,,22:46:54,11.5,0.6,229.8,0.0,298.0,-0.0,0.01,1.0,,-41.0,17.0,0.0,29.88,636.0,,,325.0,,,,,0.0,0.0,,,,,,,,,,,,,,,,,,,0.0,15.0,0.0,0.0,30.0,0.0,,0.0,0.0,,,38.7,0.0,0.0,-0.6,0.3,0.1,,,,,16.0,17.0,16.0,17.0,16.0,17.0,16.0,17.0,,,-2.0,1.0,,0.0,2.0,0.0,,,0.659,0.918,0.0,15.3,,,,,,0.0,2026-01-03 14:45:42-08:00
80.06,1.0,9.0,2026-01-03 22:46:56,37.08165,-121.59958,327.0,0.0,171.1,-12.6,,,,,22:46:55,11.5,0.6,229.7,0.0,298.0,-0.0,0.01,1.0,,-50.0,17.0,0.0,29.88,633.0,,,325.0,,,,,0.0,0.0,,,,,,,,,,,,,,,,,,,0.0,15.0,0.0,0.0,30.0,0.0,,0.0,0.0,,,38.7,0.0,0.0,-0.6,0.3,0.1,,,,,16.0,17.0,16.0,17.0,16.0,17.0,16.0,17.0,,,-2.0,1.0,,0.0,2.0,0.0,,,0.658,0.919,0.0,15.3,,,,,,0.0,2026-01-03 14:45:42-08:00
81.06,1.0,9.0,2026-01-03 22:46:57,37.08165,-121.59958,327.0,0.0,171.1,-12.6,,,,,22:46:56,11.5,0.6,229.8,0.0,297.0,-0.0,0.01,1.0,,-38.0,17.0,0.0,29.88,633.0,,,325.0,,,,,0.0,0.0,,,,,,,,,,,,,,,,,,,0.0,15.0,0.0,0.0,30.0,0.0,,0.0,0.0,,,38.7,0.0,0.0,-0.6,0.3,0.1,,,,,16.0,17.0,16.0,17.0,16.0,17.0,16.0,17.0,,,-2.0,1.0,,0.0,2.0,0.0,,,0.658,0.919,0.0,15.3,,,,,,0.0,2026-01-03 14:45:42-08:00
82.06,1.0,9.0,2026-01-03 22:46:58,37.08165,-121.59962,360.0,0.0,171.1,-12.6,,,,,22:46:57,11.5,0.6,229.8,0.0,297.0,0.0,0.01,1.0,,-22.0,17.0,0.0,29.88,633.0,,,325.0,,,,,0.0,0.0,,,,,,,,,,,,,,,,,,,0.0,15.0,0.0,0.0,30.0,0.0,,0.0,0.0,,,38.7,0.0,0.0,-0.6,0.3,0.1,,,,,16.0,17.0,16.0,17.0,16.0,17.0,16.0,17.0,,,-2.0,1.0,,0.0,2.0,0.0,,,0.658,0.922,0.0,15.3,,,,,,0.0,2026-01-03 14:45:42-08:00
83.06,1.0,9.0,2026-01-03 22:46:59,37.08165,-121.59962,359.0,0.0,171.1,-12.6,,,,,22:46:58,11.5,0.6,229.8,0.0,297.0,0.0,0.01,1.0,,-12.0,17.0,0.0,29.88,632.0,,,325.0,,,,,0.0,0.0,,,,,,,,,,,,,,,,,,,0.0,15.0,0.0,0.0,30.0,0.0,,0.0,0.0,,,38.7,0.0,0.0,-0.6,0.3,0.1,,,,,16.0,17.0,16.0,17.0,16.0,17.0,16.0,17.0,,,-2.0,1.0,,0.0,2.0,0.0,,,0.659,0.925,0.0,15.3,,,,,,0.0,2026-01-03 14:45:42-08:00
84.06,1.0,9.0,2026-01-03 22:47:00,37.08165,-121.59962,357.0,0.0,171.1,-12.6,,,,,22:46:59,11.5,0.6,229.8,0.0,297.0,-0.0,0.01,1.0,,-8.0,17.0,0.0,29.88,632.0,,,325.0,,,,,0.0,0.0,,,,,,,,,,,,,,,,,,,0.0,15.0,0.0,0.0,30.0,0.0,,0.0,0.0,,,38.7,0.0,0.0,-0.6,0.3,0.1,,,,,16.0,17.0,16.0,17.0,16.0,17.0,16.0,17.0,,,-2.0,1.0,,0.0,2.0,0.0,,,0.659,0.928,0.0,15.3,,,,,,0.0,2026-01-03 14:45:42-08:00
85.06,1.0,9.0,2026-01-03 22:47:01,37.08165,-121.59962,355.0,0.0,171.1,-12.6,,,,,22:47:00,11.5,0.6,229.8,0.0,297.0,0.0,0.01,1.0,,5.0,17.0,0.0,29.88,632.0,,,325.0,,,,,0.0,0.0,,,,,,,,,,,,,,,,,,,0.0,15.0,0.0,0.0,30.0,0.0,,0.0,0.0,,,38.7,0.0,0.0,-0.6,0.3,0.1,,,,,16.0,17.0,16.0,17.0,16.0,17.0,16.0,17.0,,,-2.0,1.0,,0.0,2.0,0.0,,,0.659,0.928,0.0,15.3,,,,,,0.0,2026-01-03 14:45:42-08:00
86.06,1.0,9.0,2026-01-03 22:47:02,37.08165,-121.59962,353.0,0.0,171.1,-12.6,,,,,22:47:01,11.5,0.6,229.9,0.0,297.0,0.0,0.01,1.0,,25.0,17.0,0.0,29.88,632.0,,,325.0,,,,,0.0,0.0,,,,,,,,,,,,,,,,,,,0.0,15.0,0.0,0.0,30.0,0.0,,0.0,0.0,,,38.7,0.0,0.0,-0.6,0.3,0.1,,,,,16.0,17.0,16.0,17.0,16.0,17.0,16.0,17.0,,,-2.0,1.0,,0.0,2.0,0.0,,,0.658,0.931,0.0,15.3,,,,,,0.0,2026-01-03 14:45:42-08:00
87.06,1.0,9.0,2026-01-03 22:47:03,37.08165,-121.59961,351.0,0.0,171.1,-12.6,,,,,22:47:02,11.5,0.6,229.8,0.0,297.0,0.0,0.01,1.0,,33.0,17.0,0.0,29.88,632.0,,,325.0,,,,,0.0,0.0,,,,,,,,,,,,,,,,,,,0.0,15.0,0.0,0.0,30.0,0.0,,0.0,0.0,,,38.7,0.0,0.0,-0.6,0.3,0.1,,,,,16.0,17.0,16.0,17.0,16.0,17.0,16.0,17.0,,,-2.0,0.0,,0.0,2.0,0.0,,,0.659,0.933,0.0,15.3,,,,,,0.0,2026-01-03 14:45:42-08:00
88.06,1.0,9.0,2026-01-03 22:47:04,37.08165,-121.59961,349.0,0.0,171.1,-12.6,,,,,22:47:03,11.5,0.6,229.8,0.0,297.0,-0.0,0.01,1.0,,33.0,17.0,0.0,29.88,632.0,,,325.0,,,,,0.0,0.0,,,,,,,,,,,,,,,,,,,0.0,15.0,0.0,0.0,30.0,0.0,,0.0,0.0,,,38.7,0.0,0.0,-0.6,0.3,0.1,,,,,16.0,17.0,16.0,17.0,16.0,17.0,16.0,17.0,,,-2.0,0.0,,0.0,2.0,0.0,,,0.658,0.935,0.0,15.3,,,,,,0.0,2026-01-03 14:45:42-08:00
89.06,1.0,9.0,2026-01-03 22:47:05,37.08165,-121.59961,347.0,0.0,171.1,-12.6,,,,,22:47:04,11.5,0.6,229.8,0.0,297.0,0.0,0.01,1.0,,22.0,17.0,0.0,29.88,632.0,,,325.0,,,,,0.0,0.0,,,,,,,,,,,,,,,,,,,0.0,15.0,0.0,0.0,30.0,0.0,,0.0,0.0,,,38.7,0.0,0.0,-0.6,0.3,0.1,,,,,16.0,17.0,16.0,17.0,16.0,17.0,16.0,17.0,,,-2.0,0.0,,0.0,2.0,0.0,,,0.658,0.936,0.0,15.3,,,,,,0.0,2026-01-03 14:45:42-08:00
90.06,1.0,9.0,2026-01-03 22:47:06,37.08165,-121.5996,345.0,0.0,171.1,-12.6,,,,,22:47:05,11.5,0.6,229.8,0.0,297.0,-0.0,0.01,1.0,,55.0,17.0,0.0,29.88,632.0,,,325.0,,,,,0.0,0.0,,,,,,,,,,,,,,,,,,,0.0,15.0,0.0,0.0,30.0,0.0,,0.0,0.0,,,38.7,0.0,0.0,-0.6,0.3,0.1,,,,,16.0,17.0,16.0,17.0,16.0,17.0,16.0,17.0,,,-2.0,0.0,,0.0,2.0,0.0,,,0.658,0.936,0.0,15.3,,,,,,0.0,2026-01-03 14:45:42-08:00
91.06,1.0,9.0,2026-01-03 22:47:07,37.08165,-121.5996,343.0,0.1,171.1,-12.6,,,,,22:47:06,11.5,0.6,229.8,0.0,297.0,-0.0,0.01,1.0,,24.0,17.0,0.0,29.88,632.0,,,325.0,,,,,0.0,0.0,,,,,,,,,,,,,,,,,,,0.0,15.0,0.0,0.0,30.0,0.0,,0.0,0.0,,,38.7,0.0,0.0,-0.6,0.3,0.1,,,,,16.0,17.0,16.0,17.0,16.0,17.0,16.0,17.0,,,-2.0,0.0,,0.0,2.0,0.0,,,0.659,0.935,0.0,15.3,,,,,,0.0,2026-01-03 14:45:42-08:00
92.06,1.0,9.0,2026-01-03 22:47:08,37.08165,-121.59959,341.0,0.0,171.1,-12.6,,,,,22:47:07,11.5,0.6,229.8,0.0,297.0,-0.0,0.01,1.0,,8.0,17.0,0.0,29.88,632.0,,,325.0,,,,,0.0,0.0,,,,,,,,,,,,,,,,,,,0.0,15.0,0.0,0.0,30.0,0.0,,0.0,0.0,,,38.7,0.0,0.0,-0.6,0.3,0.1,,,,,16.0,17.0,16.0,17.0,16.0,17.0,16.0,17.0,,,-2.0,0.0,,0.0,2.0,0.0,,,0.659,0.936,0.0,15.3,,,,,,0.0,2026-01-03 14:45:42-08:00
93.06,1.0,9.0,2026-01-03 22:47:09,37.08165,-121.59959,340.0,0.0,171.1,-12.6,,,,,22:47:08,11.5,0.6,229.8,0.0,297.0,-0.0,0.01,1.0,,-1.0,17.0,0.0,29.88,632.0,,,325.0,,,,,0.0,0.0,,,,,,,,,,,,,,,,,,,0.0,15.0,0.0,0.0,30.0,0.0,,0.0,0.0,,,38.7,0.0,0.0,-0.6,0.3,0.1,,,,,16.0,17.0,16.0,17.0,16.0,17.0,16.0,17.0,,,-2.0,0.0,,0.0,2.0,0.0,,,0.658,0.938,0.0,15.3,,,,,,0.0,2026-01-03 14:45:42-08:00
94.06,1.0,9.0,2026-01-03 22:47:10,37.08165,-121.59959,338.0,0.0,171.1,-12.6,,,,,22:47:09,11.5,0.7,229.8,0.0,297.0,0.0,0.0,0.9,,52.0,17.0,0.0,29.88,632.0,,,325.0,,,,,0.0,0.0,,,,,,,,,,,,,,,,,,,0.0,15.0,0.0,0.0,30.0,0.0,,0.0,0.0,,,38.7,0.0,0.0,-0.6,0.3,0.1,,,,,16.0,17.0,16.0,17.0,16.0,17.0,16.0,17.0,,,-2.0,0.0,,0.0,2.0,0.0,,,0.658,0.936,0.0,15.3,,,,,,0.0,2026-01-03 14:45:42-08:00
95.06,1.0,9.0,2026-01-03 22:47:11,37.08165,-121.59959,336.0,0.0,171.1,-12.6,,,,,22:47:10,11.5,0.7,229.7,0.0,297.0,-0.0,0.01,0.9,,9.0,17.0,0.0,29.88,632.0,,,325.0,,,,,0.0,0.0,,,,,,,,,,,,,,,,,,,0.0,15.0,0.0,0.0,30.0,0.0,,0.0,0.0,,,38.7,0.0,0.0,-0.6,0.3,0.1,,,,,16.0,17.0,16.0,17.0,16.0,17.0,16.0,17.0,,,-2.0,0.0,,0.0,2.0,0.0,,,0.658,0.936,0.0,15.3,,,,,,0.0,2026-01-03 14:45:42-08:00
96.06,1.0,9.0,2026-01-03 22:47:12,37.08165,-121.59958,334.0,0.0,171.1,-12.6,,,,,22:47:11,11.5,0.6,229.7,0.0,297.0,-0.0,0.01,1.0,,11.0,17.0,0.0,29.88,632.0,,,325.0,,,,,0.0,0.0,,,,,,,,,,,,,,,,,,,0.0,15.0,0.0,0.0,30.0,0.0,,0.0,0.0,,,38.7,0.0,0.0,-0.6,0.3,0.1,,,,,16.0,17.0,16.0,17.0,16.0,17.0,16.0,17.0,,,-2.0,0.0,,0.0,2.0,0.0,,,0.658,0.938,0.0,15.3,,,,,,0.0,2026-01-03 14:45:42-08:00
97.06,1.0,9.0,2026-01-03 22:47:13,37.08165,-121.59958,326.0,0.0,171.1,-12.6,,,,,22:47:12,11.5,0.6,229.7,0.0,297.0,-0.0,0.01,1.0,,19.0,17.0,0.0,29.88,632.0,,,325.0,,,,,0.0,0.0,,,,,,,,,,,,,,,,,,,0.0,15.0,0.0,0.0,30.0,0.0,,0.0,0.0,,,38.7,0.0,0.0,-0.6,0.3,0.1,,,,,16.0,17.0,16.0,17.0,16.0,17.0,16.0,17.0,,,-2.0,0.0,,0.0,2.0,0.0,,,0.658,0.939,0.0,15.3,,,,,,0.0,2026-01-03 14:45:42-08:00
98.06,1.0,9.0,2026-01-03 22:47:14,37.08165,-121.59958,324.0,0.0,171.1,-12.6,,,,,22:47:13,11.5,0.6,229.7,0.0,297.0,-0.0,0.01,1.0,,-2.0,17.0,0.0,29.88,632.0,,,325.0,,,,,0.0,0.0,,,,,,,,,,,,,,,,,,,0.0,15.0,0.0,0.0,30.0,0.0,,0.0,0.0,,,38.7,0.0,0.0,-0.6,0.3,0.1,,,,,16.0,17.0,16.0,17.0,16.0,17.0,16.0,17.0,,,-2.0,0.0,,0.0,2.0,0.0,,,0.658,0.94,0.0,15.3,,,,,,0.0,2026-01-03 14:45:42-08:00
99.06,1.0,9.0,2026-01-03 22:47:15,37.08165,-121.59958,323.0,0.0,171.1,-12.6,,,,,22:47:14,11.5,0.6,229.7,0.0,297.0,-0.0,0.01,1.0,,12.0,17.0,0.0,29.88,634.0,,,325.0,,,,,0.0,0.0,,,,,,,,,,,,,,,,,,,0.0,15.0,0.0,0.0,30.0,0.0,,0.0,0.0,,,38.7,0.0,0.0,-0.6,0.3,0.1,,,,,16.0,17.0,16.0,17.0,16.0,17.0,16.0,17.0,,,-2.0,0.0,,0.0,2.0,0.0,,,0.658,0.942,0.0,15.3,,,,,,0.0,2026-01-03 14:45:42-08:00
100.06,1.0,9.0,2026-01-03 22:47:16,37.08165,-121.59957,321.0,0.0,171.1,-12.6,,,,,22:47:15,11.5,0.5,229.7,0.0,297.0,-0.0,0.01,1.0,,17.0,17.0,0.0,29.88,634.0,,,325.0,,,,,0.0,0.0,,,,,,,,,,,,,,,,,,,0.0,15.0,0.0,0.0,30.0,0.0,,0.0,0.0,,,38.7,0.0,0.0,-0.6,0.3,0.1,,,,,16.0,17.0,16.0,17.0,16.0,17.0,16.0,17.0,,,-2.0,0.0,,0.0,2.0,0.0,,,0.658,0.942,0.0,15.3,,,,,,0.0,2026-01-03 14:45:42-08:00
101.06,1.0,9.0,2026-01-03 22:47:17,37.08165,-121.59957,320.0,0.0,171.1,-12.6,,,,,22:47:16,11.4,0.5,229.7,0.0,297.0,-0.0,0.01,1.0,,24.0,17.0,0.0,29.88,634.0,,,325.0,,,,,0.0,0.0,,,,,,,,,,,,,,,,,,,0.0,15.0,0.0,0.0,30.0,0.0,,0.0,0.0,,,38.7,0.0,0.0,-0.6,0.3,0.1,,,,,16.0,17.0,16.0,17.0,16.0,17.0,16.0,17.0,,,-2.0,0.0,,0.0,2.0,0.0,,,0.658,0.945,0.0,15.3,,,,,,0.0,2026-01-03 14:45:42-08:00
102.06,1.0,9.0,2026-01-03 22:47:18,37.08165,-121.59957,318.0,0.0,171.1,-12.6,,,,,22:47:17,11.4,0.5,229.7,0.0,297.0,0.0,0.01,1.0,,22.0,17.0,0.0,29.88,634.0,,,325.0,,,,,0.0,0.0,,,,,,,,,,,,,,,,,,,0.0,15.0,0.0,0.0,30.0,0.0,,0.0,0.0,,,38.7,0.0,0.0,-0.6,0.3,0.1,,,,,16.0,17.0,16.0,17.0,16.0,17.0,16.0,17.0,,,-2.0,0.0,,0.0,2.0,0.0,,,0.658,0.947,0.0,15.3,,,,,,0.0,2026-01-03 14:45:42-08:00
103.06,1.0,9.0,2026-01-03 22:47:19,37.08165,-121.59957,317.0,0.0,171.1,-12.6,,,,,22:47:18,11.5,0.6,229.8,0.0,297.0,-0.0,0.01,1.0,,31.0,17.0,0.0,29.88,634.0,,,325.0,,,,,0.0,0.0,,,,,,,,,,,,,,,,,,,0.0,15.0,0.0,0.0,30.0,0.0,,0.0,0.0,,,38.7,0.0,0.0,-0.6,0.3,0.1,,,,,16.0,17.0,16.0,17.0,16.0,17.0,16.0,17.0,,,-2.0,0.0,,0.0,2.0,0.0,,,0.658,0.951,0.0,15.3,,,,,,0.0,2026-01-03 14:45:42-08:00
104.06,1.0,9.0,2026-01-03 22:47:20,37.08165,-121.59956,315.0,0.0,171.1,-12.6,,,,,22:47:19,11.5,0.5,229.8,0.0,297.0,0.0,0.01,1.0,,17.0,17.0,0.0,29.88,634.0,,,325.0,,,,,0.0,0.0,,,,,,,,,,,,,,,,,,,0.0,15.0,0.0,0.0,30.0,0.0,,0.0,0.0,,,38.7,0.0,0.0,-0.6,0.3,0.1,,,,,16.0,17.0,16.0,17.0,16.0,17.0,16.0,17.0,,,-2.0,0.0,,0.0,2.0,0.0,,,0.658,0.951,0.0,15.3,,,,,,0.0,2026-01-03 14:45:42-08:00
105.06,1.0,9.0,2026-01-03 22:47:21,37.08165,-121.59956,314.0,0.1,171.1,-12.6,,,,,22:47:20,11.5,0.5,229.8,0.0,298.0,-0.0,0.01,1.0,,36.0,17.0,0.0,29.88,635.0,,,325.0,,,,,0.0,0.0,,,,,,,,,,,,,,,,,,,0.0,15.0,0.0,0.0,30.0,0.0,,0.0,0.0,,,38.7,0.0,0.0,-0.6,0.3,0.1,,,,,16.0,17.0,16.0,17.0,16.0,17.0,16.0,17.0,,,-2.0,0.0,,0.0,2.0,0.0,,,0.658,0.948,0.0,15.3,,,,,,0.0,2026-01-03 14:45:42-08:00
106.06,1.0,9.0,2026-01-03 22:47:22,37.08165,-121.59956,312.0,0.0,171.1,-12.6,,,,,22:47:21,11.5,0.6,229.9,0.0,298.0,-0.0,0.01,1.0,,38.0,17.0,0.0,29.88,635.0,,,325.0,,,,,0.0,0.0,,,,,,,,,,,,,,,,,,,0.0,15.0,0.0,0.0,30.0,0.0,,0.0,0.0,,,38.7,0.0,0.0,-0.6,0.3,0.1,,,,,16.0,17.0,16.0,17.0,16.0,17.0,16.0,17.0,,,-2.0,0.0,,0.0,2.0,0.0,,,0.658,0.952,0.0,15.3,,,,,,0.0,2026-01-03 14:45:42-08:00
107.06,1.0,9.0,2026-01-03 22:47:23,37.08165,-121.59956,311.0,0.0,171.1,-12.6,,,,,22:47:22,11.5,0.6,229.9,0.0,299.0,0.0,0.01,1.0,,25.0,17.0,0.0,29.88,636.0,,,325.0,,,,,0.0,0.0,,,,,,,,,,,,,,,,,,,0.0,15.0,0.0,0.0,30.0,0.0,,0.0,0.1,,,38.7,0.0,0.0,-0.6,0.3,0.1,,,,,16.0,17.0,16.0,17.0,16.0,17.0,16.0,17.0,,,-2.0,0.0,,0.1,2.0,0.0,,,0.658,0.957,0.0,15.3,,,,,,0.0,2026-01-03 14:45:42-08:00
108.06,1.0,9.0,2026-01-03 22:47:24,37.08165,-121.59956,310.0,0.0,171.1,-12.6,,,,,22:47:23,11.6,0.6,229.9,0.0,299.0,0.0,0.01,1.0,,16.0,17.0,0.0,29.88,636.0,,,325.0,,,,,0.0,0.0,,,,,,,,,,,,,,,,,,,0.0,15.0,0.0,0.0,30.0,1.6,,1.6,11.7,,,38.7,0.0,0.0,-0.6,0.3,0.1,,,,,16.0,17.0,16.0,17.0,16.0,17.0,16.0,17.0,,,-2.0,0.0,,11.7,2.0,0.0,,,0.658,0.955,0.0,15.3,,,,,,0.0,2026-01-03 14:45:42-08:00
109.06,1.0,9.0,2026-01-03 22:47:25,37.08165,-121.59956,309.0,0.0,171.1,-12.6,,,,,22:47:24,11.5,0.6,229.9,0.0,299.0,0.0,0.01,1.0,,8.0,17.0,0.0,29.88,636.0,,,325.0,,,,,0.0,0.0,,,,,,,,,,,,,,,,,,,0.0,15.0,0.0,0.0,30.0,2.0,,2.0,29.4,,,38.7,0.0,0.0,-0.6,0.3,0.1,,,,,16.0,17.0,16.0,17.0,16.0,17.0,16.0,17.0,,,-2.0,0.0,,29.4,2.0,0.0,,,0.658,0.958,0.0,15.3,,,,,,0.0,2026-01-03 14:45:42-08:00
110.06,2.0,9.0,2026-01-03 22:47:26,37.08165,-121.59956,314.0,0.0,171.1,-12.6,,,,,22:47:25,11.5,0.5,229.9,0.0,299.0,0.0,0.01,1.0,,39.0,17.0,0.0,29.88,644.0,,,325.0,,,,,0.0,0.0,,,,,,,,,,,,,,,,,,,0.0,15.0,0.0,0.0,30.0,2.2,,2.2,31.2,,,38.7,0.0,0.0,-0.5,0.3,0.1,,,,,16.0,17.0,16.0,17.0,16.0,17.0,16.0,17.0,,,-2.0,0.0,,31.2,2.0,0.0,,,0.658,0.958,0.0,15.3,,,,,,0.0,2026-01-03 14:45:42-08:00
111.06,2.0,9.0,2026-01-03 22:47:27,37.08165,-121.59956,313.0,0.0,171.1,-12.6,,,,,22:47:26,11.5,0.6,229.9,0.0,300.0,0.0,0.01,1.0,,15.0,17.0,0.0,29.88,644.0,,,325.0,,,,,0.0,0.0,,,,,,,,,,,,,,,,,,,0.0,15.0,0.0,0.0,30.0,2.6,,2.6,32.1,,,38.7,0.0,0.0,-0.5,0.3,0.1,,,,,16.0,17.0,16.0,17.0,16.0,17.0,16.0,17.0,,,-2.0,0.0,,32.1,2.0,0.0,,,0.658,0.957,0.0,15.3,,,,,,0.0,2026-01-03 14:45:42-08:00
112.06,2.0,9.0,2026-01-03 22:47:28,37.08165,-121.59951,278.0,0.0,171.1,-12.6,,,,,22:47:27,11.5,0.6,229.9,0.0,300.0,0.0,0.01,1.0,,12.0,17.0,0.0,29.88,644.0,,,325.0,,,,,0.0,0.0,,,,,,,,,,,,,,,,,,,0.0,15.0,0.0,0.0,30.0,2.9,,2.9,25.1,,,38.7,0.0,0.0,-0.6,0.3,0.1,,,,,16.0,17.0,16.0,17.0,16.0,17.0,16.0,17.0,,,-2.0,0.0,,25.1,2.0,0.0,,,0.658,0.957,0.0,15.3,,,,,,0.0,2026-01-03 14:45:42-08:00
113.06,2.0,9.0,2026-01-03 22:47:29,37.08165,-121.59951,278.0,0.0,171.1,-12.6,,,,,22:47:28,11.5,0.6,229.8,0.0,300.0,0.0,0.01,1.0,,-2.0,17.0,0.0,29.88,646.0,,,325.0,,,,,0.0,0.0,,,,,,,,,,,,,,,,,,,0.0,15.0,0.0,0.0,30.0,3.2,,3.2,24.1,,,38.7,0.0,0.0,-0.6,0.3,0.1,,,,,16.0,17.0,16.0,17.0,16.0,17.0,16.0,17.0,,,-2.0,0.0,,24.1,2.0,0.0,,,0.658,0.961,0.0,15.3,,,,,,0.0,2026-01-03 14:45:42-08:00
114.06,2.0,9.0,2026-01-03 22:47:30,37.08165,-121.59951,278.0,0.0,171.1,-12.6,,,,,22:47:29,11.5,0.6,229.7,0.0,300.0,-0.0,0.01,1.0,,4.0,17.0,0.0,29.88,646.0,,,325.0,,,,,0.0,0.0,,,,,,,,,,,,,,,,,,,0.0,15.0,0.0,0.0,30.0,2.6,,2.6,24.1,,,38.7,0.0,0.0,-0.6,0.3,0.1,,,,,16.0,17.0,16.0,17.0,16.0,17.0,16.0,17.0,,,-2.0,0.0,,24.1,2.0,0.0,,,0.658,0.958,0.0,15.3,,,,,,0.0,2026-01-03 14:45:42-08:00
115.06,2.0,9.0,2026-01-03 22:47:31,37.08165,-121.59951,278.0,0.0,171.1,-12.6,,,,,22:47:30,11.5,0.6,229.8,0.0,300.0,-0.0,0.01,1.0,,14.0,17.0,0.0,29.88,646.0,,,325.0,,,,,0.0,0.0,,,,,,,,,,,,,,,,,,,0.0,15.0,0.0,0.0,30.0,2.6,,2.6,24.1,,,38.7,0.0,0.0,-0.6,0.3,0.1,,,,,16.0,17.0,16.0,17.0,16.0,17.0,16.0,17.0,,,-2.0,0.0,,24.1,2.0,0.0,,,0.658,0.972,0.0,15.3,,,,,,0.0,2026-01-03 14:45:42-08:00
116.06,2.0,9.0,2026-01-03 22:47:32,37.08165,-121.59951,278.0,0.0,171.1,-12.6,,,,,22:47:31,11.5,0.7,229.8,0.0,300.0,0.0,0.01,1.0,,4.0,17.0,0.0,29.88,647.0,,,325.0,,,,,0.0,0.0,,,,,,,,,,,,,,,,,,,0.0,15.0,0.0,0.0,30.0,2.6,,2.6,24.0,,,38.7,0.0,0.0,-0.7,0.3,0.1,,,,,16.0,17.0,16.0,17.0,16.0,17.0,16.0,17.0,,,-2.0,0.0,,24.0,2.0,0.0,,,0.658,0.973,0.0,15.3,,,,,,0.0,2026-01-03 14:45:42-08:00
117.06,2.0,9.0,2026-01-03 22:47:33,37.08165,-121.59951,278.0,0.0,171.1,-12.6,,,,,22:47:32,11.5,0.6,229.8,0.0,300.0,0.0,0.01,1.0,,13.0,17.0,0.0,29.88,647.0,,,325.0,,,,,0.0,0.0,,,,,,,,,,,,,,,,,,,0.0,15.0,0.0,0.0,30.0,0.0,,0.0,23.9,,,38.7,0.0,0.0,-0.7,0.3,0.1,,,,,16.0,17.0,16.0,17.0,16.0,17.0,16.0,17.0,,,-2.0,0.0,,23.9,2.0,0.0,,,0.658,0.978,0.0,15.3,,,,,,0.0,2026-01-03 14:45:42-08:00
118.06,2.0,9.0,2026-01-03 22:47:34,37.08165,-121.59951,277.0,0.1,171.1,-12.6,,,,,22:47:33,11.5,0.6,229.8,0.0,300.0,-0.0,0.01,1.0,,-2.0,17.0,0.0,29.88,647.0,,,325.0,,,,,0.0,0.0,,,,,,,,,,,,,,,,,,,0.0,15.0,0.0,0.0,30.0,0.0,,0.0,23.8,,,38.7,0.0,0.0,-0.7,0.3,0.1,,,,,16.0,17.0,16.0,17.0,16.0,17.0,16.0,17.0,,,-2.0,0.0,,23.8,2.0,0.0,,,0.658,0.984,0.0,15.3,,,,,,0.0,2026-01-03 14:45:42-08:00
119.06,2.0,9.0,2026-01-03 22:47:35,37.08165,-121.59951,277.0,0.0,171.1,-12.6,,,,,22:47:34,11.5,0.6,229.8,0.0,300.0,-0.0,0.01,1.0,,0.0,17.0,0.0,29.88,647.0,,,325.0,,,,,0.0,0.0,,,,,,,,,,,,,,,,,,,0.0,15.0,0.0,0.0,30.0,0.0,,0.0,23.7,,,38.7,0.0,0.0,-0.7,0.3,0.1,,,,,16.0,17.0,16.0,17.0,16.0,17.0,16.0,17.0,,,-2.0,0.0,,23.7,2.0,0.0,,,0.658,0.989,0.0,15.3,,,,,,0.0,2026-01-03 14:45:42-08:00
120.06,2.0,9.0,2026-01-03 22:47:36,37.08165,-121.5995,272.0,0.1,171.1,-12.6,,,,,22:47:35,11.5,0.6,229.8,0.0,300.0,-0.0,0.01,1.0,,12.0,17.0,0.0,29.88,647.0,,,325.0,,,,,0.0,0.0,,,,,,,,,,,,,,,,,,,0.0,15.0,0.0,0.0,30.0,0.0,,0.0,23.6,,,38.7,0.0,0.0,-0.7,0.3,0.1,,,,,16.0,17.0,16.0,17.0,16.0,17.0,16.0,17.0,,,-2.0,0.0,,23.6,2.0,0.0,,,0.658,0.988,0.0,15.3,,,,,,0.0,2026-01-03 14:45:42-08:00
121.06,2.0,9.0,2026-01-03 22:47:37,37.08165,-121.5995,272.0,0.1,171.1,-12.6,,,,,22:47:36,11.5,0.6,229.8,0.0,300.0,0.0,0.01,1.0,,-3.0,17.0,0.0,29.88,647.0,,,325.0,,,,,0.0,0.0,,,,,,,,,,,,,,,,,,,0.0,15.0,0.0,0.0,30.0,0.0,,0.0,23.5,,,38.7,0.0,0.0,-0.7,0.3,0.1,,,,,16.0,17.0,16.0,17.0,16.0,17.0,16.0,17.0,,,-2.0,0.0,,23.5,2.0,0.0,,,0.658,0.989,0.0,15.3,,,,,,0.0,2026-01-03 14:45:42-08:00
122.06,2.0,9.0,2026-01-03 22:47:38,37.08165,-121.5995,272.0,0.0,171.1,-12.6,,,,,22:47:37,11.5,0.6,229.8,0.0,300.0,0.0,0.01,1.0,,0.0,17.0,0.0,29.88,646.0,,,325.0,,,,,0.0,0.0,,,,,,,,,,,,,,,,,,,0.0,15.0,0.0,0.0,30.0,0.0,,0.0,23.4,,,38.7,0.0,0.0,-0.7,0.3,0.1,,,,,16.0,17.0,16.0,17.0,16.0,17.0,16.0,17.0,,,-2.0,0.0,,23.4,2.0,0.0,,,0.658,0.994,0.0,15.3,,,,,,0.0,2026-01-03 14:45:42-08:00
123.06,2.0,9.0,2026-01-03 22:47:39,37.08165,-121.5995,273.0,0.1,171.1,-12.6,,,,,22:47:38,11.5,0.7,229.8,0.0,300.0,0.0,0.01,1.0,,8.0,17.0,0.0,29.88,646.0,,,325.0,,,,,0.0,0.0,,,,,,,,,,,,,,,,,,,0.0,15.0,0.0,0.0,30.0,0.0,,0.0,23.3,,,38.7,0.0,0.0,-0.7,0.3,0.1,,,,,16.0,17.0,16.0,17.0,16.0,17.0,16.0,17.0,,,-2.0,0.0,,23.3,2.0,0.0,,,0.658,1.001,0.0,15.3,,,,,,0.0,2026-01-03 14:45:42-08:00
124.06,2.0,9.0,2026-01-03 22:47:40,37.08165,-121.5995,275.0,0.0,171.1,-12.6,,,,,22:47:39,11.5,0.6,229.8,0.0,300.0,0.0,0.01,1.0,,-13.0,17.0,0.0,29.88,646.0,,,325.0,,,,,0.0,0.0,,,,,,,,,,,,,,,,,,,0.0,15.0,0.0,0.0,30.0,0.0,,0.0,23.2,,,38.7,0.0,0.0,-0.7,0.3,0.1,,,,,16.0,17.0,16.0,17.0,16.0,17.0,16.0,17.0,,,-2.0,0.0,,23.2,2.0,0.0,,,0.658,0.997,0.0,15.3,,,,,,0.0,2026-01-03 14:45:42-08:00
125.06,2.0,9.0,2026-01-03 22:47:41,37.08165,-121.5995,276.0,0.0,171.1,-12.6,,,,,22:47:40,11.5,0.6,229.8,0.0,300.0,0.0,0.01,1.0,,8.0,17.0,0.0,29.88,647.0,,,325.0,,,,,0.0,0.0,,,,,,,,,,,,,,,,,,,0.0,15.0,0.0,0.0,30.0,0.0,,0.0,23.2,,,38.7,0.0,0.0,-0.7,0.3,0.1,,,,,16.0,17.0,16.0,17.0,16.0,17.0,16.0,17.0,,,-2.0,0.0,,23.2,2.0,0.0,,,0.658,1.005,0.0,15.3,,,,,,0.0,2026-01-03 14:45:42-08:00
126.06,2.0,9.0,2026-01-03 22:47:42,37.08164,-121.5995,277.0,0.0,171.1,-12.6,,,,,22:47:41,11.5,0.6,229.8,0.0,300.0,0.0,0.01,1.0,,-4.0,17.0,0.0,29.88,647.0,,,325.0,,,,,0.0,0.0,,,,,,,,,,,,,,,,,,,0.0,15.0,0.0,0.0,30.0,0.0,,0.0,23.1,,,38.7,0.0,0.0,-0.7,0.3,0.1,,,,,16.0,17.0,16.0,17.0,16.0,17.0,16.0,17.0,,,-2.0,0.0,,23.1,2.0,0.0,,,0.658,1.006,0.0,15.3,,,,,,0.0,2026-01-03 14:45:42-08:00
127.06,2.0,9.0,2026-01-03 22:47:43,37.08164,-121.5995,283.0,0.0,171.1,-12.6,,,,,22:47:42,11.5,0.6,229.8,0.0,300.0,0.0,0.01,1.0,,-3.0,17.0,0.0,29.88,647.0,,,325.0,,,,,0.0,0.0,,,,,,,,,,,,,,,,,,,0.0,15.0,0.0,0.0,30.0,0.0,,0.0,23.0,,,38.7,0.0,0.0,-0.7,0.3,0.1,,,,,16.0,17.0,16.0,17.0,16.0,17.0,16.0,17.0,,,-2.0,0.0,,23.0,2.0,0.0,,,0.658,1.01,0.0,15.3,,,,,,0.0,2026-01-03 14:45:42-08:00
128.06,2.0,9.0,2026-01-03 22:47:44,37.08164,-121.5995,284.0,0.1,171.1,-12.6,,,,,22:47:43,11.4,0.6,229.7,0.0,300.0,0.0,0.01,1.0,,-4.0,17.0,0.0,29.88,647.0,,,325.0,,,,,0.0,0.0,,,,,,,,,,,,,,,,,,,0.0,15.0,0.0,0.0,30.0,0.0,,0.0,22.9,,,38.7,0.0,0.0,-0.7,0.3,0.1,,,,,16.0,17.0,16.0,17.0,16.0,17.0,16.0,17.0,,,-2.0,0.0,,22.9,2.0,0.0,,,0.658,1.016,0.0,15.3,,,,,,0.0,2026-01-03 14:45:42-08:00
129.06,2.0,9.0,2026-01-03 22:47:45,37.08164,-121.59951,285.0,0.1,171.1,-12.6,,,,,22:47:44,11.5,0.6,229.8,0.0,300.0,0.0,0.01,1.0,,-10.0,17.0,0.0,29.88,647.0,,,325.0,,,,,0.0,0.0,,,,,,,,,,,,,,,,,,,0.0,13.0,141.0,141.0,30.0,0.0,,0.0,22.7,,,38.7,0.0,0.0,-0.7,0.3,0.1,,,,,12.0,12.0,12.0,12.0,13.0,12.0,13.0,12.0,,,-2.0,0.0,,22.7,2.0,0.0,,,0.657,1.021,0.1,13.4,,,,,,141.0,2026-01-03 14:45:42-08:00
130.06,2.0,9.0,2026-01-03 22:47:46,37.08164,-121.59951,284.0,0.1,171.1,-12.6,,,,,22:47:45,11.5,0.6,229.8,0.0,300.0,-0.0,0.01,1.0,,-34.0,17.0,0.0,29.88,647.0,,,325.0,,,,,0.0,0.0,,,,,,,,,,,,,,,,,,,1.0,15.0,1011.0,1011.0,28.2,0.0,,0.0,27.3,,,38.7,0.0,0.0,-0.6,0.3,0.1,,,,,15.0,40.0,15.0,28.0,15.0,28.0,15.0,22.0,,,-2.0,0.0,,27.3,2.0,0.004,,,0.67,1.024,1.0,14.7,,,,,,1011.0,2026-01-03 14:45:42-08:00
131.06,2.0,9.0,2026-01-03 22:47:47,37.08164,-121.59951,285.0,0.0,171.1,-12.6,,,,,22:47:46,11.4,0.8,229.7,0.0,300.0,-0.0,0.01,0.9,,-45.0,17.0,0.0,29.88,647.0,,,325.0,,,,,0.0,0.0,,,,,,,,,,,,,,,,,,,2.0,15.0,1200.0,1200.0,22.5,0.0,,0.0,26.5,,,38.7,0.0,0.0,-0.6,0.3,0.1,,,,,16.0,98.0,16.0,32.0,17.0,98.0,17.0,63.0,,,-2.0,0.0,,26.5,2.0,0.0,,,0.671,1.027,2.3,15.3,,,,,,1200.0,2026-01-03 14:45:42-08:00
132.06,2.0,9.0,2026-01-03 22:47:48,37.08164,-121.59951,287.0,0.1,171.1,-12.6,,,,,22:47:47,11.4,0.7,229.7,0.0,300.0,-0.0,0.01,0.9,,-31.0,17.0,0.0,29.88,647.0,,,325.0,,,,,0.0,0.0,,,,,,,,,,,,,,,,,,,4.0,15.0,1296.0,1296.0,21.4,1.3,,1.3,26.7,,,38.7,0.0,0.0,-0.6,0.3,0.1,,,,,17.0,146.0,16.0,51.0,17.0,155.0,17.0,106.0,,,-2.0,0.0,,26.7,2.0,0.0,,,0.66,1.024,4.5,15.3,,,4.0,L,,1296.0,2026-01-03 14:45:42-08:00
133.06,2.0,9.0,2026-01-03 22:47:49,37.08164,-121.59952,290.0,0.0,171.1,-12.6,,,,,22:47:48,11.4,0.7,229.7,0.0,300.0,-0.0,0.01,1.0,,-1.0,17.0,0.0,29.88,647.0,,,325.0,,,,,0.0,0.0,,,,,,,,,,,,,,,,,,,7.0,15.0,1378.0,1378.0,20.6,2.0,,2.0,26.7,,,38.7,0.0,0.0,-0.6,0.3,0.1,,,,,17.0,201.0,17.0,85.0,18.0,206.0,18.0,148.0,,,-2.0,0.0,,26.7,2.0,0.0,,,0.664,1.021,7.1,15.3,,,10.0,L,,1378.0,2026-01-03 14:45:42-08:00
134.06,2.0,9.0,2026-01-03 22:47:50,37.08164,-121.59952,294.0,0.0,171.1,-12.6,,,,,22:47:49,11.3,0.8,229.7,0.0,300.0,-0.0,0.01,1.0,,-25.0,17.0,0.0,29.88,647.0,,,325.0,,,,,0.0,0.0,,,,,,,,,,,,,,,,,,,10.0,15.0,1561.0,1561.0,19.0,2.3,,2.3,26.9,,,38.7,0.0,0.0,-0.6,0.3,0.1,,,,,18.0,269.0,17.0,121.0,18.0,252.0,18.0,182.0,,,-2.0,0.0,,26.9,2.0,0.0,,,0.668,1.021,10.3,15.3,,,15.0,P,,1561.0,2026-01-03 14:45:42-08:00
135.06,2.0,9.0,2026-01-03 22:47:51,37.08164,-121.59953,298.0,0.1,171.1,-12.6,,,,,22:47:50,11.3,0.8,229.7,0.0,300.0,0.0,0.01,0.9,,25.0,17.0,0.0,29.88,647.0,,,325.0,,,,,0.0,0.0,,,,,,,,,,,,,,,,,,,14.0,15.0,1541.0,1541.0,18.7,2.5,,2.5,27.1,,,38.7,0.0,0.0,-0.6,0.3,0.1,,,,,18.0,295.0,17.0,169.0,19.0,301.0,19.0,214.0,,,-2.0,0.0,,27.1,2.0,0.0,,,0.659,1.022,14.4,15.3,,,17.0,R,,1541.0,2026-01-03 14:45:42-08:00
136.06,2.0,9.0,2026-01-03 22:47:52,37.08163,-121.59953,304.0,0.0,171.1,-12.6,,,,,22:47:51,11.3,0.8,229.7,0.0,300.0,0.0,0.01,1.0,,-27.0,17.0,0.0,29.88,647.0,,,325.0,,,,,0.0,0.0,,,,,,,,,,,,,,,,,,,19.0,15.0,1511.0,1511.0,18.0,2.7,,2.7,27.2,,,38.7,0.0,0.0,-0.6,0.3,0.1,,,,,19.0,264.0,18.0,221.0,19.0,351.0,20.0,245.0,,,-2.0,0.0,,27.2,2.0,0.0,,,0.662,1.023,19.5,15.3,,,17.0,R,,1511.0,2026-01-03 14:45:42-08:00
137.06,2.0,9.0,2026-01-03 22:47:53,37.08163,-121.59954,307.0,0.0,171.1,-12.6,,,,,22:47:52,11.3,0.8,229.6,0.0,300.0,-0.0,0.01,0.9,,-36.0,17.0,0.0,29.88,647.0,,,325.0,,,,,0.0,0.0,,,,,,,,,,,,,,,,,,,26.0,15.0,1355.0,1355.0,16.9,2.9,,2.9,27.0,,,38.7,0.0,0.0,-0.6,0.3,0.1,,,,,19.0,239.0,18.0,263.0,20.0,386.0,21.0,268.0,,,-2.0,0.0,,27.0,2.0,0.0,,,0.656,1.028,25.9,15.3,,,,,,1355.0,2026-01-03 14:45:42-08:00
138.06,2.0,9.0,2026-01-03 22:47:54,37.08163,-121.59955,309.0,0.0,171.1,-12.6,,,,,22:47:53,11.4,0.8,229.6,0.0,300.0,-0.0,0.01,1.0,,-13.0,17.0,0.0,29.88,647.0,,,325.0,,,,,0.0,0.0,,,,,,,,,,,,,,,,,,,34.0,15.0,1267.0,1267.0,16.8,3.0,,3.0,27.0,,,38.7,0.0,0.0,-0.6,0.3,0.1,,,,,19.0,217.0,19.0,297.0,21.0,412.0,22.0,289.0,,,-2.0,0.0,,27.0,2.0,0.0,,,0.654,1.04,33.9,15.4,,,,,,1267.0,2026-01-03 14:45:42-08:00
139.06,2.0,9.0,2026-01-03 22:47:55,37.08163,-121.59955,312.0,0.0,171.1,-12.6,,,,,22:47:54,11.4,0.9,229.6,0.0,300.0,-0.0,0.01,1.0,,-30.0,17.0,0.0,29.88,647.0,,,325.0,,,,,0.0,0.0,,,,,,,,,,,,,,,,,,,43.0,15.0,1179.0,1179.0,16.4,3.1,,3.1,27.0,,,38.7,0.0,0.0,-0.6,0.3,0.1,,,,,19.0,199.0,20.0,324.0,21.0,428.0,23.0,307.0,,,-2.0,0.0,,27.0,2.0,0.0,,,0.659,1.035,43.1,15.4,,,,,,1179.0,2026-01-03 14:45:42-08:00
140.06,2.0,9.0,2026-01-03 22:47:56,37.08163,-121.59956,315.0,0.0,171.1,-12.6,,,,,22:47:55,11.4,0.8,229.6,0.0,300.0,-0.0,0.01,1.0,,-10.0,17.0,0.0,29.88,647.0,,,325.0,,,,,0.0,0.0,,,,,,,,,,,,,,,,,,,53.0,15.0,1179.0,1179.0,16.4,3.2,,3.2,27.1,,,38.7,0.0,0.0,-0.6,0.3,0.1,,,,,20.0,183.0,21.0,348.0,22.0,441.0,23.0,323.0,,,-2.0,0.0,,27.1,2.0,0.0,,,0.658,1.034,52.6,15.4,,,,,,1179.0,2026-01-03 14:45:42-08:00
141.06,2.0,9.0,2026-01-03 22:47:57,37.08164,-121.59956,317.0,0.0,171.1,-12.6,,,,,22:47:56,11.4,0.8,229.5,0.0,300.0,-0.0,0.01,0.9,,-27.0,17.0,0.0,29.88,647.0,,,325.0,,,,,0.0,0.0,,,,,,,,,,,,,,,,,,,61.0,15.0,1163.0,1163.0,16.3,3.3,,3.3,27.1,,,38.7,0.0,0.0,-0.6,0.3,0.1,,,,,20.0,169.0,21.0,369.0,23.0,453.0,24.0,338.0,,,-2.0,0.0,,27.1,2.0,0.0,,,0.657,1.033,61.0,15.4,,,,,,1163.0,2026-01-03 14:45:42-08:00
142.06,2.0,9.0,2026-01-03 22:47:58,37.08164,-121.59956,317.0,0.1,171.1,-12.6,,,,,22:47:57,11.4,0.7,229.6,0.0,300.0,-0.0,0.01,1.0,,-13.0,17.0,0.0,29.88,647.0,,,325.0,,,,,0.0,0.0,,,,,,,,,,,,,,,,,,,67.0,15.0,1159.0,1159.0,16.1,3.3,,3.3,27.1,,,38.7,0.0,0.0,-0.6,0.3,0.1,,,,,20.0,156.0,22.0,386.0,23.0,464.0,25.0,352.0,,,-2.0,0.0,,27.1,2.0,0.0,,,0.658,1.03,67.4,15.4,,,,,,1159.0,2026-01-03 14:45:42-08:00
143.06,2.0,9.0,2026-01-03 22:47:59,37.08164,-121.59956,319.0,0.0,171.1,-12.6,,,,,22:47:58,11.4,0.7,229.6,0.0,300.0,-0.0,0.01,1.0,,22.0,17.0,0.0,29.88,647.0,,,325.0,,,,,0.0,0.0,,,,,,,,,,,,,,,,,,,72.0,15.0,1145.0,1145.0,16.1,3.3,,3.3,27.2,,,38.7,0.0,0.0,-0.6,0.3,0.1,,,,,20.0,144.0,23.0,402.0,24.0,472.0,25.0,364.0,,,-2.0,0.0,,27.2,2.0,0.0,,,0.656,1.03,71.6,15.4,,,,,,1145.0,2026-01-03 14:45:42-08:00
144.06,2.0,9.0,2026-01-03 22:48:00,37.08164,-121.59956,322.0,0.1,171.1,-12.6,,,,,22:47:59,11.4,0.7,229.6,0.0,300.0,0.0,0.01,1.0,,5.0,17.0,0.0,29.88,647.0,,,325.0,,,,,0.0,0.0,,,,,,,,,,,,,,,,,,,74.0,15.0,1148.0,1148.0,16.3,3.3,,3.3,27.2,,,38.7,0.0,0.0,-0.6,0.3,0.1,,,,,20.0,134.0,23.0,416.0,24.0,481.0,26.0,377.0,,,-2.0,0.0,,27.2,2.0,0.0,,,0.656,1.031,73.9,15.4,,,,,,1148.0,2026-01-03 14:45:42-08:00
145.06,2.0,9.0,2026-01-03 22:48:01,37.08164,-121.59957,324.0,0.1,171.1,-12.6,,,,,22:48:00,11.4,0.8,229.7,0.0,300.0,0.0,0.01,1.0,,13.0,17.0,0.0,29.88,649.0,,,325.0,,,,,0.0,0.0,,,,,,,,,,,,,,,,,,,75.0,15.0,1125.0,1125.0,16.3,3.3,,3.3,27.1,,,38.7,0.0,0.0,-0.6,0.3,0.1,,,,,20.0,125.0,24.0,429.0,25.0,489.0,27.0,388.0,,,-2.0,0.0,,27.1,2.0,0.0,,,0.656,1.03,75.2,15.4,,,,,,1125.0,2026-01-03 14:45:42-08:00
146.06,2.0,9.0,2026-01-03 22:48:02,37.08164,-121.59963,372.0,0.1,171.1,-12.6,,,,,22:48:01,11.5,0.7,229.7,0.0,300.0,0.0,0.01,1.0,,3.0,17.0,0.0,29.88,649.0,,,325.0,,,,,0.0,0.0,,,,,,,,,,,,,,,,,,,76.0,15.0,1124.0,1124.0,16.3,3.2,,3.2,27.6,,,38.7,0.0,0.0,-0.6,0.3,0.1,,,,,20.0,117.0,25.0,440.0,26.0,497.0,27.0,397.0,,,-2.0,0.0,,27.6,2.0,0.0,,,0.654,1.034,75.9,15.4,,,,,,1124.0,2026-01-03 14:45:42-08:00
147.06,2.0,9.0,2026-01-03 22:48:03,37.08164,-121.59963,369.0,0.1,171.1,-12.6,,,,,22:48:02,11.4,0.8,229.7,0.0,300.0,0.0,0.01,1.0,,40.0,17.0,0.0,29.88,649.0,,,325.0,,,,,0.0,0.0,,,,,,,,,,,,,,,,,,,76.0,15.0,838.0,838.0,16.6,2.6,,2.6,28.1,,,38.7,0.0,0.0,-0.6,0.3,0.1,,,,,21.0,110.0,26.0,457.0,26.0,506.0,28.0,409.0,,,-2.0,0.0,,28.1,2.0,0.0,,,0.656,1.035,76.0,15.4,,,,,,838.0,2026-01-03 14:45:42-08:00
148.06,2.0,9.0,2026-01-03 22:48:04,37.08164,-121.59963,369.0,0.1,171.1,-12.6,,,,,22:48:03,11.4,0.7,229.7,0.0,300.0,0.0,0.0,0.9,,2.0,17.0,0.0,29.88,649.0,,,325.0,,,,,0.0,0.0,,,,,,,,,,,,,,,,,,,70.0,15.0,358.0,358.0,17.9,2.0,,2.0,27.8,,,38.7,0.0,0.0,-0.6,0.3,0.1,,,,,21.0,105.0,27.0,456.0,27.0,482.0,28.0,405.0,,,-2.0,0.0,,27.8,2.0,0.0,,,0.654,1.035,70.3,15.4,,,,,,358.0,2026-01-03 14:45:42-08:00
149.06,2.0,9.0,2026-01-03 22:48:05,37.08164,-121.59963,369.0,0.1,171.1,-12.6,,,,,22:48:04,11.5,0.7,229.7,0.0,300.0,0.0,0.01,1.0,,-35.0,17.0,0.0,29.88,649.0,,,325.0,,,,,0.0,0.0,,,,,,,,,,,,,,,,,,,60.0,15.0,139.0,139.0,27.6,1.6,,1.6,27.6,,,38.7,0.0,0.0,-0.6,0.3,0.1,,,,,21.0,103.0,27.0,447.0,27.0,465.0,29.0,388.0,,,-2.0,0.0,,27.6,2.0,0.0,,,0.654,1.034,60.1,15.4,,,0.0,L,,139.0,2026-01-03 14:45:42-08:00
150.06,2.0,9.0,2026-01-03 22:48:06,37.08164,-121.59963,369.0,0.0,171.1,-12.6,,,,,22:48:05,11.5,0.8,229.7,0.0,300.0,0.0,0.01,1.0,,-3.0,17.0,0.0,29.88,649.0,,,325.0,,,,,0.0,0.0,,,,,,,,,,,,,,,,,,,52.0,15.0,139.0,139.0,29.5,1.6,,1.6,27.3,,,38.7,0.0,0.0,-0.6,0.4,0.1,,,,,21.0,102.0,27.0,438.0,27.0,457.0,29.0,378.0,,,-2.0,0.0,,27.3,2.0,0.0,,,0.654,1.03,52.4,15.4,,,8.0,L,,139.0,2026-01-03 14:45:42-08:00
151.06,2.0,9.0,2026-01-03 22:48:07,37.08164,-121.59963,369.0,0.0,171.1,-12.6,,,,,22:48:06,11.4,0.8,229.6,0.0,300.0,0.0,0.01,1.0,,-14.0,17.0,0.0,29.88,657.0,,,325.0,,,,,0.0,0.0,,,,,,,,,,,,,,,,,,,47.0,15.0,0.0,0.0,29.8,1.6,,1.6,27.1,,,38.7,0.0,0.0,-0.6,0.4,0.1,,,,,21.0,102.0,27.0,429.0,27.0,449.0,29.0,371.0,,,-2.0,0.0,,27.1,2.0,0.0,,,0.654,1.034,46.7,15.4,,,12.0,L,,0.0,2026-01-03 14:45:42-08:00
152.06,2.0,9.0,2026-01-03 22:48:08,37.08164,-121.59963,368.0,0.0,171.1,-12.6,,,,,22:48:07,11.4,0.8,229.6,0.0,300.0,-0.0,0.01,1.0,,-18.0,17.0,0.0,29.88,657.0,,,325.0,,,,,0.0,0.0,,,,,,,,,,,,,,,,,,,42.0,15.0,0.0,0.0,29.8,0.0,,0.0,26.9,,,38.7,0.0,0.0,-0.6,0.4,0.1,,,,,21.0,100.0,27.0,421.0,28.0,441.0,29.0,363.0,,,-2.0,0.0,,26.9,2.0,0.0,,,0.654,1.036,42.3,15.4,,,,,,0.0,2026-01-03 14:45:42-08:00
153.06,2.0,9.0,2026-01-03 22:48:09,37.08164,-121.59963,367.0,0.1,171.1,-12.6,,,,,22:48:08,11.4,0.7,229.6,0.0,300.0,0.0,0.01,1.0,,12.0,17.0,0.0,29.88,657.0,,,325.0,,,,,0.0,0.0,,,,,,,,,,,,,,,,,,,39.0,15.0,0.0,0.0,30.0,0.0,,0.0,26.7,,,38.7,0.0,0.0,-0.6,0.4,0.1,,,,,21.0,99.0,27.0,412.0,28.0,432.0,29.0,356.0,,,-2.0,0.0,,26.7,2.0,0.0,,,0.654,1.035,38.7,15.4,,,,,,0.0,2026-01-03 14:45:42-08:00
154.06,2.0,9.0,2026-01-03 22:48:10,37.08164,-121.59963,364.0,0.0,171.1,-12.6,,,,,22:48:09,11.5,0.7,229.6,0.0,300.0,-0.0,0.01,1.0,,16.0,17.0,0.0,29.88,647.0,,,325.0,,,,,0.0,0.0,,,,,,,,,,,,,,,,,,,36.0,15.0,0.0,0.0,30.0,0.0,,0.0,26.5,,,38.7,0.0,0.0,-0.6,0.4,0.1,,,,,21.0,98.0,27.0,404.0,28.0,424.0,29.0,348.0,,,-2.0,0.0,,26.5,2.0,0.0,,,0.654,1.04,35.8,15.4,,,,,,0.0,2026-01-03 14:45:42-08:00
155.06,2.0,9.0,2026-01-03 22:48:11,37.08164,-121.59962,363.0,0.0,171.1,-12.6,,,,,22:48:10,11.5,0.7,229.6,0.0,300.0,-0.0,0.01,1.0,,-3.0,17.0,0.0,29.88,649.0,,,325.0,,,,,0.0,0.0,,,,,,,,,,,,,,,,,,,33.0,15.0,0.0,0.0,30.0,0.0,,0.0,26.4,,,38.7,0.0,0.0,-0.6,0.4,0.1,,,,,21.0,98.0,27.0,395.0,28.0,416.0,29.0,341.0,,,-2.0,0.0,,26.4,2.0,0.0,,,0.654,1.041,33.3,15.4,,,,,,0.0,2026-01-03 14:45:42-08:00
