Session Time,GPS Fix Quality,Number of Satellites,GPS Date & Time,Latitude (deg),Longitude (deg),GPS Altitude (feet),Ground Speed (knots),Ground Track (deg),Mag Var (deg),Cross Track Error (NM),Destination Waypoint ID,Range to Destination (NM),Bearing to Destination (deg),System Time,Pitch (deg),Roll (deg),Magnetic Heading (deg),Indicated Airspeed (knots),Pressure Altitude (ft),Turn Rate (deg/s),Lateral Accel (g),Vertical Accel(g),Angle of Attack (%),Vertical Speed (ft/min),OAT (deg C),True Airspeed (knots),Barometer Setting (inHg),Density Altitude (ft),Wind Direction (deg),Wind Speed (knots),Heading Bug (deg),Altitude Bug (ft),Airspeed Bug (knots),Vertical Speed Bug (ft/min),Course (deg),CDI Source Type,CDI Source Port,CDI Scale (NM),CDI Deflection (%),Glideslope (%),AP Engaged,AP Roll Mode,AP Roll Force,AP Roll Position (steps),AP Roll Slip (bool),AP Pitch Force,AP Pitch Position (steps),AP Pitch Slip (bool),AP Yaw Force,AP Yaw Position,AP Yaw Slip (bool),Transponder Status,Transponder Reply (bool),Transponder Identing (bool),Transponder Code (octal),Oil Pressure (PSI),Oil Temp (deg C),RPM L,RPM R,Manifold Pressure (inHg),Fuel Flow 1 (gal/hr),Fuel Flow 2 (gal/hr),Total Fuel Flow (gal/hr),Fuel Pressure (PSI),Fuel Level L (gal),Fuel Level R (gal),Fuel Remaining (gal),Volts 1,Volts 2,Amps,Hobbs Time,Tach Time,Thermocouple 1 (deg C),Thermocouple 2 (deg C),Thermocouple 3 (deg C),Thermocouple 4 (deg C),CHT 4 (deg C),EGT 4 (deg C),CHT 3 (deg C),EGT 3 (deg C),CHT 2 (deg C),EGT 2 (deg C),CHT 1 (deg C),EGT 1 (deg C),Thermocouple 13 (deg C),Thermocouple 14 (deg C),ELEV POSITION (%),CO PPM PRESSURE (PSI),GP Input 3,FUEL PRESSURE (PSI),AILERN POSITION (%),CANOPY CONTACT (V),GP Input 7,GP Input 8,LEFT LEVEL (Sensor V),RIGHT LEVEL (Sensor V),OIL PRESSURE (PSI),OIL TEMPERATURE (deg C),GP Input 13,Contacts,Percent Power,EGT Leaning State,Unnamed: 103,RPM,AVG_CHT,CHT_Delta_T (deg C),OIL_Delta_T (deg C),OAT (deg F),Oil Temp (deg F),Thermocouple 1 (deg F),Thermocouple 2 (deg F),Thermocouple 3 (deg F),Thermocouple 4 (deg F),CHT 4 (deg F),EGT 4 (deg F),CHT 3 (deg F),EGT 3 (deg F),CHT 2 (deg F),EGT 2 (deg F),CHT 1 (deg F),EGT 1 (deg F),Thermocouple 13 (deg F),Thermocouple 14 (deg F),OIL TEMPERATURE (deg F),CHT_Delta_T (deg F),OIL_Delta_T (deg F),Fuel Flow Integral,Distance Traveled,MPG,Max CHT,Flight ID
7.06,0.0,0.0,2026-02-22 23:00:12,37.08152,-121.59959,0.0,0.1,124.9,-17.1,0.0,,0.0,0.0,0.0,10.8,-0.8,21.2,0.0,7.0,0.0,-0.01,1.0,0.0,-58.0,21.0,0.0,30.06,712.0,0.0,0.0,133.0,0.0,0.0,0.0,0.0,0.0,0.0,0.0,0.0,0.0,0.0,0.0,0.0,0.0,0.0,0.0,0.0,0.0,0.0,0.0,0.0,0.0,0.0,0.0,0.0,0.0,15.0,0.0,0.0,30.3,0.0,0.0,0.0,0.2,0.0,0.0,30.0,0.0,0.0,-0.7,2.2,1.2,0.0,0.0,0.0,0.0,15.0,17.0,15.0,17.0,16.0,17.0,16.0,17.0,0.0,0.0,15.0,254.4,0.0,0.2,4.0,0.0,0.0,0.0,0.662,0.8,0.0,14.8,0.0,0.0,0.0,,0.0,0.0,15.5,-5.5,-6.199999999999999,69.8,59.0,32.0,32.0,32.0,32.0,59.0,62.6,59.0,62.6,60.8,62.6,60.8,62.6,32.0,32.0,58.64,22.1,20.84,0.0,0.0,0.0,433.4,2026-02-22 15:00:12-08:00
8.06,1.0,7.0,2026-02-22 23:00:13,37.08166,-121.5996,327.0,0.0,124.9,-12.6,0.0,,0.0,0.0,0.0,10.8,-0.7,21.2,0.0,6.0,0.1,-0.01,1.0,0.0,-58.0,21.0,0.0,30.06,712.0,0.0,0.0,133.0,0.0,0.0,0.0,0.0,0.0,0.0,0.0,0.0,0.0,0.0,0.0,0.0,0.0,0.0,0.0,0.0,0.0,0.0,0.0,0.0,0.0,0.0,0.0,0.0,0.0,15.0,0.0,0.0,30.3,0.0,0.0,0.0,0.2,0.0,0.0,30.0,0.0,0.0,-0.7,2.2,1.2,0.0,0.0,0.0,0.0,15.0,17.0,15.0,17.0,15.0,17.0,16.0,17.0,0.0,0.0,15.0,254.4,0.0,0.2,4.0,0.0,0.0,0.0,0.662,0.8,0.0,14.8,0.0,0.0,0.0,,0.0,0.0,15.25,-5.75,-6.199999999999999,69.8,59.0,32.0,32.0,32.0,32.0,59.0,62.6,59.0,62.6,59.0,62.6,60.8,62.6,32.0,32.0,58.64,21.65,20.84,0.0,0.0843333333333334,0.0,433.4,2026-02-22 15:00:12-08:00
9.06,1.0,7.0,2026-02-22 23:00:14,37.08165,-121.5996,292.0,0.0,124.9,-12.6,0.0,,0.0,0.0,0.0,10.8,-0.8,21.2,0.0,6.0,0.1,-0.01,1.0,0.0,-50.0,21.0,0.0,30.06,711.0,0.0,0.0,133.0,0.0,0.0,0.0,0.0,0.0,0.0,0.0,0.0,0.0,0.0,0.0,0.0,0.0,0.0,0.0,0.0,0.0,0.0,0.0,0.0,0.0,0.0,0.0,0.0,0.0,15.0,0.0,0.0,30.3,0.0,0.0,0.0,0.2,0.0,0.0,30.0,0.0,0.0,-0.7,2.2,1.2,0.0,0.0,0.0,0.0,15.0,17.0,15.0,17.0,15.0,17.0,16.0,17.0,0.0,0.0,15.0,254.4,0.0,0.2,4.0,0.0,0.0,0.0,0.662,0.8,0.0,14.8,0.0,0.0,0.0,,0.0,0.0,15.25,-5.75,-6.199999999999999,69.8,59.0,32.0,32.0,32.0,32.0,59.0,62.6,59.0,62.6,59.0,62.6,60.8,62.6,32.0,32.0,58.64,21.65,20.84,0.0,0.0843333333333334,0.0,433.4,2026-02-22 15:00:12-08:00
10.06,1.0,7.0,2026-02-22 23:00:15,37.08165,-121.5996,294.0,0.0,124.9,-12.6,0.0,,0.0,0.0,0.0,10.8,-0.8,21.2,0.0,2.0,0.1,-0.01,1.0,0.0,-104.0,21.0,0.0,30.06,711.0,0.0,0.0,133.0,0.0,0.0,0.0,0.0,0.0,0.0,0.0,0.0,0.0,0.0,0.0,0.0,0.0,0.0,0.0,0.0,0.0,0.0,0.0,0.0,0.0,0.0,0.0,0.0,0.0,15.0,0.0,0.0,30.3,0.0,0.0,0.0,0.2,0.0,0.0,30.0,0.0,0.0,-0.7,2.2,1.2,0.0,0.0,0.0,0.0,15.0,17.0,15.0,17.0,15.0,17.0,16.0,17.0,0.0,0.0,15.0,254.4,0.0,0.2,4.0,0.0,0.0,0.0,0.662,0.8,0.0,14.8,0.0,0.0,0.0,,0.0,0.0,15.25,-5.75,-6.199999999999999,69.8,59.0,32.0,32.0,32.0,32.0,59.0,62.6,59.0,62.6,59.0,62.6,60.8,62.6,32.0,32.0,58.64,21.65,20.84,0.0,0.0843333333333334,0.0,433.4,2026-02-22 15:00:12-08:00
11.06,1.0,7.0,2026-02-22 23:00:16,37.08164,-121.59959,297.0,0.0,124.9,-12.6,0.0,,0.0,0.0,0.0,10.8,-0.8,21.2,0.0,2.0,0.1,-0.01,1.0,0.0,-61.0,21.0,0.0,30.06,711.0,0.0,0.0,133.0,0.0,0.0,0.0,0.0,0.0,0.0,0.0,0.0,0.0,0.0,0.0,0.0,0.0,0.0,0.0,0.0,0.0,0.0,0.0,0.0,0.0,0.0,0.0,0.0,0.0,15.0,0.0,0.0,30.3,0.0,0.0,0.0,0.2,0.0,0.0,30.0,0.0,0.0,-0.7,2.2,1.2,0.0,0.0,0.0,0.0,15.0,17.0,15.0,17.0,15.0,17.0,16.0,17.0,0.0,0.0,15.0,254.3,0.0,0.2,4.0,0.0,0.0,0.0,0.662,0.8,0.0,14.8,0.0,0.0,0.0,,0.0,0.0,15.25,-5.75,-6.199999999999999,69.8,59.0,32.0,32.0,32.0,32.0,59.0,62.6,59.0,62.6,59.0,62.6,60.8,62.6,32.0,32.0,58.64,21.65,20.84,0.0,0.0843333333333334,0.0,433.4,2026-02-22 15:00:12-08:00
12.06,1.0,7.0,2026-02-22 23:00:17,37.08164,-121.59959,300.0,0.0,124.9,-12.6,0.0,,0.0,0.0,0.0,10.8,-0.8,21.2,0.0,2.0,0.1,-0.01,1.0,0.0,-55.0,21.0,0.0,30.06,716.0,0.0,0.0,133.0,0.0,0.0,0.0,0.0,0.0,0.0,0.0,0.0,0.0,0.0,0.0,0.0,0.0,0.0,0.0,0.0,0.0,0.0,0.0,0.0,0.0,0.0,0.0,0.0,0.0,15.0,0.0,0.0,30.3,0.0,0.0,0.0,0.2,0.0,0.0,30.0,0.0,0.0,-0.7,2.2,1.2,0.0,0.0,0.0,0.0,15.0,17.0,15.0,17.0,15.0,17.0,16.0,17.0,0.0,0.0,15.0,254.3,0.0,0.2,4.0,0.0,0.0,0.0,0.662,0.8,0.0,14.8,0.0,0.0,0.0,,0.0,0.0,15.25,-5.75,-6.199999999999999,69.8,59.0,32.0,32.0,32.0,32.0,59.0,62.6,59.0,62.6,59.0,62.6,60.8,62.6,32.0,32.0,58.64,21.65,20.84,0.0,0.0843333333333334,0.0,433.4,2026-02-22 15:00:12-08:00
13.06,1.0,8.0,2026-02-22 23:00:18,37.08163,-121.59959,304.0,0.0,124.9,-12.6,0.0,,0.0,0.0,0.0,10.8,-0.7,21.3,0.0,2.0,0.1,-0.01,1.0,0.0,-44.0,21.0,0.0,30.06,716.0,0.0,0.0,133.0,0.0,0.0,0.0,0.0,0.0,0.0,0.0,0.0,0.0,0.0,0.0,0.0,0.0,0.0,0.0,0.0,0.0,0.0,0.0,0.0,0.0,0.0,0.0,0.0,0.0,15.0,0.0,0.0,30.3,0.0,0.0,0.0,0.2,0.0,0.0,30.0,0.0,0.0,-0.7,2.2,1.2,0.0,0.0,0.0,0.0,15.0,17.0,15.0,17.0,15.0,17.0,16.0,17.0,0.0,0.0,15.0,254.3,0.0,0.2,4.0,0.0,0.0,0.0,0.66,0.8,0.0,14.8,0.0,0.0,0.0,,0.0,0.0,15.25,-5.75,-6.199999999999999,69.8,59.0,32.0,32.0,32.0,32.0,59.0,62.6,59.0,62.6,59.0,62.6,60.8,62.6,32.0,32.0,58.64,21.65,20.84,0.0,0.0843333333333334,0.0,433.4,2026-02-22 15:00:12-08:00
14.06,1.0,8.0,2026-02-22 23:00:19,37.08163,-121.59959,306.0,0.0,124.9,-12.6,0.0,,0.0,0.0,0.0,10.8,-0.8,21.2,0.0,2.0,0.0,-0.01,1.0,0.0,-22.0,21.0,0.0,30.06,716.0,0.0,0.0,133.0,0.0,0.0,0.0,0.0,0.0,0.0,0.0,0.0,0.0,0.0,0.0,0.0,0.0,0.0,0.0,0.0,0.0,0.0,0.0,0.0,0.0,0.0,0.0,0.0,0.0,15.0,0.0,0.0,30.3,0.0,0.0,0.0,0.2,0.0,0.0,30.0,0.0,0.0,-0.7,2.2,1.2,0.0,0.0,0.0,0.0,15.0,17.0,15.0,17.0,15.0,17.0,16.0,17.0,0.0,0.0,15.0,254.3,0.0,0.2,4.0,0.0,0.0,0.0,0.662,0.8,0.0,14.8,0.0,0.0,0.0,,0.0,0.0,15.25,-5.75,-6.199999999999999,69.8,59.0,32.0,32.0,32.0,32.0,59.0,62.6,59.0,62.6,59.0,62.6,60.8,62.6,32.0,32.0,58.64,21.65,20.84,0.0,0.0843333333333334,0.0,433.4,2026-02-22 15:00:12-08:00
15.06,1.0,8.0,2026-02-22 23:00:20,37.08163,-121.59959,308.0,0.0,124.9,-12.6,0.0,,0.0,0.0,0.0,10.9,-0.8,21.3,0.0,1.0,0.1,-0.01,1.0,0.0,-35.0,21.0,0.0,30.06,715.0,0.0,0.0,133.0,0.0,0.0,0.0,0.0,0.0,0.0,0.0,0.0,0.0,0.0,0.0,0.0,0.0,0.0,0.0,0.0,0.0,0.0,0.0,0.0,0.0,0.0,0.0,0.0,0.0,15.0,0.0,0.0,30.3,0.0,0.0,0.0,0.2,0.0,0.0,30.0,0.0,0.0,-0.7,2.2,1.2,0.0,0.0,0.0,0.0,15.0,17.0,15.0,17.0,15.0,17.0,16.0,17.0,0.0,0.0,15.0,254.3,0.0,0.2,4.0,0.0,0.0,0.0,0.662,0.8,0.0,14.8,0.0,0.0,0.0,,0.0,0.0,15.25,-5.75,-6.199999999999999,69.8,59.0,32.0,32.0,32.0,32.0,59.0,62.6,59.0,62.6,59.0,62.6,60.8,62.6,32.0,32.0,58.64,21.65,20.84,0.0,0.0843333333333334,0.0,433.4,2026-02-22 15:00:12-08:00
16.06,1.0,8.0,2026-02-22 23:00:21,37.08162,-121.59959,312.0,0.0,124.9,-12.6,0.0,,0.0,0.0,0.0,10.9,-0.8,21.3,0.0,1.0,0.1,-0.01,1.0,0.0,-28.0,21.0,0.0,30.06,716.0,0.0,0.0,133.0,0.0,0.0,0.0,0.0,0.0,0.0,0.0,0.0,0.0,0.0,0.0,0.0,0.0,0.0,0.0,0.0,0.0,0.0,0.0,0.0,0.0,0.0,0.0,0.0,0.0,15.0,0.0,0.0,30.3,0.0,0.0,0.0,0.2,0.0,0.0,30.0,0.0,0.0,-0.7,2.2,1.2,0.0,0.0,0.0,0.0,16.0,17.0,16.0,17.0,16.0,17.0,16.0,17.0,0.0,0.0,15.0,254.3,0.0,0.2,4.0,0.0,0.0,0.0,0.66,0.8,0.0,14.8,0.0,0.0,0.0,,0.0,0.0,16.0,-5.0,-6.199999999999999,69.8,59.0,32.0,32.0,32.0,32.0,60.8,62.6,60.8,62.6,60.8,62.6,60.8,62.6,32.0,32.0,58.64,23.0,20.84,0.0,0.0843333333333334,0.0,433.4,2026-02-22 15:00:12-08:00
17.06,1.0,8.0,2026-02-22 23:00:22,37.08162,-121.59959,315.0,0.0,124.9,-12.6,0.0,,0.0,0.0,0.0,10.9,-0.8,21.3,0.0,1.0,0.1,-0.01,1.0,0.0,-16.0,21.0,0.0,30.06,716.0,0.0,0.0,133.0,0.0,0.0,0.0,0.0,0.0,0.0,0.0,0.0,0.0,0.0,0.0,0.0,0.0,0.0,0.0,0.0,0.0,0.0,0.0,0.0,0.0,0.0,0.0,0.0,0.0,15.0,0.0,0.0,30.3,0.0,0.0,0.0,0.2,0.0,0.0,30.0,0.0,0.0,-0.7,2.2,1.2,0.0,0.0,0.0,0.0,15.0,17.0,15.0,17.0,15.0,17.0,16.0,17.0,0.0,0.0,15.0,254.3,0.0,0.2,4.0,0.0,0.0,0.0,0.662,0.8,0.0,14.8,0.0,0.0,0.0,,0.0,0.0,15.25,-5.75,-6.199999999999999,69.8,59.0,32.0,32.0,32.0,32.0,59.0,62.6,59.0,62.6,59.0,62.6,60.8,62.6,32.0,32.0,58.64,21.65,20.84,0.0,0.0843333333333334,0.0,433.4,2026-02-22 15:00:12-08:00
18.06,1.0,8.0,2026-02-22 23:00:23,37.08162,-121.5996,317.0,0.0,124.9,-12.6,0.0,,0.0,0.0,0.0,10.9,-0.8,21.3,0.0,-1.0,0.1,-0.01,1.0,0.0,-62.0,21.0,0.0,30.06,716.0,0.0,0.0,133.0,0.0,0.0,0.0,0.0,0.0,0.0,0.0,0.0,0.0,0.0,0.0,0.0,0.0,0.0,0.0,0.0,0.0,0.0,0.0,0.0,0.0,0.0,0.0,0.0,0.0,15.0,0.0,0.0,30.3,0.0,0.0,0.0,0.2,0.0,0.0,30.0,0.0,0.0,-0.7,2.2,1.2,0.0,0.0,0.0,0.0,16.0,17.0,16.0,17.0,16.0,17.0,16.0,17.0,0.0,0.0,15.0,254.3,0.0,0.2,4.0,0.0,0.0,0.0,0.662,0.8,0.0,14.8,0.0,0.0,0.0,,0.0,0.0,16.0,-5.0,-6.199999999999999,69.8,59.0,32.0,32.0,32.0,32.0,60.8,62.6,60.8,62.6,60.8,62.6,60.8,62.6,32.0,32.0,58.64,23.0,20.84,0.0,0.0843333333333334,0.0,433.4,2026-02-22 15:00:12-08:00
19.06,1.0,8.0,2026-02-22 23:00:24,37.08162,-121.5996,321.0,0.0,124.9,-12.6,0.0,,0.0,0.0,0.0,10.9,-0.7,21.3,0.0,-2.0,0.1,-0.01,1.0,0.0,-66.0,21.0,0.0,30.06,724.0,0.0,0.0,133.0,0.0,0.0,0.0,0.0,0.0,0.0,0.0,0.0,0.0,0.0,0.0,0.0,0.0,0.0,0.0,0.0,0.0,0.0,0.0,0.0,0.0,0.0,0.0,0.0,0.0,15.0,0.0,0.0,30.3,0.0,0.0,0.0,0.2,0.0,0.0,30.0,0.0,0.0,-0.7,2.2,1.2,0.0,0.0,0.0,0.0,16.0,17.0,16.0,17.0,16.0,17.0,16.0,17.0,0.0,0.0,15.0,254.3,0.0,0.2,4.0,0.0,0.0,0.0,0.662,0.8,0.0,14.8,0.0,0.0,0.0,,0.0,0.0,16.0,-5.0,-6.199999999999999,69.8,59.0,32.0,32.0,32.0,32.0,60.8,62.6,60.8,62.6,60.8,62.6,60.8,62.6,32.0,32.0,58.64,23.0,20.84,0.0,0.0843333333333334,0.0,433.4,2026-02-22 15:00:12-08:00
20.06,1.0,8.0,2026-02-22 23:00:25,37.08162,-121.5996,324.0,0.0,124.9,-12.6,0.0,,0.0,0.0,0.0,10.9,-0.7,21.3,0.0,-5.0,0.1,-0.01,1.0,0.0,-107.0,21.0,0.0,30.06,724.0,0.0,0.0,133.0,0.0,0.0,0.0,0.0,0.0,0.0,0.0,0.0,0.0,0.0,0.0,0.0,0.0,0.0,0.0,0.0,0.0,0.0,0.0,0.0,0.0,0.0,0.0,0.0,0.0,15.0,0.0,0.0,30.3,0.0,0.0,0.0,0.2,0.0,0.0,30.0,0.0,0.0,-0.7,2.2,1.2,0.0,0.0,0.0,0.0,16.0,17.0,16.0,17.0,16.0,17.0,16.0,17.0,0.0,0.0,15.0,254.3,0.0,0.2,4.0,0.0,0.0,0.0,0.662,0.8,0.0,14.8,0.0,0.0,0.0,,0.0,0.0,16.0,-5.0,-6.199999999999999,69.8,59.0,32.0,32.0,32.0,32.0,60.8,62.6,60.8,62.6,60.8,62.6,60.8,62.6,32.0,32.0,58.64,23.0,20.84,0.0,0.0843333333333334,0.0,433.4,2026-02-22 15:00:12-08:00
21.06,1.0,8.0,2026-02-22 23:00:26,37.08162,-121.5996,327.0,0.0,124.9,-12.6,0.0,,0.0,0.0,0.0,10.9,-0.8,21.2,0.0,-7.0,0.1,-0.01,1.0,0.0,-138.0,21.0,0.0,30.06,724.0,0.0,0.0,133.0,0.0,0.0,0.0,0.0,0.0,0.0,0.0,0.0,0.0,0.0,0.0,0.0,0.0,0.0,0.0,0.0,0.0,0.0,0.0,0.0,0.0,0.0,0.0,0.0,0.0,15.0,0.0,0.0,30.3,0.0,0.0,0.0,0.2,0.0,0.0,30.0,0.0,0.0,-0.7,2.2,1.2,0.0,0.0,0.0,0.0,16.0,17.0,16.0,17.0,16.0,17.0,16.0,17.0,0.0,0.0,15.0,254.3,0.0,0.2,4.0,0.0,0.0,0.0,0.662,0.8,0.0,14.8,0.0,0.0,0.0,,0.0,0.0,16.0,-5.0,-6.199999999999999,69.8,59.0,32.0,32.0,32.0,32.0,60.8,62.6,60.8,62.6,60.8,62.6,60.8,62.6,32.0,32.0,58.64,23.0,20.84,0.0,0.0843333333333334,0.0,433.4,2026-02-22 15:00:12-08:00
22.06,1.0,8.0,2026-02-22 23:00:27,37.08161,-121.5996,329.0,0.0,124.9,-12.6,0.0,,0.0,0.0,0.0,10.8,-0.8,21.2,0.0,-8.0,0.0,-0.01,1.0,0.0,-105.0,21.0,0.0,30.06,716.0,0.0,0.0,133.0,0.0,0.0,0.0,0.0,0.0,0.0,0.0,0.0,0.0,0.0,0.0,0.0,0.0,0.0,0.0,0.0,0.0,0.0,0.0,0.0,0.0,0.0,0.0,0.0,0.0,15.0,0.0,0.0,30.3,0.0,0.0,0.0,0.0,0.0,0.0,30.0,0.0,0.0,-0.7,2.2,1.2,0.0,0.0,0.0,0.0,16.0,17.0,16.0,17.0,16.0,17.0,16.0,17.0,0.0,0.0,15.0,254.3,0.0,0.0,4.0,0.0,0.0,0.0,0.662,0.8,0.0,14.8,0.0,0.0,0.0,,0.0,0.0,16.0,-5.0,-6.199999999999999,69.8,59.0,32.0,32.0,32.0,32.0,60.8,62.6,60.8,62.6,60.8,62.6,60.8,62.6,32.0,32.0,58.64,23.0,20.84,0.0,0.0843333333333334,0.0,433.4,2026-02-22 15:00:12-08:00
23.06,1.0,8.0,2026-02-22 23:00:28,37.08161,-121.5996,332.0,0.0,124.9,-12.6,0.0,,0.0,0.0,0.0,10.8,-0.8,21.1,0.0,-10.0,0.0,-0.01,1.0,0.0,-106.0,21.0,0.0,30.06,716.0,0.0,0.0,133.0,0.0,0.0,0.0,0.0,0.0,0.0,0.0,0.0,0.0,0.0,0.0,0.0,0.0,0.0,0.0,0.0,0.0,0.0,0.0,0.0,0.0,0.0,0.0,0.0,0.0,15.0,0.0,0.0,30.3,0.0,0.0,0.0,0.0,0.0,0.0,30.0,0.0,0.0,-0.7,2.2,1.2,0.0,0.0,0.0,0.0,16.0,17.0,16.0,17.0,16.0,17.0,16.0,17.0,0.0,0.0,15.0,254.3,0.0,0.0,4.0,0.0,0.0,0.0,0.66,0.8,0.0,14.8,0.0,0.0,0.0,,0.0,0.0,16.0,-5.0,-6.199999999999999,69.8,59.0,32.0,32.0,32.0,32.0,60.8,62.6,60.8,62.6,60.8,62.6,60.8,62.6,32.0,32.0,58.64,23.0,20.84,0.0,0.0843333333333334,0.0,433.4,2026-02-22 15:00:12-08:00
24.06,1.0,8.0,2026-02-22 23:00:29,37.08161,-121.59961,334.0,0.0,124.9,-12.6,0.0,,0.0,0.0,0.0,10.8,-0.9,21.1,0.0,-12.0,0.0,-0.01,1.0,0.0,-119.0,21.0,0.0,30.06,716.0,0.0,0.0,133.0,0.0,0.0,0.0,0.0,0.0,0.0,0.0,0.0,0.0,0.0,0.0,0.0,0.0,0.0,0.0,0.0,0.0,0.0,0.0,0.0,0.0,0.0,0.0,0.0,0.0,15.0,0.0,0.0,30.3,0.0,0.0,0.0,0.0,0.0,0.0,30.0,0.0,0.0,-0.7,2.2,1.2,0.0,0.0,0.0,0.0,16.0,17.0,16.0,17.0,16.0,17.0,16.0,17.0,0.0,0.0,15.0,254.3,0.0,0.0,4.0,0.0,0.0,0.0,0.662,0.8,0.0,14.8,0.0,0.0,0.0,,0.0,0.0,16.0,-5.0,-6.199999999999999,69.8,59.0,32.0,32.0,32.0,32.0,60.8,62.6,60.8,62.6,60.8,62.6,60.8,62.6,32.0,32.0,58.64,23.0,20.84,0.0,0.0843333333333334,0.0,433.4,2026-02-22 15:00:12-08:00
25.06,1.0,8.0,2026-02-22 23:00:30,37.08161,-121.59961,337.0,0.0,124.9,-12.6,0.0,,0.0,0.0,0.0,10.8,-0.9,21.1,0.0,-14.0,0.1,-0.01,1.0,0.0,-130.0,21.0,0.0,30.06,720.0,0.0,0.0,133.0,0.0,0.0,0.0,0.0,0.0,0.0,0.0,0.0,0.0,0.0,0.0,0.0,0.0,0.0,0.0,0.0,0.0,0.0,0.0,0.0,0.0,0.0,0.0,0.0,0.0,15.0,0.0,0.0,30.3,0.0,0.0,0.0,0.0,0.0,0.0,30.0,0.0,0.0,-0.7,2.2,1.2,0.0,0.0,0.0,0.0,16.0,17.0,16.0,17.0,16.0,17.0,16.0,17.0,0.0,0.0,15.0,254.3,0.0,0.0,4.0,0.0,0.0,0.0,0.662,0.801,0.0,14.8,0.0,0.0,0.0,,0.0,0.0,16.0,-5.0,-6.199999999999999,69.8,59.0,32.0,32.0,32.0,32.0,60.8,62.6,60.8,62.6,60.8,62.6,60.8,62.6,32.0,32.0,58.64,23.0,20.84,0.0,0.0843333333333334,0.0,433.4,2026-02-22 15:00:12-08:00
26.06,1.0,8.0,2026-02-22 23:00:31,37.08161,-121.59961,339.0,0.0,124.9,-12.6,0.0,,0.0,0.0,0.0,10.8,-0.9,21.1,0.0,-16.0,0.1,-0.01,1.0,0.0,-147.0,21.0,0.0,30.06,720.0,0.0,0.0,133.0,0.0,0.0,0.0,0.0,0.0,0.0,0.0,0.0,0.0,0.0,0.0,0.0,0.0,0.0,0.0,0.0,0.0,0.0,0.0,0.0,0.0,0.0,0.0,0.0,0.0,15.0,0.0,0.0,30.3,0.0,0.0,0.0,0.0,0.0,0.0,30.0,0.0,0.0,-0.7,2.2,1.2,0.0,0.0,0.0,0.0,16.0,17.0,16.0,17.0,16.0,17.0,16.0,17.0,0.0,0.0,15.0,254.3,0.0,0.0,4.0,0.0,0.0,0.0,0.662,0.801,0.0,14.8,0.0,0.0,0.0,,0.0,0.0,16.0,-5.0,-6.199999999999999,69.8,59.0,32.0,32.0,32.0,32.0,60.8,62.6,60.8,62.6,60.8,62.6,60.8,62.6,32.0,32.0,58.64,23.0,20.84,0.0,0.0843333333333334,0.0,433.4,2026-02-22 15:00:12-08:00
27.06,1.0,8.0,2026-02-22 23:00:32,37.0816,-121.59961,341.0,0.0,124.9,-12.6,0.0,,0.0,0.0,0.0,10.9,-0.8,21.2,0.0,-20.0,0.1,-0.01,1.0,0.0,-170.0,21.0,0.0,30.06,720.0,0.0,0.0,133.0,0.0,0.0,0.0,0.0,0.0,0.0,0.0,0.0,0.0,0.0,0.0,0.0,0.0,0.0,0.0,0.0,0.0,0.0,0.0,0.0,0.0,0.0,0.0,0.0,0.0,15.0,0.0,0.0,30.3,0.0,0.0,0.0,0.0,0.0,0.0,30.0,0.0,0.0,-0.7,2.2,1.2,0.0,0.0,0.0,0.0,16.0,17.0,16.0,17.0,16.0,17.0,16.0,17.0,0.0,0.0,15.0,254.3,0.0,0.0,4.0,0.0,0.0,0.0,0.662,0.8,0.0,14.8,0.0,0.0,0.0,,0.0,0.0,16.0,-5.0,-6.199999999999999,69.8,59.0,32.0,32.0,32.0,32.0,60.8,62.6,60.8,62.6,60.8,62.6,60.8,62.6,32.0,32.0,58.64,23.0,20.84,0.0,0.0843333333333334,0.0,433.4,2026-02-22 15:00:12-08:00
28.06,1.0,8.0,2026-02-22 23:00:33,37.0816,-121.59961,342.0,0.0,124.9,-12.6,0.0,,0.0,0.0,0.0,10.9,-0.8,21.2,0.0,-22.0,0.1,-0.01,1.0,0.0,-166.0,21.0,0.0,30.06,718.0,0.0,0.0,133.0,0.0,0.0,0.0,0.0,0.0,0.0,0.0,0.0,0.0,0.0,0.0,0.0,0.0,0.0,0.0,0.0,0.0,0.0,0.0,0.0,0.0,0.0,0.0,0.0,0.0,15.0,0.0,0.0,30.3,0.0,0.0,0.0,0.0,0.0,0.0,30.0,0.0,0.0,-0.7,2.2,1.2,0.0,0.0,0.0,0.0,16.0,17.0,16.0,17.0,16.0,17.0,16.0,17.0,0.0,0.0,16.0,254.3,0.0,0.0,4.0,0.0,0.0,0.0,0.662,0.801,0.0,14.8,0.0,0.0,0.0,,0.0,0.0,16.0,-5.0,-6.199999999999999,69.8,59.0,32.0,32.0,32.0,32.0,60.8,62.6,60.8,62.6,60.8,62.6,60.8,62.6,32.0,32.0,58.64,23.0,20.84,0.0,0.0843333333333334,0.0,433.4,2026-02-22 15:00:12-08:00
29.06,1.0,8.0,2026-02-22 23:00:34,37.0816,-121.59961,343.0,0.0,124.9,-12.6,0.0,,0.0,0.0,0.0,10.9,-0.9,21.1,0.0,-24.0,0.1,-0.01,1.0,0.0,-150.0,21.0,0.0,30.06,718.0,0.0,0.0,133.0,0.0,0.0,0.0,0.0,0.0,0.0,0.0,0.0,0.0,0.0,0.0,0.0,0.0,0.0,0.0,0.0,0.0,0.0,0.0,0.0,0.0,0.0,0.0,0.0,0.0,15.0,0.0,0.0,30.3,0.0,0.0,0.0,2.4,0.0,0.0,30.0,0.0,0.0,-0.6,2.2,1.2,0.0,0.0,0.0,0.0,16.0,17.0,16.0,17.0,16.0,17.0,16.0,17.0,0.0,0.0,16.0,254.3,0.0,2.4,4.0,0.0,0.0,0.0,0.662,0.801,0.0,14.8,0.0,0.0,0.0,,0.0,0.0,16.0,-5.0,-6.199999999999999,69.8,59.0,32.0,32.0,32.0,32.0,60.8,62.6,60.8,62.6,60.8,62.6,60.8,62.6,32.0,32.0,58.64,23.0,20.84,0.0,0.0843333333333334,0.0,433.4,2026-02-22 15:00:12-08:00
30.06,1.0,8.0,2026-02-22 23:00:35,37.0816,-121.59961,344.0,0.0,124.9,-12.6,0.0,,0.0,0.0,0.0,10.9,-0.9,21.2,0.0,-25.0,0.1,-0.01,1.0,0.0,-115.0,21.0,0.0,30.06,718.0,0.0,0.0,133.0,0.0,0.0,0.0,0.0,0.0,0.0,0.0,0.0,0.0,0.0,0.0,0.0,0.0,0.0,0.0,0.0,0.0,0.0,0.0,0.0,0.0,0.0,0.0,0.0,0.0,15.0,0.0,0.0,30.3,0.0,0.0,0.0,29.1,0.0,0.0,30.0,0.0,0.0,-0.6,2.2,1.2,0.0,0.0,0.0,0.0,16.0,17.0,16.0,17.0,16.0,17.0,16.0,17.0,0.0,0.0,16.0,254.3,0.0,29.1,4.0,0.0,0.0,0.0,0.662,0.801,0.0,14.8,0.0,0.0,0.0,,0.0,0.0,16.0,-5.0,-6.199999999999999,69.8,59.0,32.0,32.0,32.0,32.0,60.8,62.6,60.8,62.6,60.8,62.6,60.8,62.6,32.0,32.0,58.64,23.0,20.84,0.0,0.0843333333333334,0.0,433.4,2026-02-22 15:00:12-08:00
31.06,1.0,8.0,2026-02-22 23:00:36,37.0816,-121.59961,345.0,0.0,124.9,-12.6,0.0,,0.0,0.0,0.0,10.9,-0.9,21.1,0.0,-26.0,0.1,-0.01,1.0,0.0,-90.0,21.0,0.0,30.06,713.0,0.0,0.0,133.0,0.0,0.0,0.0,0.0,0.0,0.0,0.0,0.0,0.0,0.0,0.0,0.0,0.0,0.0,0.0,0.0,0.0,0.0,0.0,0.0,0.0,0.0,0.0,0.0,0.0,15.0,0.0,0.0,30.3,0.0,0.0,0.0,32.8,0.0,0.0,30.0,0.0,0.0,-0.6,2.2,1.2,0.0,0.0,0.0,0.0,16.0,17.0,16.0,17.0,16.0,17.0,16.0,17.0,0.0,0.0,16.0,254.3,0.0,32.8,4.0,0.0,0.0,0.0,0.662,0.8,0.0,14.8,0.0,0.0,0.0,,0.0,0.0,16.0,-5.0,-6.199999999999999,69.8,59.0,32.0,32.0,32.0,32.0,60.8,62.6,60.8,62.6,60.8,62.6,60.8,62.6,32.0,32.0,58.64,23.0,20.84,0.0,0.0843333333333334,0.0,433.4,2026-02-22 15:00:12-08:00
32.06,1.0,8.0,2026-02-22 23:00:37,37.0816,-121.59961,345.0,0.0,124.9,-12.6,0.0,,0.0,0.0,0.0,10.9,-0.9,21.1,0.0,-26.0,0.1,-0.01,1.0,0.0,-43.0,21.0,0.0,30.06,713.0,0.0,0.0,133.0,0.0,0.0,0.0,0.0,0.0,0.0,0.0,0.0,0.0,0.0,0.0,0.0,0.0,0.0,0.0,0.0,0.0,0.0,0.0,0.0,0.0,0.0,0.0,0.0,0.0,15.0,0.0,0.0,30.3,0.0,0.0,0.0,33.7,0.0,0.0,30.0,0.0,0.0,-0.6,2.2,1.2,0.0,0.0,0.0,0.0,16.0,17.0,16.0,17.0,16.0,17.0,16.0,17.0,0.0,0.0,16.0,254.3,0.0,33.7,4.0,0.0,0.0,0.0,0.662,0.8,0.0,14.8,0.0,0.0,0.0,,0.0,0.0,16.0,-5.0,-6.199999999999999,69.8,59.0,32.0,32.0,32.0,32.0,60.8,62.6,60.8,62.6,60.8,62.6,60.8,62.6,32.0,32.0,58.64,23.0,20.84,0.0,0.0843333333333334,0.0,433.4,2026-02-22 15:00:12-08:00
33.06,1.0,8.0,2026-02-22 23:00:38,37.0816,-121.59961,345.0,0.0,124.9,-12.6,0.0,,0.0,0.0,0.0,10.9,-0.9,21.1,0.0,-26.0,0.1,-0.01,1.0,0.0,-35.0,21.0,0.0,30.06,713.0,0.0,0.0,133.0,0.0,0.0,0.0,0.0,0.0,0.0,0.0,0.0,0.0,0.0,0.0,0.0,0.0,0.0,0.0,0.0,0.0,0.0,0.0,0.0,0.0,0.0,0.0,0.0,0.0,15.0,0.0,0.0,30.3,0.3,0.0,0.3,34.1,0.0,0.0,30.0,0.0,0.0,-0.6,2.2,1.2,0.0,0.0,0.0,0.0,16.0,17.0,16.0,17.0,16.0,17.0,16.0,17.0,0.0,0.0,16.0,254.3,0.0,34.1,4.0,0.0,0.0,0.0,0.662,0.8,0.0,14.8,0.0,0.0,0.0,,0.0,0.0,16.0,-5.0,-6.199999999999999,69.8,59.0,32.0,32.0,32.0,32.0,60.8,62.6,60.8,62.6,60.8,62.6,60.8,62.6,32.0,32.0,58.64,23.0,20.84,4.1666666666666665e-05,0.0843333333333334,0.0,433.4,2026-02-22 15:00:12-08:00
34.06,1.0,8.0,2026-02-22 23:00:39,37.0816,-121.59961,345.0,0.0,124.9,-12.6,0.0,,0.0,0.0,0.0,10.9,-0.9,21.1,0.0,-26.0,0.1,-0.01,1.0,0.0,-44.0,21.0,0.0,30.06,714.0,0.0,0.0,133.0,0.0,0.0,0.0,0.0,0.0,0.0,0.0,0.0,0.0,0.0,0.0,0.0,0.0,0.0,0.0,0.0,0.0,0.0,0.0,0.0,0.0,0.0,0.0,0.0,0.0,15.0,0.0,0.0,30.3,0.9,0.0,0.9,33.8,0.0,0.0,30.0,0.0,0.0,-0.6,2.2,1.2,0.0,0.0,0.0,0.0,16.0,17.0,16.0,17.0,16.0,17.0,16.0,17.0,0.0,0.0,16.0,254.3,0.0,33.8,4.0,0.0,0.0,0.0,0.662,0.8,0.0,14.8,0.0,0.0,0.0,,0.0,0.0,16.0,-5.0,-6.199999999999999,69.8,59.0,32.0,32.0,32.0,32.0,60.8,62.6,60.8,62.6,60.8,62.6,60.8,62.6,32.0,32.0,58.64,23.0,20.84,0.00020833333333333332,0.0843333333333334,0.0,433.4,2026-02-22 15:00:12-08:00
35.06,1.0,8.0,2026-02-22 23:00:40,37.0816,-121.59961,345.0,0.0,124.9,-12.6,0.0,,0.0,0.0,0.0,10.9,-0.9,21.0,0.0,-28.0,0.1,-0.01,1.0,0.0,-69.0,21.0,0.0,30.06,714.0,0.0,0.0,133.0,0.0,0.0,0.0,0.0,0.0,0.0,0.0,0.0,0.0,0.0,0.0,0.0,0.0,0.0,0.0,0.0,0.0,0.0,0.0,0.0,0.0,0.0,0.0,0.0,0.0,15.0,0.0,0.0,30.3,1.3,0.0,1.3,34.0,0.0,0.0,30.0,0.0,0.0,-0.6,2.2,1.2,0.0,0.0,0.0,0.0,16.0,17.0,16.0,17.0,16.0,17.0,16.0,17.0,0.0,0.0,16.0,254.3,0.0,34.0,4.0,0.0,0.0,0.0,0.662,0.801,0.0,14.8,0.0,0.0,0.0,,0.0,0.0,16.0,-5.0,-6.199999999999999,69.8,59.0,32.0,32.0,32.0,32.0,60.8,62.6,60.8,62.6,60.8,62.6,60.8,62.6,32.0,32.0,58.64,23.0,20.84,0.0005138888888888888,0.0843333333333334,0.0,433.4,2026-02-22 15:00:12-08:00
36.06,1.0,8.0,2026-02-22 23:00:41,37.0816,-121.59961,344.0,0.0,124.9,-12.6,0.0,,0.0,0.0,0.0,10.9,-0.9,21.0,0.0,-29.0,0.0,-0.01,1.0,0.0,-51.0,21.0,0.0,30.06,714.0,0.0,0.0,133.0,0.0,0.0,0.0,0.0,0.0,0.0,0.0,0.0,0.0,0.0,0.0,0.0,0.0,0.0,0.0,0.0,0.0,0.0,0.0,0.0,0.0,0.0,0.0,0.0,0.0,15.0,0.0,0.0,30.3,1.3,0.0,1.3,33.4,0.0,0.0,30.0,0.0,0.0,-0.6,2.2,1.2,0.0,0.0,0.0,0.0,16.0,17.0,16.0,17.0,16.0,17.0,16.0,17.0,0.0,0.0,16.0,254.3,0.0,33.4,4.0,0.0,0.0,0.0,0.662,0.8,0.0,14.8,0.0,0.0,0.0,,0.0,0.0,16.0,-5.0,-6.199999999999999,69.8,59.0,32.0,32.0,32.0,32.0,60.8,62.6,60.8,62.6,60.8,62.6,60.8,62.6,32.0,32.0,58.64,23.0,20.84,0.000875,0.0843333333333334,0.0,433.4,2026-02-22 15:00:12-08:00
37.06,1.0,8.0,2026-02-22 23:00:42,37.0816,-121.59961,344.0,0.0,124.9,-12.6,0.0,,0.0,0.0,0.0,10.9,-0.9,21.0,0.0,-29.0,0.0,-0.01,1.0,0.0,-39.0,21.0,0.0,30.06,721.0,0.0,0.0,133.0,0.0,0.0,0.0,0.0,0.0,0.0,0.0,0.0,0.0,0.0,0.0,0.0,0.0,0.0,0.0,0.0,0.0,0.0,0.0,0.0,0.0,0.0,0.0,0.0,0.0,15.0,0.0,0.0,30.3,1.3,0.0,1.3,33.1,0.0,0.0,30.0,0.0,0.0,-0.6,2.2,1.2,0.0,0.0,0.0,0.0,16.0,17.0,16.0,17.0,16.0,17.0,16.0,17.0,0.0,0.0,16.0,254.3,0.0,33.1,4.0,0.0,0.0,0.0,0.662,0.8,0.0,14.8,0.0,0.0,0.0,,0.0,0.0,16.0,-5.0,-6.199999999999999,69.8,59.0,32.0,32.0,32.0,32.0,60.8,62.6,60.8,62.6,60.8,62.6,60.8,62.6,32.0,32.0,58.64,23.0,20.84,0.0012361111111111112,0.0843333333333334,0.0,433.4,2026-02-22 15:00:12-08:00
38.06,1.0,8.0,2026-02-22 23:00:43,37.0816,-121.59961,344.0,0.0,124.9,-12.6,0.0,,0.0,0.0,0.0,10.9,-0.9,21.0,0.0,-29.0,0.0,-0.01,1.0,0.0,-30.0,21.0,0.0,30.06,721.0,0.0,0.0,133.0,0.0,0.0,0.0,0.0,0.0,0.0,0.0,0.0,0.0,0.0,0.0,0.0,0.0,0.0,0.0,0.0,0.0,0.0,0.0,0.0,0.0,0.0,0.0,0.0,0.0,15.0,0.0,0.0,30.3,1.3,0.0,1.3,32.9,0.0,0.0,30.0,0.0,0.0,-0.6,2.2,1.2,0.0,0.0,0.0,0.0,16.0,17.0,16.0,17.0,16.0,17.0,16.0,17.0,0.0,0.0,16.0,254.3,0.0,32.9,4.0,0.0,0.0,0.0,0.662,0.801,0.0,14.8,0.0,0.0,0.0,,0.0,0.0,16.0,-5.0,-6.199999999999999,69.8,59.0,32.0,32.0,32.0,32.0,60.8,62.6,60.8,62.6,60.8,62.6,60.8,62.6,32.0,32.0,58.64,23.0,20.84,0.0015972222222222223,0.0843333333333334,0.0,433.4,2026-02-22 15:00:12-08:00
39.06,1.0,8.0,2026-02-22 23:00:44,37.0816,-121.5996,343.0,0.0,124.9,-12.6,0.0,,0.0,0.0,0.0,10.9,-0.9,21.0,0.0,-29.0,0.1,-0.01,1.0,0.0,-2.0,21.0,0.0,30.06,722.0,0.0,0.0,133.0,0.0,0.0,0.0,0.0,0.0,0.0,0.0,0.0,0.0,0.0,0.0,0.0,0.0,0.0,0.0,0.0,0.0,0.0,0.0,0.0,0.0,0.0,0.0,0.0,0.0,15.0,0.0,0.0,30.3,0.0,0.0,0.0,32.7,0.0,0.0,30.0,0.0,0.0,-0.7,2.2,1.2,0.0,0.0,0.0,0.0,16.0,17.0,16.0,17.0,16.0,17.0,16.0,17.0,0.0,0.0,16.0,254.3,0.0,32.7,4.0,0.0,0.0,0.0,0.662,0.801,0.0,14.8,0.0,0.0,0.0,,0.0,0.0,16.0,-5.0,-6.199999999999999,69.8,59.0,32.0,32.0,32.0,32.0,60.8,62.6,60.8,62.6,60.8,62.6,60.8,62.6,32.0,32.0,58.64,23.0,20.84,0.0017777777777777779,0.0843333333333334,0.0,433.4,2026-02-22 15:00:12-08:00
40.06,1.0,8.0,2026-02-22 23:00:45,37.0816,-121.5996,342.0,0.0,124.9,-12.6,0.0,,0.0,0.0,0.0,10.9,-0.8,21.1,0.0,-29.0,0.1,-0.01,1.0,0.0,17.0,21.0,0.0,30.06,722.0,0.0,0.0,133.0,0.0,0.0,0.0,0.0,0.0,0.0,0.0,0.0,0.0,0.0,0.0,0.0,0.0,0.0,0.0,0.0,0.0,0.0,0.0,0.0,0.0,0.0,0.0,0.0,0.0,15.0,0.0,0.0,30.3,0.0,0.0,0.0,32.5,0.0,0.0,30.0,0.0,0.0,-0.7,2.2,1.2,0.0,0.0,0.0,0.0,16.0,17.0,16.0,17.0,16.0,17.0,16.0,17.0,0.0,0.0,16.0,254.3,0.0,32.5,4.0,0.0,0.0,0.0,0.662,0.8,0.0,14.8,0.0,0.0,0.0,,0.0,0.0,16.0,-5.0,-6.199999999999999,69.8,59.0,32.0,32.0,32.0,32.0,60.8,62.6,60.8,62.6,60.8,62.6,60.8,62.6,32.0,32.0,58.64,23.0,20.84,0.0017777777777777779,0.0843333333333334,0.0,433.4,2026-02-22 15:00:12-08:00
41.06,1.0,8.0,2026-02-22 23:00:46,37.0816,-121.5996,341.0,0.0,124.9,-12.6,0.0,,0.0,0.0,0.0,10.9,-0.8,21.1,0.0,-29.0,0.1,-0.01,1.0,0.0,29.0,21.0,0.0,30.06,722.0,0.0,0.0,133.0,0.0,0.0,0.0,0.0,0.0,0.0,0.0,0.0,0.0,0.0,0.0,0.0,0.0,0.0,0.0,0.0,0.0,0.0,0.0,0.0,0.0,0.0,0.0,0.0,0.0,15.0,0.0,0.0,30.3,0.0,0.0,0.0,32.3,0.0,0.0,30.0,0.0,0.0,-0.7,2.2,1.2,0.0,0.0,0.0,0.0,16.0,17.0,16.0,17.0,16.0,17.0,16.0,17.0,0.0,0.0,16.0,254.3,0.0,32.3,4.0,0.0,0.0,0.0,0.662,0.801,0.0,14.8,0.0,0.0,0.0,,0.0,0.0,16.0,-5.0,-6.199999999999999,69.8,59.0,32.0,32.0,32.0,32.0,60.8,62.6,60.8,62.6,60.8,62.6,60.8,62.6,32.0,32.0,58.64,23.0,20.84,0.0017777777777777779,0.0843333333333334,0.0,433.4,2026-02-22 15:00:12-08:00
42.06,1.0,8.0,2026-02-22 23:00:47,37.0816,-121.5996,340.0,0.0,124.9,-12.6,0.0,,0.0,0.0,0.0,10.9,-0.8,21.1,0.0,-29.0,0.1,-0.01,1.0,0.0,36.0,21.0,0.0,30.06,731.0,0.0,0.0,133.0,0.0,0.0,0.0,0.0,0.0,0.0,0.0,0.0,0.0,0.0,0.0,0.0,0.0,0.0,0.0,0.0,0.0,0.0,0.0,0.0,0.0,0.0,0.0,0.0,0.0,15.0,0.0,0.0,30.3,0.0,0.0,0.0,32.2,0.0,0.0,30.0,0.0,0.0,-0.7,2.2,1.2,0.0,0.0,0.0,0.0,16.0,17.0,16.0,17.0,16.0,17.0,16.0,17.0,0.0,0.0,16.0,227.3,0.0,32.2,4.0,0.0,0.0,0.0,0.662,0.801,0.0,14.8,0.0,0.0,0.0,,0.0,0.0,16.0,-5.0,-6.199999999999999,69.8,59.0,32.0,32.0,32.0,32.0,60.8,62.6,60.8,62.6,60.8,62.6,60.8,62.6,32.0,32.0,58.64,23.0,20.84,0.0017777777777777779,0.0843333333333334,0.0,433.4,2026-02-22 15:00:12-08:00
43.06,1.0,8.0,2026-02-22 23:00:48,37.0816,-121.5996,339.0,0.0,124.9,-12.6,0.0,,0.0,0.0,0.0,10.9,-0.9,21.1,0.0,-29.0,0.1,-0.01,1.0,0.0,24.0,21.0,0.0,30.06,731.0,0.0,0.0,133.0,0.0,0.0,0.0,0.0,0.0,0.0,0.0,0.0,0.0,0.0,0.0,0.0,0.0,0.0,0.0,0.0,0.0,0.0,0.0,0.0,0.0,0.0,0.0,0.0,0.0,15.0,0.0,0.0,30.3,0.0,0.0,0.0,32.0,0.0,0.0,30.0,0.0,0.0,-0.7,2.2,1.2,0.0,0.0,0.0,0.0,16.0,17.0,16.0,17.0,16.0,17.0,16.0,17.0,0.0,0.0,16.0,176.9,0.0,32.0,4.0,0.0,0.0,0.0,0.662,0.801,0.0,14.8,0.0,0.0,0.0,,0.0,0.0,16.0,-5.0,-6.199999999999999,69.8,59.0,32.0,32.0,32.0,32.0,60.8,62.6,60.8,62.6,60.8,62.6,60.8,62.6,32.0,32.0,58.64,23.0,20.84,0.0017777777777777779,0.0843333333333334,0.0,433.4,2026-02-22 15:00:12-08:00
44.06,1.0,8.0,2026-02-22 23:00:49,37.0816,-121.5996,338.0,0.0,124.9,-12.6,0.0,,0.0,0.0,0.0,10.9,-0.9,21.1,0.0,-29.0,0.1,-0.01,1.0,0.0,33.0,22.0,0.0,30.06,732.0,0.0,0.0,133.0,0.0,0.0,0.0,0.0,0.0,0.0,0.0,0.0,0.0,0.0,0.0,0.0,0.0,0.0,0.0,0.0,0.0,0.0,0.0,0.0,0.0,0.0,0.0,0.0,0.0,15.0,0.0,0.0,30.3,0.0,0.0,0.0,31.9,0.0,0.0,30.0,0.0,0.0,-0.7,2.2,1.2,0.0,0.0,0.0,0.0,16.0,17.0,16.0,17.0,16.0,17.0,16.0,17.0,0.0,0.0,16.0,137.7,0.0,31.9,4.0,0.0,0.0,0.0,0.662,0.801,0.0,14.8,0.0,0.0,0.0,,0.0,0.0,16.0,-6.0,-7.199999999999999,71.6,59.0,32.0,32.0,32.0,32.0,60.8,62.6,60.8,62.6,60.8,62.6,60.8,62.6,32.0,32.0,58.64,21.2,19.04,0.0017777777777777779,0.0843333333333334,0.0,433.4,2026-02-22 15:00:12-08:00
45.06,1.0,8.0,2026-02-22 23:00:50,37.0816,-121.5996,336.0,0.0,124.9,-12.6,0.0,,0.0,0.0,0.0,10.9,-0.9,21.1,0.0,-29.0,0.1,-0.01,1.0,0.0,-6.0,22.0,0.0,30.06,732.0,0.0,0.0,133.0,0.0,0.0,0.0,0.0,0.0,0.0,0.0,0.0,0.0,0.0,0.0,0.0,0.0,0.0,0.0,0.0,0.0,0.0,0.0,0.0,0.0,0.0,0.0,0.0,0.0,15.0,0.0,0.0,30.3,0.0,0.0,0.0,31.7,0.0,0.0,30.0,0.0,0.0,-0.7,2.2,1.2,0.0,0.0,0.0,0.0,16.0,17.0,16.0,17.0,16.0,17.0,16.0,17.0,0.0,0.0,16.0,107.3,0.0,31.7,4.0,0.0,0.0,0.0,0.662,0.801,0.0,14.8,0.0,0.0,0.0,,0.0,0.0,16.0,-6.0,-7.199999999999999,71.6,59.0,32.0,32.0,32.0,32.0,60.8,62.6,60.8,62.6,60.8,62.6,60.8,62.6,32.0,32.0,58.64,21.2,19.04,0.0017777777777777779,0.0843333333333334,0.0,433.4,2026-02-22 15:00:12-08:00
46.06,1.0,8.0,2026-02-22 23:00:51,37.0816,-121.5996,335.0,0.0,124.9,-12.6,0.0,,0.0,0.0,0.0,10.9,-0.9,21.0,0.0,-29.0,0.1,-0.01,1.0,0.0,-23.0,22.0,0.0,30.06,732.0,0.0,0.0,133.0,0.0,0.0,0.0,0.0,0.0,0.0,0.0,0.0,0.0,0.0,0.0,0.0,0.0,0.0,0.0,0.0,0.0,0.0,0.0,0.0,0.0,0.0,0.0,0.0,0.0,15.0,0.0,0.0,30.3,0.0,0.0,0.0,31.6,0.0,0.0,30.0,0.0,0.0,-0.7,2.2,1.2,0.0,0.0,0.0,0.0,16.0,17.0,16.0,17.0,16.0,17.0,16.0,17.0,0.0,0.0,16.0,83.6,0.0,31.6,4.0,0.0,0.0,0.0,0.662,0.8,0.0,14.8,0.0,0.0,0.0,,0.0,0.0,16.0,-6.0,-7.199999999999999,71.6,59.0,32.0,32.0,32.0,32.0,60.8,62.6,60.8,62.6,60.8,62.6,60.8,62.6,32.0,32.0,58.64,21.2,19.04,0.0017777777777777779,0.0843333333333334,0.0,433.4,2026-02-22 15:00:12-08:00
47.06,1.0,8.0,2026-02-22 23:00:52,37.0816,-121.5996,334.0,0.0,124.9,-12.6,0.0,,0.0,0.0,0.0,10.9,-0.9,21.0,0.0,-29.0,0.1,-0.01,1.0,0.0,-17.0,22.0,0.0,30.06,742.0,0.0,0.0,133.0,0.0,0.0,0.0,0.0,0.0,0.0,0.0,0.0,0.0,0.0,0.0,0.0,0.0,0.0,0.0,0.0,0.0,0.0,0.0,0.0,0.0,0.0,0.0,0.0,0.0,15.0,0.0,0.0,30.3,0.0,0.0,0.0,31.4,0.0,0.0,30.0,0.0,0.0,-0.7,2.2,1.2,0.0,0.0,0.0,0.0,16.0,17.0,16.0,17.0,16.0,17.0,16.0,17.0,0.0,0.0,16.0,65.2,0.0,31.4,4.0,0.0,0.0,0.0,0.662,0.801,0.0,14.8,0.0,0.0,0.0,,0.0,0.0,16.0,-6.0,-7.199999999999999,71.6,59.0,32.0,32.0,32.0,32.0,60.8,62.6,60.8,62.6,60.8,62.6,60.8,62.6,32.0,32.0,58.64,21.2,19.04,0.0017777777777777779,0.0843333333333334,0.0,433.4,2026-02-22 15:00:12-08:00
48.06,1.0,8.0,2026-02-22 23:00:53,37.0816,-121.59959,334.0,0.0,124.9,-12.6,0.0,,0.0,0.0,0.0,10.9,-0.9,21.0,0.0,-29.0,0.1,-0.01,1.0,0.0,-48.0,22.0,0.0,30.06,742.0,0.0,0.0,133.0,0.0,0.0,0.0,0.0,0.0,0.0,0.0,0.0,0.0,0.0,0.0,0.0,0.0,0.0,0.0,0.0,0.0,0.0,0.0,0.0,0.0,0.0,0.0,0.0,0.0,15.0,0.0,0.0,30.3,0.0,0.0,0.0,31.3,0.0,0.0,30.0,0.0,0.0,-0.7,2.2,1.2,0.0,0.0,0.0,0.0,16.0,17.0,16.0,17.0,16.0,17.0,16.0,17.0,0.0,0.0,16.0,50.9,0.0,31.3,4.0,0.0,0.0,0.0,0.662,0.801,0.0,14.8,0.0,0.0,0.0,,0.0,0.0,16.0,-6.0,-7.199999999999999,71.6,59.0,32.0,32.0,32.0,32.0,60.8,62.6,60.8,62.6,60.8,62.6,60.8,62.6,32.0,32.0,58.64,21.2,19.04,0.0017777777777777779,0.0843333333333334,0.0,433.4,2026-02-22 15:00:12-08:00
49.06,1.0,8.0,2026-02-22 23:00:54,37.0816,-121.59959,333.0,0.0,124.9,-12.6,0.0,,0.0,0.0,0.0,10.9,-0.8,21.0,0.0,-29.0,0.0,-0.01,1.0,0.0,-77.0,22.0,0.0,30.06,743.0,0.0,0.0,133.0,0.0,0.0,0.0,0.0,0.0,0.0,0.0,0.0,0.0,0.0,0.0,0.0,0.0,0.0,0.0,0.0,0.0,0.0,0.0,0.0,0.0,0.0,0.0,0.0,0.0,15.0,0.0,0.0,30.3,0.0,0.0,0.0,31.2,0.0,0.0,30.0,0.0,0.0,-0.7,2.2,1.2,0.0,0.0,0.0,0.0,16.0,17.0,16.0,17.0,16.0,17.0,16.0,17.0,0.0,0.0,16.0,39.8,0.0,31.2,4.0,0.0,0.0,0.0,0.662,0.801,0.0,14.8,0.0,0.0,0.0,,0.0,0.0,16.0,-6.0,-7.199999999999999,71.6,59.0,32.0,32.0,32.0,32.0,60.8,62.6,60.8,62.6,60.8,62.6,60.8,62.6,32.0,32.0,58.64,21.2,19.04,0.0017777777777777779,0.0843333333333334,0.0,433.4,2026-02-22 15:00:12-08:00
50.06,1.0,8.0,2026-02-22 23:00:55,37.0816,-121.59959,332.0,0.0,124.9,-12.6,0.0,,0.0,0.0,0.0,10.9,-0.8,21.0,0.0,-30.0,0.0,-0.01,1.0,0.0,-86.0,22.0,0.0,30.06,743.0,0.0,0.0,133.0,0.0,0.0,0.0,0.0,0.0,0.0,0.0,0.0,0.0,0.0,0.0,0.0,0.0,0.0,0.0,0.0,0.0,0.0,0.0,0.0,0.0,0.0,0.0,0.0,0.0,15.0,0.0,0.0,30.3,0.0,0.0,0.0,31.1,0.0,0.0,30.0,0.0,0.0,-0.7,2.2,1.2,0.0,0.0,0.0,0.0,16.0,17.0,16.0,17.0,16.0,17.0,16.0,17.0,0.0,0.0,16.0,31.1,0.0,31.1,4.0,0.0,0.0,0.0,0.662,0.801,0.0,14.8,0.0,0.0,0.0,,0.0,0.0,16.0,-6.0,-7.199999999999999,71.6,59.0,32.0,32.0,32.0,32.0,60.8,62.6,60.8,62.6,60.8,62.6,60.8,62.6,32.0,32.0,58.64,21.2,19.04,0.0017777777777777779,0.0843333333333334,0.0,433.4,2026-02-22 15:00:12-08:00
51.06,1.0,8.0,2026-02-22 23:00:56,37.0816,-121.59959,332.0,0.0,124.9,-12.6,0.0,,0.0,0.0,0.0,10.9,-0.9,21.0,0.0,-30.0,0.1,-0.01,1.0,0.0,-59.0,22.0,0.0,30.06,743.0,0.0,0.0,133.0,0.0,0.0,0.0,0.0,0.0,0.0,0.0,0.0,0.0,0.0,0.0,0.0,0.0,0.0,0.0,0.0,0.0,0.0,0.0,0.0,0.0,0.0,0.0,0.0,0.0,15.0,0.0,0.0,30.3,0.0,0.0,0.0,31.0,0.0,0.0,30.0,0.0,0.0,-0.7,2.2,1.2,0.0,0.0,0.0,0.0,16.0,17.0,16.0,17.0,16.0,17.0,16.0,17.0,0.0,0.0,16.0,24.4,0.0,31.0,4.0,0.0,0.0,0.0,0.662,0.801,0.0,14.8,0.0,0.0,0.0,,0.0,0.0,16.0,-6.0,-7.199999999999999,71.6,59.0,32.0,32.0,32.0,32.0,60.8,62.6,60.8,62.6,60.8,62.6,60.8,62.6,32.0,32.0,58.64,21.2,19.04,0.0017777777777777779,0.0843333333333334,0.0,433.4,2026-02-22 15:00:12-08:00
52.06,1.0,8.0,2026-02-22 23:00:57,37.0816,-121.59959,331.0,0.0,124.9,-12.6,0.0,,0.0,0.0,0.0,10.9,-0.9,21.0,0.0,-33.0,0.1,-0.01,1.0,0.0,-101.0,22.0,0.0,30.06,747.0,0.0,0.0,133.0,0.0,0.0,0.0,0.0,0.0,0.0,0.0,0.0,0.0,0.0,0.0,0.0,0.0,0.0,0.0,0.0,0.0,0.0,0.0,0.0,0.0,0.0,0.0,0.0,0.0,15.0,0.0,0.0,30.3,0.0,0.0,0.0,30.8,0.0,0.0,30.0,0.0,0.0,-0.7,2.2,1.2,0.0,0.0,0.0,0.0,16.0,17.0,16.0,17.0,16.0,17.0,16.0,17.0,0.0,0.0,16.0,19.2,0.0,30.8,4.0,0.0,0.0,0.0,0.662,0.801,0.0,14.8,0.0,0.0,0.0,,0.0,0.0,16.0,-6.0,-7.199999999999999,71.6,59.0,32.0,32.0,32.0,32.0,60.8,62.6,60.8,62.6,60.8,62.6,60.8,62.6,32.0,32.0,58.64,21.2,19.04,0.0017777777777777779,0.0843333333333334,0.0,433.4,2026-02-22 15:00:12-08:00
53.06,1.0,8.0,2026-02-22 23:00:58,37.0816,-121.59959,331.0,0.0,124.9,-12.6,0.0,,0.0,0.0,0.0,10.9,-0.9,20.9,0.0,-34.0,0.0,-0.01,1.0,0.0,-109.0,22.0,0.0,30.06,747.0,0.0,0.0,133.0,0.0,0.0,0.0,0.0,0.0,0.0,0.0,0.0,0.0,0.0,0.0,0.0,0.0,0.0,0.0,0.0,0.0,0.0,0.0,0.0,0.0,0.0,0.0,0.0,0.0,15.0,0.0,0.0,30.3,0.0,0.0,0.0,30.7,0.0,0.0,30.0,0.0,0.0,-0.7,2.2,1.2,0.0,0.0,0.0,0.0,16.0,17.0,16.0,17.0,16.0,17.0,16.0,17.0,0.0,0.0,16.0,15.1,0.0,30.7,4.0,0.0,0.0,0.0,0.662,0.801,0.0,14.8,0.0,0.0,0.0,,0.0,0.0,16.0,-6.0,-7.199999999999999,71.6,59.0,32.0,32.0,32.0,32.0,60.8,62.6,60.8,62.6,60.8,62.6,60.8,62.6,32.0,32.0,58.64,21.2,19.04,0.0017777777777777779,0.0843333333333334,0.0,433.4,2026-02-22 15:00:12-08:00
54.06,1.0,8.0,2026-02-22 23:00:59,37.0816,-121.59959,331.0,0.0,124.9,-12.6,0.0,,0.0,0.0,0.0,10.9,-0.9,21.0,0.0,-35.0,0.1,-0.01,1.0,0.0,-78.0,22.0,0.0,30.06,747.0,0.0,0.0,133.0,0.0,0.0,0.0,0.0,0.0,0.0,0.0,0.0,0.0,0.0,0.0,0.0,0.0,0.0,0.0,0.0,0.0,0.0,0.0,0.0,0.0,0.0,0.0,0.0,0.0,15.0,0.0,0.0,30.3,0.0,0.0,0.0,30.6,0.0,0.0,30.0,0.0,0.0,-0.7,2.2,1.2,0.0,0.0,0.0,0.0,16.0,17.0,16.0,17.0,16.0,17.0,16.0,17.0,0.0,0.0,16.0,12.0,0.0,30.6,4.0,0.0,0.0,0.0,0.662,0.801,0.0,14.8,0.0,0.0,0.0,,0.0,0.0,16.0,-6.0,-7.199999999999999,71.6,59.0,32.0,32.0,32.0,32.0,60.8,62.6,60.8,62.6,60.8,62.6,60.8,62.6,32.0,32.0,58.64,21.2,19.04,0.0017777777777777779,0.0843333333333334,0.0,433.4,2026-02-22 15:00:12-08:00
55.06,1.0,8.0,2026-02-22 23:01:00,37.0816,-121.59959,330.0,0.0,124.9,-12.6,0.0,,0.0,0.0,0.0,10.9,-0.9,20.9,0.0,-38.0,0.1,-0.01,1.0,0.0,-105.0,22.0,0.0,30.06,751.0,0.0,0.0,133.0,0.0,0.0,0.0,0.0,0.0,0.0,0.0,0.0,0.0,0.0,0.0,0.0,0.0,0.0,0.0,0.0,0.0,0.0,0.0,0.0,0.0,0.0,0.0,0.0,0.0,15.0,0.0,0.0,30.3,0.0,0.0,0.0,30.5,0.0,0.0,30.0,0.0,0.0,-0.7,2.2,1.2,0.0,0.0,0.0,0.0,16.0,17.0,16.0,17.0,16.0,17.0,16.0,17.0,0.0,0.0,16.0,9.5,0.0,30.5,4.0,0.0,0.0,0.0,0.662,0.801,0.0,14.8,0.0,0.0,0.0,,0.0,0.0,16.0,-6.0,-7.199999999999999,71.6,59.0,32.0,32.0,32.0,32.0,60.8,62.6,60.8,62.6,60.8,62.6,60.8,62.6,32.0,32.0,58.64,21.2,19.04,0.0017777777777777779,0.0843333333333334,0.0,433.4,2026-02-22 15:00:12-08:00
56.06,1.0,8.0,2026-02-22 23:01:01,37.0816,-121.59959,330.0,0.0,124.9,-12.6,0.0,,0.0,0.0,0.0,10.9,-0.9,20.9,0.0,-39.0,0.1,-0.01,1.0,0.0,-98.0,22.0,0.0,30.06,751.0,0.0,0.0,133.0,0.0,0.0,0.0,0.0,0.0,0.0,0.0,0.0,0.0,0.0,0.0,0.0,0.0,0.0,0.0,0.0,0.0,0.0,0.0,0.0,0.0,0.0,0.0,0.0,0.0,15.0,0.0,0.0,30.3,0.0,0.0,0.0,30.4,0.0,0.0,30.0,0.0,0.0,-0.7,2.2,1.2,0.0,0.0,0.0,0.0,16.0,17.0,16.0,17.0,16.0,17.0,16.0,17.0,0.0,0.0,16.0,7.6,0.0,30.4,4.0,0.0,0.0,0.0,0.662,0.801,0.0,14.8,0.0,0.0,0.0,,0.0,0.0,16.0,-6.0,-7.199999999999999,71.6,59.0,32.0,32.0,32.0,32.0,60.8,62.6,60.8,62.6,60.8,62.6,60.8,62.6,32.0,32.0,58.64,21.2,19.04,0.0017777777777777779,0.0843333333333334,0.0,433.4,2026-02-22 15:00:12-08:00
57.06,1.0,8.0,2026-02-22 23:01:02,37.0816,-121.59959,330.0,0.0,124.9,-12.6,0.0,,0.0,0.0,0.0,10.9,-0.9,21.0,0.0,-40.0,0.1,-0.01,1.0,0.0,-97.0,22.0,0.0,30.06,751.0,0.0,0.0,133.0,0.0,0.0,0.0,0.0,0.0,0.0,0.0,0.0,0.0,0.0,0.0,0.0,0.0,0.0,0.0,0.0,0.0,0.0,0.0,0.0,0.0,0.0,0.0,0.0,0.0,15.0,0.0,0.0,30.3,0.0,0.0,0.0,30.3,0.0,0.0,30.0,0.0,0.0,-0.7,2.2,1.2,0.0,0.0,0.0,0.0,16.0,17.0,16.0,17.0,16.0,17.0,16.0,17.0,0.0,0.0,16.0,6.1,0.0,30.3,4.0,0.0,0.0,0.0,0.662,0.801,0.0,14.8,0.0,0.0,0.0,,0.0,0.0,16.0,-6.0,-7.199999999999999,71.6,59.0,32.0,32.0,32.0,32.0,60.8,62.6,60.8,62.6,60.8,62.6,60.8,62.6,32.0,32.0,58.64,21.2,19.04,0.0017777777777777779,0.0843333333333334,0.0,433.4,2026-02-22 15:00:12-08:00
58.06,1.0,8.0,2026-02-22 23:01:03,37.0816,-121.59959,329.0,0.0,124.9,-12.6,0.0,,0.0,0.0,0.0,10.9,-0.9,21.0,0.0,-41.0,0.1,-0.01,1.0,0.0,-74.0,22.0,0.0,30.06,748.0,0.0,0.0,133.0,0.0,0.0,0.0,0.0,0.0,0.0,0.0,0.0,0.0,0.0,0.0,0.0,0.0,0.0,0.0,0.0,0.0,0.0,0.0,0.0,0.0,0.0,0.0,0.0,0.0,15.0,0.0,0.0,30.3,0.0,0.0,0.0,30.2,0.0,0.0,30.0,0.0,0.0,-0.7,2.2,1.2,0.0,0.0,0.0,0.0,16.0,17.0,16.0,17.0,16.0,17.0,16.0,17.0,0.0,0.0,16.0,5.0,0.0,30.2,4.0,0.0,0.0,0.0,0.662,0.801,0.0,14.8,0.0,0.0,0.0,,0.0,0.0,16.0,-6.0,-7.199999999999999,71.6,59.0,32.0,32.0,32.0,32.0,60.8,62.6,60.8,62.6,60.8,62.6,60.8,62.6,32.0,32.0,58.64,21.2,19.04,0.0017777777777777779,0.0843333333333334,0.0,433.4,2026-02-22 15:00:12-08:00
59.06,1.0,8.0,2026-02-22 23:01:04,37.0816,-121.59959,329.0,0.0,124.9,-12.6,0.0,,0.0,0.0,0.0,10.9,-0.9,21.0,0.0,-42.0,0.1,-0.01,1.0,0.0,-58.0,22.0,0.0,30.06,748.0,0.0,0.0,133.0,0.0,0.0,0.0,0.0,0.0,0.0,0.0,0.0,0.0,0.0,0.0,0.0,0.0,0.0,0.0,0.0,0.0,0.0,0.0,0.0,0.0,0.0,0.0,0.0,0.0,15.0,0.0,0.0,30.3,0.0,0.0,0.0,30.1,0.0,0.0,30.0,0.0,0.0,-0.7,2.2,1.2,0.0,0.0,0.0,0.0,16.0,17.0,16.0,17.0,16.0,17.0,16.0,17.0,0.0,0.0,16.0,4.1,0.0,30.1,4.0,0.0,0.0,0.0,0.662,0.801,0.0,14.8,0.0,0.0,0.0,,0.0,0.0,16.0,-6.0,-7.199999999999999,71.6,59.0,32.0,32.0,32.0,32.0,60.8,62.6,60.8,62.6,60.8,62.6,60.8,62.6,32.0,32.0,58.64,21.2,19.04,0.0017777777777777779,0.0843333333333334,0.0,433.4,2026-02-22 15:00:12-08:00
60.06,1.0,8.0,2026-02-22 23:01:05,37.0816,-121.59959,329.0,0.0,124.9,-12.6,0.0,,0.0,0.0,0.0,10.9,-0.9,21.0,0.0,-42.0,0.1,-0.01,1.0,0.0,-18.0,22.0,0.0,30.06,748.0,0.0,0.0,133.0,0.0,0.0,0.0,0.0,0.0,0.0,0.0,0.0,0.0,0.0,0.0,0.0,0.0,0.0,0.0,0.0,0.0,0.0,0.0,0.0,0.0,0.0,0.0,0.0,0.0,15.0,0.0,0.0,30.3,0.0,0.0,0.0,30.0,0.0,0.0,30.0,0.0,0.0,-0.7,2.2,1.2,0.0,0.0,0.0,0.0,16.0,17.0,16.0,17.0,16.0,17.0,16.0,17.0,0.0,0.0,16.0,3.4,0.0,30.0,4.0,0.0,0.0,0.0,0.662,0.801,0.0,14.8,0.0,0.0,0.0,,0.0,0.0,16.0,-6.0,-7.199999999999999,71.6,59.0,32.0,32.0,32.0,32.0,60.8,62.6,60.8,62.6,60.8,62.6,60.8,62.6,32.0,32.0,58.64,21.2,19.04,0.0017777777777777779,0.0843333333333334,0.0,433.4,2026-02-22 15:00:12-08:00
61.06,1.0,8.0,2026-02-22 23:01:06,37.0816,-121.59959,329.0,0.0,124.9,-12.6,0.0,,0.0,0.0,0.0,10.9,-0.9,21.0,0.0,-42.0,0.0,-0.01,1.0,0.0,-17.0,22.0,0.0,30.06,747.0,0.0,0.0,133.0,0.0,0.0,0.0,0.0,0.0,0.0,0.0,0.0,0.0,0.0,0.0,0.0,0.0,0.0,0.0,0.0,0.0,0.0,0.0,0.0,0.0,0.0,0.0,0.0,0.0,15.0,0.0,0.0,30.3,0.0,0.0,0.0,29.9,0.0,0.0,30.0,0.0,0.0,-0.7,2.2,1.2,0.0,0.0,0.0,0.0,16.0,17.0,16.0,17.0,16.0,17.0,16.0,17.0,0.0,0.0,16.0,2.9,0.0,29.9,4.0,0.0,0.0,0.0,0.662,0.801,0.0,14.8,0.0,0.0,0.0,,0.0,0.0,16.0,-6.0,-7.199999999999999,71.6,59.0,32.0,32.0,32.0,32.0,60.8,62.6,60.8,62.6,60.8,62.6,60.8,62.6,32.0,32.0,58.64,21.2,19.04,0.0017777777777777779,0.0843333333333334,0.0,433.4,2026-02-22 15:00:12-08:00
62.06,1.0,8.0,2026-02-22 23:01:07,37.0816,-121.59959,328.0,0.0,124.9,-12.6,0.0,,0.0,0.0,0.0,10.9,-0.9,21.0,0.0,-42.0,0.1,-0.01,1.0,0.0,-6.0,22.0,0.0,30.06,747.0,0.0,0.0,133.0,0.0,0.0,0.0,0.0,0.0,0.0,0.0,0.0,0.0,0.0,0.0,0.0,0.0,0.0,0.0,0.0,0.0,0.0,0.0,0.0,0.0,0.0,0.0,0.0,0.0,15.0,0.0,0.0,30.3,0.0,0.0,0.0,29.8,0.0,0.0,30.0,0.0,0.0,-0.7,2.2,1.2,0.0,0.0,0.0,0.0,16.0,17.0,16.0,17.0,16.0,17.0,16.0,17.0,0.0,0.0,16.0,2.4,0.0,29.8,4.0,0.0,0.0,0.0,0.662,0.801,0.0,14.8,0.0,0.0,0.0,,0.0,0.0,16.0,-6.0,-7.199999999999999,71.6,59.0,32.0,32.0,32.0,32.0,60.8,62.6,60.8,62.6,60.8,62.6,60.8,62.6,32.0,32.0,58.64,21.2,19.04,0.0017777777777777779,0.0843333333333334,0.0,433.4,2026-02-22 15:00:12-08:00
63.06,1.0,8.0,2026-02-22 23:01:08,37.0816,-121.59959,328.0,0.0,124.9,-12.6,0.0,,0.0,0.0,0.0,11.0,-0.9,21.0,0.0,-42.0,0.1,-0.01,1.0,0.0,-32.0,22.0,0.0,30.06,747.0,0.0,0.0,133.0,0.0,0.0,0.0,0.0,0.0,0.0,0.0,0.0,0.0,0.0,0.0,0.0,0.0,0.0,0.0,0.0,0.0,0.0,0.0,0.0,0.0,0.0,0.0,0.0,0.0,15.0,0.0,0.0,30.3,0.0,0.0,0.0,29.7,0.0,0.0,30.0,0.0,0.0,-0.7,2.2,1.2,0.0,0.0,0.0,0.0,16.0,17.0,16.0,17.0,16.0,17.0,16.0,17.0,0.0,0.0,16.0,2.1,0.0,29.7,4.0,0.0,0.0,0.0,0.662,0.801,0.0,14.8,0.0,0.0,0.0,,0.0,0.0,16.0,-6.0,-7.199999999999999,71.6,59.0,32.0,32.0,32.0,32.0,60.8,62.6,60.8,62.6,60.8,62.6,60.8,62.6,32.0,32.0,58.64,21.2,19.04,0.0017777777777777779,0.0843333333333334,0.0,433.4,2026-02-22 15:00:12-08:00
64.06,1.0,8.0,2026-02-22 23:01:09,37.0816,-121.59959,327.0,0.0,124.9,-12.6,0.0,,0.0,0.0,0.0,10.9,-0.8,21.0,0.0,-43.0,0.1,-0.01,1.0,0.0,-45.0,22.0,0.0,30.06,747.0,0.0,0.0,133.0,0.0,0.0,0.0,0.0,0.0,0.0,0.0,0.0,0.0,0.0,0.0,0.0,0.0,0.0,0.0,0.0,0.0,0.0,0.0,0.0,0.0,0.0,0.0,0.0,0.0,15.0,0.0,0.0,30.3,0.0,0.0,0.0,29.6,0.0,0.0,30.0,0.0,0.0,-0.7,2.2,1.2,0.0,0.0,0.0,0.0,16.0,17.0,16.0,17.0,16.0,17.0,16.0,17.0,0.0,0.0,16.0,1.9,0.0,29.6,4.0,0.0,0.0,0.0,0.662,0.801,0.0,14.8,0.0,0.0,0.0,,0.0,0.0,16.0,-6.0,-7.199999999999999,71.6,59.0,32.0,32.0,32.0,32.0,60.8,62.6,60.8,62.6,60.8,62.6,60.8,62.6,32.0,32.0,58.64,21.2,19.04,0.0017777777777777779,0.0843333333333334,0.0,433.4,2026-02-22 15:00:12-08:00
65.06,1.0,8.0,2026-02-22 23:01:10,37.0816,-121.59959,327.0,0.0,124.9,-12.6,0.0,,0.0,0.0,0.0,11.0,-0.9,21.0,0.0,-43.0,0.1,-0.01,1.0,0.0,-18.0,22.0,0.0,30.06,756.0,0.0,0.0,133.0,0.0,0.0,0.0,0.0,0.0,0.0,0.0,0.0,0.0,0.0,0.0,0.0,0.0,0.0,0.0,0.0,0.0,0.0,0.0,0.0,0.0,0.0,0.0,0.0,0.0,15.0,0.0,0.0,30.3,0.0,0.0,0.0,29.5,0.0,0.0,30.0,0.0,0.0,-0.7,2.2,1.2,0.0,0.0,0.0,0.0,16.0,17.0,16.0,17.0,16.0,17.0,16.0,17.0,0.0,0.0,16.0,1.6,0.0,29.5,4.0,0.0,0.0,0.0,0.662,0.801,0.0,14.8,0.0,0.0,0.0,,0.0,0.0,16.0,-6.0,-7.199999999999999,71.6,59.0,32.0,32.0,32.0,32.0,60.8,62.6,60.8,62.6,60.8,62.6,60.8,62.6,32.0,32.0,58.64,21.2,19.04,0.0017777777777777779,0.0843333333333334,0.0,433.4,2026-02-22 15:00:12-08:00
66.06,1.0,8.0,2026-02-22 23:01:11,37.0816,-121.59959,327.0,0.0,124.9,-12.6,0.0,,0.0,0.0,0.0,10.9,-0.8,21.0,0.0,-43.0,0.1,-0.01,1.0,0.0,0.0,22.0,0.0,30.06,756.0,0.0,0.0,133.0,0.0,0.0,0.0,0.0,0.0,0.0,0.0,0.0,0.0,0.0,0.0,0.0,0.0,0.0,0.0,0.0,0.0,0.0,0.0,0.0,0.0,0.0,0.0,0.0,0.0,15.0,0.0,0.0,30.3,0.0,0.0,0.0,29.4,0.0,0.0,30.0,0.0,0.0,-0.7,2.2,1.2,0.0,0.0,0.0,0.0,16.0,17.0,16.0,17.0,16.0,17.0,16.0,17.0,0.0,0.0,16.0,1.5,0.0,29.4,4.0,0.0,0.0,0.0,0.662,0.801,0.0,14.8,0.0,0.0,0.0,,0.0,0.0,16.0,-6.0,-7.199999999999999,71.6,59.0,32.0,32.0,32.0,32.0,60.8,62.6,60.8,62.6,60.8,62.6,60.8,62.6,32.0,32.0,58.64,21.2,19.04,0.0017777777777777779,0.0843333333333334,0.0,433.4,2026-02-22 15:00:12-08:00
67.06,1.0,8.0,2026-02-22 23:01:12,37.0816,-121.59959,326.0,0.0,124.9,-12.6,0.0,,0.0,0.0,0.0,10.9,-0.9,21.0,0.0,-43.0,0.1,-0.01,1.0,0.0,32.0,22.0,0.0,30.06,757.0,0.0,0.0,133.0,0.0,0.0,0.0,0.0,0.0,0.0,0.0,0.0,0.0,0.0,0.0,0.0,0.0,0.0,0.0,0.0,0.0,0.0,0.0,0.0,0.0,0.0,0.0,0.0,0.0,15.0,0.0,0.0,30.3,0.0,0.0,0.0,29.3,0.0,0.0,30.0,0.0,0.0,-0.7,2.2,1.2,0.0,0.0,0.0,0.0,16.0,17.0,16.0,17.0,16.0,17.0,16.0,17.0,0.0,0.0,16.0,1.4,0.0,29.3,4.0,0.0,0.0,0.0,0.662,0.801,0.0,14.8,0.0,0.0,0.0,,0.0,0.0,16.0,-6.0,-7.199999999999999,71.6,59.0,32.0,32.0,32.0,32.0,60.8,62.6,60.8,62.6,60.8,62.6,60.8,62.6,32.0,32.0,58.64,21.2,19.04,0.0017777777777777779,0.0843333333333334,0.0,433.4,2026-02-22 15:00:12-08:00
68.06,1.0,8.0,2026-02-22 23:01:13,37.08161,-121.59957,308.0,0.0,124.9,-12.6,0.0,,0.0,0.0,0.0,10.9,-0.9,21.0,0.0,-43.0,0.1,-0.01,1.0,0.0,32.0,22.0,0.0,30.06,757.0,0.0,0.0,133.0,0.0,0.0,0.0,0.0,0.0,0.0,0.0,0.0,0.0,0.0,0.0,0.0,0.0,0.0,0.0,0.0,0.0,0.0,0.0,0.0,0.0,0.0,0.0,0.0,0.0,15.0,0.0,0.0,30.3,0.0,0.0,0.0,29.2,0.0,0.0,30.0,0.0,0.0,-0.7,2.2,1.2,0.0,0.0,0.0,0.0,16.0,17.0,16.0,17.0,16.0,17.0,16.0,17.0,0.0,0.0,16.0,1.3,0.0,29.2,4.0,0.0,0.0,0.0,0.662,0.801,0.0,14.8,0.0,0.0,0.0,,0.0,0.0,16.0,-6.0,-7.199999999999999,71.6,59.0,32.0,32.0,32.0,32.0,60.8,62.6,60.8,62.6,60.8,62.6,60.8,62.6,32.0,32.0,58.64,21.2,19.04,0.0017777777777777779,0.0843333333333334,0.0,433.4,2026-02-22 15:00:12-08:00
69.06,1.0,8.0,2026-02-22 23:01:14,37.08161,-121.59957,308.0,0.0,124.9,-12.6,0.0,,0.0,0.0,0.0,10.9,-0.8,21.0,0.0,-43.0,0.1,-0.01,1.0,0.0,42.0,22.0,0.0,30.06,757.0,0.0,0.0,133.0,0.0,0.0,0.0,0.0,0.0,0.0,0.0,0.0,0.0,0.0,0.0,0.0,0.0,0.0,0.0,0.0,0.0,0.0,0.0,0.0,0.0,0.0,0.0,0.0,0.0,15.0,0.0,0.0,30.3,0.0,0.0,0.0,29.2,0.0,0.0,30.0,0.0,0.0,-0.7,2.2,1.2,0.0,0.0,0.0,0.0,16.0,17.0,16.0,17.0,16.0,17.0,16.0,17.0,0.0,0.0,16.0,1.2,0.0,29.2,4.0,0.0,0.0,0.0,0.662,0.801,0.0,14.8,0.0,0.0,0.0,,0.0,0.0,16.0,-6.0,-7.199999999999999,71.6,59.0,32.0,32.0,32.0,32.0,60.8,62.6,60.8,62.6,60.8,62.6,60.8,62.6,32.0,32.0,58.64,21.2,19.04,0.0017777777777777779,0.0843333333333334,0.0,433.4,2026-02-22 15:00:12-08:00
70.06,1.0,8.0,2026-02-22 23:01:15,37.08161,-121.59957,308.0,0.0,124.9,-12.6,0.0,,0.0,0.0,0.0,10.9,-0.8,21.1,0.0,-43.0,0.1,-0.01,1.0,0.0,68.0,22.0,0.0,30.06,766.0,0.0,0.0,133.0,0.0,0.0,0.0,0.0,0.0,0.0,0.0,0.0,0.0,0.0,0.0,0.0,0.0,0.0,0.0,0.0,0.0,0.0,0.0,0.0,0.0,0.0,0.0,0.0,0.0,15.0,0.0,0.0,30.3,0.0,0.0,0.0,29.1,0.0,0.0,30.0,0.0,0.0,-0.7,2.2,1.2,0.0,0.0,0.0,0.0,16.0,17.0,16.0,17.0,16.0,17.0,16.0,17.0,0.0,0.0,16.0,1.2,0.0,29.1,4.0,0.0,0.0,0.0,0.662,0.801,0.0,14.8,0.0,0.0,0.0,,0.0,0.0,16.0,-6.0,-7.199999999999999,71.6,59.0,32.0,32.0,32.0,32.0,60.8,62.6,60.8,62.6,60.8,62.6,60.8,62.6,32.0,32.0,58.64,21.2,19.04,0.0017777777777777779,0.0843333333333334,0.0,433.4,2026-02-22 15:00:12-08:00
71.06,1.0,8.0,2026-02-22 23:01:16,37.08161,-121.59957,309.0,0.0,124.9,-12.6,0.0,,0.0,0.0,0.0,10.9,-0.8,21.1,0.0,-43.0,0.1,-0.01,1.0,0.0,47.0,22.0,0.0,30.06,766.0,0.0,0.0,133.0,0.0,0.0,0.0,0.0,0.0,0.0,0.0,0.0,0.0,0.0,0.0,0.0,0.0,0.0,0.0,0.0,0.0,0.0,0.0,0.0,0.0,0.0,0.0,0.0,0.0,15.0,0.0,0.0,30.3,0.0,0.0,0.0,29.0,0.0,0.0,30.0,0.0,0.0,-0.7,2.2,1.2,0.0,0.0,0.0,0.0,16.0,17.0,16.0,17.0,16.0,17.0,16.0,17.0,0.0,0.0,16.0,1.1,0.0,29.0,4.0,0.0,0.0,0.0,0.662,0.801,0.0,14.8,0.0,0.0,0.0,,0.0,0.0,16.0,-6.0,-7.199999999999999,71.6,59.0,32.0,32.0,32.0,32.0,60.8,62.6,60.8,62.6,60.8,62.6,60.8,62.6,32.0,32.0,58.64,21.2,19.04,0.0017777777777777779,0.0843333333333334,0.0,433.4,2026-02-22 15:00:12-08:00
72.06,1.0,8.0,2026-02-22 23:01:17,37.0816,-121.59957,309.0,0.0,124.9,-12.6,0.0,,0.0,0.0,0.0,10.9,-0.8,21.1,0.0,-43.0,0.1,-0.01,1.0,0.0,26.0,22.0,0.0,30.06,767.0,0.0,0.0,133.0,0.0,0.0,0.0,0.0,0.0,0.0,0.0,0.0,0.0,0.0,0.0,0.0,0.0,0.0,0.0,0.0,0.0,0.0,0.0,0.0,0.0,0.0,0.0,0.0,0.0,15.0,0.0,0.0,30.3,0.0,0.0,0.0,28.9,0.0,0.0,30.0,0.0,0.0,-0.7,2.2,1.2,0.0,0.0,0.0,0.0,16.0,17.0,16.0,17.0,16.0,17.0,16.0,17.0,0.0,0.0,16.0,1.1,0.0,28.9,4.0,0.0,0.0,0.0,0.662,0.801,0.0,14.8,0.0,0.0,0.0,,0.0,0.0,16.0,-6.0,-7.199999999999999,71.6,59.0,32.0,32.0,32.0,32.0,60.8,62.6,60.8,62.6,60.8,62.6,60.8,62.6,32.0,32.0,58.64,21.2,19.04,0.0017777777777777779,0.0843333333333334,0.0,433.4,2026-02-22 15:00:12-08:00
73.06,1.0,8.0,2026-02-22 23:01:18,37.0816,-121.59956,309.0,0.0,124.9,-12.6,0.0,,0.0,0.0,0.0,10.9,-0.8,21.1,0.0,-43.0,0.1,-0.01,1.0,0.0,56.0,22.0,0.0,30.06,767.0,0.0,0.0,133.0,0.0,0.0,0.0,0.0,0.0,0.0,0.0,0.0,0.0,0.0,0.0,0.0,0.0,0.0,0.0,0.0,0.0,0.0,0.0,0.0,0.0,0.0,0.0,0.0,0.0,15.0,0.0,0.0,30.3,0.0,0.0,0.0,28.8,0.0,0.0,30.0,0.0,0.0,-0.7,2.2,1.2,0.0,0.0,0.0,0.0,16.0,17.0,16.0,17.0,16.0,17.0,16.0,17.0,0.0,0.0,16.0,1.1,0.0,28.8,4.0,0.0,0.0,0.0,0.662,0.801,0.0,14.8,0.0,0.0,0.0,,0.0,0.0,16.0,-6.0,-7.199999999999999,71.6,59.0,32.0,32.0,32.0,32.0,60.8,62.6,60.8,62.6,60.8,62.6,60.8,62.6,32.0,32.0,58.64,21.2,19.04,0.0017777777777777779,0.0843333333333334,0.0,433.4,2026-02-22 15:00:12-08:00
74.06,1.0,8.0,2026-02-22 23:01:19,37.0816,-121.59956,309.0,0.0,124.9,-12.6,0.0,,0.0,0.0,0.0,10.9,-0.8,21.0,0.0,-43.0,0.0,-0.01,1.0,0.0,38.0,22.0,0.0,30.06,767.0,0.0,0.0,133.0,0.0,0.0,0.0,0.0,0.0,0.0,0.0,0.0,0.0,0.0,0.0,0.0,0.0,0.0,0.0,0.0,0.0,0.0,0.0,0.0,0.0,0.0,0.0,0.0,0.0,15.0,0.0,0.0,30.3,0.0,0.0,0.0,28.8,0.0,0.0,30.0,0.0,0.0,-0.7,2.2,1.2,0.0,0.0,0.0,0.0,16.0,17.0,16.0,17.0,16.0,17.0,16.0,17.0,0.0,0.0,16.0,1.0,0.0,28.8,4.0,0.0,0.0,0.0,0.662,0.801,0.0,14.8,0.0,0.0,0.0,,0.0,0.0,16.0,-6.0,-7.199999999999999,71.6,59.0,32.0,32.0,32.0,32.0,60.8,62.6,60.8,62.6,60.8,62.6,60.8,62.6,32.0,32.0,58.64,21.2,19.04,0.0017777777777777779,0.0843333333333334,0.0,433.4,2026-02-22 15:00:12-08:00
75.06,1.0,8.0,2026-02-22 23:01:20,37.0816,-121.59956,309.0,0.0,124.9,-12.6,0.0,,0.0,0.0,0.0,10.9,-0.8,21.0,0.0,-43.0,0.1,-0.01,1.0,0.0,32.0,22.0,0.0,30.06,777.0,0.0,0.0,133.0,0.0,0.0,0.0,0.0,0.0,0.0,0.0,0.0,0.0,0.0,0.0,0.0,0.0,0.0,0.0,0.0,0.0,0.0,0.0,0.0,0.0,0.0,0.0,0.0,0.0,15.0,0.0,0.0,30.3,0.0,0.0,0.0,28.7,0.0,0.0,30.0,0.0,0.0,-0.7,2.2,1.2,0.0,0.0,0.0,0.0,16.0,17.0,16.0,17.0,16.0,17.0,16.0,17.0,0.0,0.0,16.0,1.0,0.0,28.7,4.0,0.0,0.0,0.0,0.662,0.801,0.0,14.8,0.0,0.0,0.0,,0.0,0.0,16.0,-6.0,-7.199999999999999,71.6,59.0,32.0,32.0,32.0,32.0,60.8,62.6,60.8,62.6,60.8,62.6,60.8,62.6,32.0,32.0,58.64,21.2,19.04,0.0017777777777777779,0.0843333333333334,0.0,433.4,2026-02-22 15:00:12-08:00
76.06,1.0,8.0,2026-02-22 23:01:21,37.0816,-121.59956,310.0,0.0,124.9,-12.6,0.0,,0.0,0.0,0.0,10.9,-0.9,21.0,0.0,-43.0,0.1,-0.01,1.0,0.0,12.0,22.0,0.0,30.06,777.0,0.0,0.0,133.0,0.0,0.0,0.0,0.0,0.0,0.0,0.0,0.0,0.0,0.0,0.0,0.0,0.0,0.0,0.0,0.0,0.0,0.0,0.0,0.0,0.0,0.0,0.0,0.0,0.0,15.0,0.0,0.0,30.3,0.0,0.0,0.0,28.6,0.0,0.0,30.0,0.0,0.0,-0.7,2.2,1.2,0.0,0.0,0.0,0.0,16.0,17.0,16.0,18.0,16.0,17.0,16.0,18.0,0.0,0.0,15.0,1.0,0.0,28.6,4.0,0.0,0.0,0.0,0.662,0.801,0.0,14.8,0.0,0.0,0.0,,0.0,0.0,16.0,-6.0,-7.199999999999999,71.6,59.0,32.0,32.0,32.0,32.0,60.8,62.6,60.8,64.4,60.8,62.6,60.8,64.4,32.0,32.0,58.64,21.2,19.04,0.0017777777777777779,0.0843333333333334,0.0,433.4,2026-02-22 15:00:12-08:00
77.06,1.0,8.0,2026-02-22 23:01:22,37.0816,-121.59956,310.0,0.0,124.9,-12.6,0.0,,0.0,0.0,0.0,10.9,-0.9,21.0,0.0,-43.0,0.1,-0.01,1.0,0.0,13.0,22.0,0.0,30.06,778.0,0.0,0.0,133.0,0.0,0.0,0.0,0.0,0.0,0.0,0.0,0.0,0.0,0.0,0.0,0.0,0.0,0.0,0.0,0.0,0.0,0.0,0.0,0.0,0.0,0.0,0.0,0.0,0.0,15.0,0.0,0.0,30.3,0.0,0.0,0.0,28.5,0.0,0.0,30.0,0.0,0.0,-0.7,2.2,1.2,0.0,0.0,0.0,0.0,16.0,17.0,16.0,18.0,16.0,17.0,16.0,18.0,0.0,0.0,16.0,1.0,0.0,28.5,4.0,0.0,0.0,0.0,0.662,0.801,0.0,14.8,0.0,0.0,0.0,,0.0,0.0,16.0,-6.0,-7.199999999999999,71.6,59.0,32.0,32.0,32.0,32.0,60.8,62.6,60.8,64.4,60.8,62.6,60.8,64.4,32.0,32.0,58.64,21.2,19.04,0.0017777777777777779,0.0843333333333334,0.0,433.4,2026-02-22 15:00:12-08:00
78.06,1.0,8.0,2026-02-22 23:01:23,37.0816,-121.59956,311.0,0.0,124.9,-12.6,0.0,,0.0,0.0,0.0,10.9,-0.9,21.0,0.0,-43.0,0.1,-0.01,1.0,0.0,-6.0,22.0,0.0,30.06,778.0,0.0,0.0,133.0,0.0,0.0,0.0,0.0,0.0,0.0,0.0,0.0,0.0,0.0,0.0,0.0,0.0,0.0,0.0,0.0,0.0,0.0,0.0,0.0,0.0,0.0,0.0,0.0,0.0,15.0,0.0,0.0,30.3,0.0,0.0,0.0,28.5,0.0,0.0,30.0,0.0,0.0,-0.7,2.2,1.2,0.0,0.0,0.0,0.0,16.0,17.0,16.0,18.0,16.0,17.0,16.0,18.0,0.0,0.0,16.0,1.0,0.0,28.5,4.0,0.0,0.0,0.0,0.662,0.801,0.0,14.8,0.0,0.0,0.0,,0.0,0.0,16.0,-6.0,-7.199999999999999,71.6,59.0,32.0,32.0,32.0,32.0,60.8,62.6,60.8,64.4,60.8,62.6,60.8,64.4,32.0,32.0,58.64,21.2,19.04,0.0017777777777777779,0.0843333333333334,0.0,433.4,2026-02-22 15:00:12-08:00
79.06,1.0,8.0,2026-02-22 23:01:24,37.0816,-121.59956,311.0,0.0,124.9,-12.6,0.0,,0.0,0.0,0.0,10.9,-0.9,21.0,0.0,-43.0,0.1,-0.01,1.0,0.0,-4.0,22.0,0.0,30.06,778.0,0.0,0.0,133.0,0.0,0.0,0.0,0.0,0.0,0.0,0.0,0.0,0.0,0.0,0.0,0.0,0.0,0.0,0.0,0.0,0.0,0.0,0.0,0.0,0.0,0.0,0.0,0.0,0.0,15.0,0.0,0.0,30.3,0.0,0.0,0.0,28.4,0.0,0.0,30.0,0.0,0.0,-0.7,2.2,1.2,0.0,0.0,0.0,0.0,16.0,17.0,16.0,17.0,16.0,17.0,16.0,18.0,0.0,0.0,16.0,1.0,0.0,28.4,4.0,0.0,0.0,0.0,0.662,0.801,0.0,14.8,0.0,0.0,0.0,,0.0,0.0,16.0,-6.0,-7.199999999999999,71.6,59.0,32.0,32.0,32.0,32.0,60.8,62.6,60.8,62.6,60.8,62.6,60.8,64.4,32.0,32.0,58.64,21.2,19.04,0.0017777777777777779,0.0843333333333334,0.0,433.4,2026-02-22 15:00:12-08:00
80.06,1.0,8.0,2026-02-22 23:01:25,37.0816,-121.59956,312.0,0.0,124.9,-12.6,0.0,,0.0,0.0,0.0,10.9,-0.8,21.1,0.0,-43.0,0.1,-0.02,1.0,0.0,-38.0,22.0,0.0,30.06,787.0,0.0,0.0,133.0,0.0,0.0,0.0,0.0,0.0,0.0,0.0,0.0,0.0,0.0,0.0,0.0,0.0,0.0,0.0,0.0,0.0,0.0,0.0,0.0,0.0,0.0,0.0,0.0,0.0,12.0,138.0,138.0,30.0,0.0,0.0,0.0,28.5,0.0,0.0,30.0,0.0,0.0,-0.7,2.2,1.2,0.0,0.0,0.0,0.0,12.0,12.0,12.0,12.0,12.0,12.0,12.0,12.0,0.0,0.0,16.0,1.0,0.0,28.5,4.0,0.0,0.0,0.0,0.66,0.801,0.0,12.3,0.0,0.0,0.0,,0.0,138.0,12.0,-10.0,-9.7,71.6,53.6,32.0,32.0,32.0,32.0,53.6,53.6,53.6,53.6,53.6,53.6,53.6,53.6,32.0,32.0,54.14,14.0,14.54,0.0017777777777777779,0.0843333333333334,0.0,433.4,2026-02-22 15:00:12-08:00
81.06,1.0,8.0,2026-02-22 23:01:26,37.0816,-121.59956,312.0,0.0,124.9,-12.6,0.0,,0.0,0.0,0.0,10.9,-0.8,21.1,0.0,-43.0,0.1,-0.01,1.0,0.0,-60.0,22.0,0.0,30.06,787.0,0.0,0.0,133.0,0.0,0.0,0.0,0.0,0.0,0.0,0.0,0.0,0.0,0.0,0.0,0.0,0.0,0.0,0.0,0.0,0.0,0.0,0.0,0.0,0.0,0.0,0.0,0.0,1.0,13.0,136.0,136.0,29.7,0.0,0.0,0.0,26.7,0.0,0.0,30.0,0.0,0.0,-0.7,2.2,1.2,0.0,0.0,0.0,0.0,12.0,12.0,12.0,12.0,12.0,12.0,13.0,13.0,0.0,0.0,16.0,1.0,0.0,26.7,4.0,0.0,0.0,0.0,0.66,0.801,1.0,12.6,0.0,0.0,0.0,,0.0,136.0,12.25,-9.75,-9.4,71.6,55.4,32.0,32.0,32.0,32.0,53.6,53.6,53.6,53.6,53.6,53.6,55.4,55.4,32.0,32.0,54.68,14.45,15.079999999999998,0.0017777777777777779,0.0843333333333334,0.0,433.4,2026-02-22 15:00:12-08:00
82.06,1.0,8.0,2026-02-22 23:01:27,37.0816,-121.59956,313.0,0.0,124.9,-12.6,0.0,,0.0,0.0,0.0,10.9,-0.8,21.1,0.0,-43.0,0.1,-0.02,1.0,0.0,-45.0,22.0,0.0,30.06,787.0,0.0,0.0,133.0,0.0,0.0,0.0,0.0,0.0,0.0,0.0,0.0,0.0,0.0,0.0,0.0,0.0,0.0,0.0,0.0,0.0,0.0,0.0,0.0,0.0,0.0,0.0,0.0,1.0,12.0,138.0,138.0,29.7,0.5,0.0,0.5,21.1,0.0,0.0,30.0,0.0,0.0,-0.7,2.2,1.2,0.0,0.0,0.0,0.0,12.0,12.0,12.0,12.0,12.0,12.0,12.0,12.0,0.0,0.0,16.0,1.0,0.0,21.1,4.0,0.0,0.0,0.0,0.66,0.801,1.2,12.4,0.0,0.0,0.0,,0.0,138.0,12.0,-10.0,-9.6,71.6,53.6,32.0,32.0,32.0,32.0,53.6,53.6,53.6,53.6,53.6,53.6,53.6,53.6,32.0,32.0,54.32,14.0,14.720000000000002,0.0018472222222222223,0.0843333333333334,0.0,433.4,2026-02-22 15:00:12-08:00
83.06,1.0,8.0,2026-02-22 23:01:28,37.0816,-121.59957,313.0,0.0,124.9,-12.6,0.0,,0.0,0.0,0.0,10.9,-0.8,21.1,0.0,-43.0,0.1,-0.01,1.0,0.0,-49.0,22.0,0.0,30.06,787.0,0.0,0.0,133.0,0.0,0.0,0.0,0.0,0.0,0.0,0.0,0.0,0.0,0.0,0.0,0.0,0.0,0.0,0.0,0.0,0.0,0.0,0.0,0.0,0.0,0.0,0.0,0.0,2.0,13.0,159.0,159.0,29.5,0.9,0.0,0.9,22.4,0.0,0.0,30.0,0.0,0.0,-0.7,2.2,1.2,0.0,0.0,0.0,0.0,12.0,13.0,12.0,12.0,12.0,12.0,13.0,13.0,0.0,0.0,16.0,1.0,0.0,22.4,4.0,0.0,0.0,0.0,0.66,0.801,1.5,12.7,0.0,0.0,0.0,,0.0,159.0,12.25,-9.75,-9.3,71.6,55.4,32.0,32.0,32.0,32.0,53.6,55.4,53.6,53.6,53.6,53.6,55.4,55.4,32.0,32.0,54.86,14.45,15.259999999999998,0.002041666666666667,0.0843333333333334,0.0,433.4,2026-02-22 15:00:12-08:00
84.06,1.0,8.0,2026-02-22 23:01:29,37.0816,-121.59957,313.0,0.0,124.9,-12.6,0.0,,0.0,0.0,0.0,10.9,-0.8,21.1,0.0,-43.0,0.1,-0.01,1.0,0.0,-58.0,22.0,0.0,30.06,787.0,0.0,0.0,133.0,0.0,0.0,0.0,0.0,0.0,0.0,0.0,0.0,0.0,0.0,0.0,0.0,0.0,0.0,0.0,0.0,0.0,0.0,0.0,0.0,0.0,0.0,0.0,0.0,3.0,15.0,308.0,308.0,28.0,1.8,0.0,1.8,23.9,0.0,0.0,30.0,0.0,0.0,-0.7,2.2,1.2,0.0,0.0,0.0,0.0,16.0,45.0,16.0,34.0,16.0,17.0,17.0,17.0,0.0,0.0,16.0,1.0,0.0,23.9,4.0,0.0,0.0,0.0,0.673,0.802,2.7,14.9,0.0,0.0,6.0,L,0.0,308.0,16.25,-5.75,-7.1,71.6,59.0,32.0,32.0,32.0,32.0,60.8,113.0,60.8,93.2,60.8,62.6,62.6,62.6,32.0,32.0,58.82,21.65,19.22,0.002416666666666667,0.0843333333333334,0.0,433.4,2026-02-22 15:00:12-08:00
85.06,1.0,8.0,2026-02-22 23:01:30,37.0816,-121.59957,314.0,0.0,124.9,-12.6,0.0,,0.0,0.0,0.0,10.9,-0.9,21.2,0.0,-43.0,0.1,-0.03,1.0,0.0,-70.0,22.0,0.0,30.06,788.0,0.0,0.0,133.0,0.0,0.0,0.0,0.0,0.0,0.0,0.0,0.0,0.0,0.0,0.0,0.0,0.0,0.0,0.0,0.0,0.0,0.0,0.0,0.0,0.0,0.0,0.0,0.0,4.0,15.0,206.0,206.0,29.1,2.1,0.0,2.1,23.7,0.0,0.0,30.0,0.0,0.0,-0.7,2.2,1.2,0.0,0.0,0.0,0.0,16.0,42.0,16.0,52.0,16.0,16.0,17.0,26.0,0.0,0.0,16.0,1.0,0.0,23.7,4.0,0.0,0.0,0.0,0.665,0.802,4.3,14.8,0.0,0.0,13.0,L,0.0,206.0,16.25,-5.75,-7.199999999999999,71.6,59.0,32.0,32.0,32.0,32.0,60.8,107.6,60.8,125.6,60.8,60.8,62.6,78.8,32.0,32.0,58.64,21.65,19.04,0.0029583333333333336,0.0843333333333334,0.0,433.4,2026-02-22 15:00:12-08:00
86.06,1.0,8.0,2026-02-22 23:01:31,37.0816,-121.59957,314.0,0.1,124.9,-12.6,0.0,,0.0,0.0,0.0,10.9,-0.8,21.2,0.0,-43.0,0.1,-0.02,1.0,0.0,-90.0,22.0,0.0,30.06,788.0,0.0,0.0,133.0,0.0,0.0,0.0,0.0,0.0,0.0,0.0,0.0,0.0,0.0,0.0,0.0,0.0,0.0,0.0,0.0,0.0,0.0,0.0,0.0,0.0,0.0,0.0,0.0,5.0,15.0,68.0,68.0,30.0,2.0,0.0,2.0,22.8,0.0,0.0,30.0,0.0,0.0,-0.7,2.2,1.2,0.0,0.0,0.0,0.0,16.0,41.0,17.0,53.0,16.0,16.0,17.0,26.0,0.0,0.0,16.0,0.0,0.0,22.8,4.0,0.0,0.0,0.0,0.665,0.802,5.2,14.8,0.0,0.0,0.0,,0.0,68.0,16.5,-5.5,-7.199999999999999,71.6,59.0,32.0,32.0,32.0,32.0,60.8,105.8,62.6,127.4,60.8,60.8,62.6,78.8,32.0,32.0,58.64,22.1,19.04,0.003527777777777778,0.16866666666666674,0.05,433.4,2026-02-22 15:00:12-08:00
87.06,1.0,8.0,2026-02-22 23:01:32,37.0816,-121.59957,315.0,0.0,124.9,-12.6,0.0,,0.0,0.0,0.0,10.9,-0.8,21.2,0.0,-43.0,0.1,-0.02,1.0,0.0,-88.0,22.0,0.0,30.06,788.0,0.0,0.0,133.0,0.0,0.0,0.0,0.0,0.0,0.0,0.0,0.0,0.0,0.0,0.0,0.0,0.0,0.0,0.0,0.0,0.0,0.0,0.0,0.0,0.0,0.0,0.0,0.0,6.0,15.0,0.0,0.0,30.1,1.8,0.0,1.8,22.9,0.0,0.0,30.0,0.0,0.0,-0.7,2.2,1.2,0.0,0.0,0.0,0.0,16.0,40.0,17.0,52.0,16.0,16.0,17.0,26.0,0.0,0.0,16.0,0.0,0.0,22.9,4.0,0.0,0.0,0.0,0.665,0.801,6.0,14.8,0.0,0.0,0.0,,0.0,0.0,16.5,-5.5,-7.199999999999999,71.6,59.0,32.0,32.0,32.0,32.0,60.8,104.0,62.6,125.6,60.8,60.8,62.6,78.8,32.0,32.0,58.64,22.1,19.04,0.004055555555555555,0.25300000000000006,0.0,433.4,2026-02-22 15:00:12-08:00
88.06,1.0,8.0,2026-02-22 23:01:33,37.0816,-121.59957,315.0,0.0,124.9,-12.6,0.0,,0.0,0.0,0.0,10.9,-0.7,21.2,0.0,-43.0,0.1,-0.02,1.0,0.0,-72.0,22.0,0.0,30.06,797.0,0.0,0.0,133.0,0.0,0.0,0.0,0.0,0.0,0.0,0.0,0.0,0.0,0.0,0.0,0.0,0.0,0.0,0.0,0.0,0.0,0.0,0.0,0.0,0.0,0.0,0.0,0.0,7.0,15.0,0.0,0.0,30.1,1.8,0.0,1.8,22.9,0.0,0.0,30.0,0.0,0.0,-0.7,2.2,1.2,0.0,0.0,0.0,0.0,16.0,40.0,17.0,52.0,16.0,16.0,17.0,26.0,0.0,0.0,16.0,0.0,0.0,22.9,4.0,0.0,0.0,0.0,0.665,0.801,6.6,14.8,0.0,0.0,0.0,,0.0,0.0,16.5,-5.5,-7.199999999999999,71.6,59.0,32.0,32.0,32.0,32.0,60.8,104.0,62.6,125.6,60.8,60.8,62.6,78.8,32.0,32.0,58.64,22.1,19.04,0.004555555555555556,0.25300000000000006,0.0,433.4,2026-02-22 15:00:12-08:00
89.06,1.0,8.0,2026-02-22 23:01:34,37.0816,-121.59957,315.0,0.0,124.9,-12.6,0.0,,0.0,0.0,0.0,10.9,-0.9,21.2,0.0,-43.0,0.1,-0.02,1.0,0.0,-38.0,22.0,0.0,30.06,797.0,0.0,0.0,133.0,0.0,0.0,0.0,0.0,0.0,0.0,0.0,0.0,0.0,0.0,0.0,0.0,0.0,0.0,0.0,0.0,0.0,0.0,0.0,0.0,0.0,0.0,0.0,0.0,7.0,15.0,0.0,0.0,30.3,0.0,0.0,0.0,23.0,0.0,0.0,30.0,0.0,0.0,-0.7,2.2,1.2,0.0,0.0,0.0,0.0,16.0,39.0,17.0,52.0,16.0,16.0,17.0,26.0,0.0,0.0,15.0,0.0,0.0,23.0,4.0,0.0,0.0,0.0,0.665,0.801,7.2,14.8,0.0,0.0,0.0,,0.0,0.0,16.5,-5.5,-7.199999999999999,71.6,59.0,32.0,32.0,32.0,32.0,60.8,102.2,62.6,125.6,60.8,60.8,62.6,78.8,32.0,32.0,58.64,22.1,19.04,0.004805555555555556,0.25300000000000006,0.0,433.4,2026-02-22 15:00:12-08:00
90.06,1.0,8.0,2026-02-22 23:01:35,37.0816,-121.59957,316.0,0.0,124.9,-12.6,0.0,,0.0,0.0,0.0,10.9,-0.8,21.2,0.0,-43.0,0.1,-0.02,1.0,0.0,-8.0,22.0,0.0,30.06,797.0,0.0,0.0,133.0,0.0,0.0,0.0,0.0,0.0,0.0,0.0,0.0,0.0,0.0,0.0,0.0,0.0,0.0,0.0,0.0,0.0,0.0,0.0,0.0,0.0,0.0,0.0,0.0,8.0,15.0,0.0,0.0,30.3,0.0,0.0,0.0,23.0,0.0,0.0,30.0,0.0,0.0,-0.7,2.2,1.2,0.0,0.0,0.0,0.0,16.0,39.0,17.0,51.0,16.0,16.0,17.0,26.0,0.0,0.0,15.0,0.0,0.0,23.0,4.0,0.0,0.0,0.0,0.664,0.801,7.6,14.8,0.0,0.0,0.0,,0.0,0.0,16.5,-5.5,-7.199999999999999,71.6,59.0,32.0,32.0,32.0,32.0,60.8,102.2,62.6,123.8,60.8,60.8,62.6,78.8,32.0,32.0,58.64,22.1,19.04,0.004805555555555556,0.25300000000000006,0.0,433.4,2026-02-22 15:00:12-08:00
