Session Time,GPS Fix Quality,Number of Satellites,GPS Date & Time,Latitude (deg),Longitude (deg),GPS Altitude (feet),Ground Speed (knots),Ground Track (deg),Mag Var (deg),Cross Track Error (NM),Destination Waypoint ID,Range to Destination (NM),Bearing to Destination (deg),System Time,Pitch (deg),Roll (deg),Magnetic Heading (deg),Indicated Airspeed (knots),Pressure Altitude (ft),Turn Rate (deg/s),Lateral Accel (g),Vertical Accel(g),Angle of Attack (%),Vertical Speed (ft/min),OAT (deg C),True Airspeed (knots),Barometer Setting (inHg),Density Altitude (ft),Wind Direction (deg),Wind Speed (knots),Heading Bug (deg),Altitude Bug (ft),Airspeed Bug (knots),Vertical Speed Bug (ft/min),Course (deg),CDI Source Type,CDI Source Port,CDI Scale (NM),CDI Deflection (%),Glideslope (%),AP Engaged,AP Roll Mode,AP Roll Force,AP Roll Position (steps),AP Roll Slip (bool),AP Pitch Force,AP Pitch Position (steps),AP Pitch Slip (bool),AP Yaw Force,AP Yaw Position,AP Yaw Slip (bool),Transponder Status,Transponder Reply (bool),Transponder Identing (bool),Transponder Code (octal),Oil Pressure (PSI),Oil Temp (deg C),RPM L,RPM R,Manifold Pressure (inHg),Fuel Flow 1 (gal/hr),Fuel Flow 2 (gal/hr),Total Fuel Flow (gal/hr),Fuel Pressure (PSI),Fuel Level L (gal),Fuel Level R (gal),Fuel Remaining (gal),Volts 1,Volts 2,Amps,Hobbs Time,Tach Time,Thermocouple 1 (deg C),Thermocouple 2 (deg C),Thermocouple 3 (deg C),Thermocouple 4 (deg C),CHT 4 (deg C),EGT 4 (deg C),CHT 3 (deg C),EGT 3 (deg C),CHT 2 (deg C),EGT 2 (deg C),CHT 1 (deg C),EGT 1 (deg C),Thermocouple 13 (deg C),Thermocouple 14 (deg C),ELEV POSITION (%),CO PPM PRESSURE (PSI),GP Input 3,FUEL PRESSURE (PSI),AILERN POSITION (%),CANOPY CONTACT (V),GP Input 7,GP Input 8,LEFT LEVEL (Sensor V),RIGHT LEVEL (Sensor V),OIL PRESSURE (PSI),OIL TEMPERATURE (deg C),GP Input 13,Contacts,Percent Power,EGT Leaning State,Unnamed: 103,RPM,Flight ID
7.06,0.0,0.0,2026-02-22 23:00:12,37.08152,-121.59959,,0.1,124.9,-17.1,,,,,23:00:12,10.8,-0.8,21.2,0.0,7.0,0.0,-0.01,1.0,,-58.0,21.0,0.0,30.06,712.0,,,133.0,,,,,0.0,0.0,,,,,,,,,,,,,,,,,,,0.0,15.0,0.0,0.0,30.3,0.0,,0.0,0.2,,,30.0,0.0,0.0,-0.7,2.2,1.2,,,,,15.0,17.0,15.0,17.0,16.0,17.0,16.0,17.0,,,15.0,254.4,,0.2,4.0,0.0,,,0.662,0.8,0.0,14.8,,,,,,0.0,2026-02-22 15:00:12-08:00
8.06,1.0,7.0,2026-02-22 23:00:13,37.08166,-121.5996,327.0,0.0,124.9,-12.6,,,,,23:00:12,10.8,-0.7,21.2,0.0,6.0,0.1,-0.01,1.0,,-58.0,21.0,0.0,30.06,712.0,,,133.0,,,,,0.0,0.0,,,,,,,,,,,,,,,,,,,0.0,15.0,0.0,0.0,30.3,0.0,,0.0,0.2,,,30.0,0.0,0.0,-0.7,2.2,1.2,,,,,15.0,17.0,15.0,17.0,15.0,17.0,16.0,17.0,,,15.0,254.4,,0.2,4.0,0.0,,,0.662,0.8,0.0,14.8,,,,,,0.0,2026-02-22 15:00:12-08:00
9.06,1.0,7.0,2026-02-22 23:00:14,37.08165,-121.5996,292.0,0.0,124.9,-12.6,,,,,23:00:13,10.8,-0.8,21.2,0.0,6.0,0.1,-0.01,1.0,,-50.0,21.0,0.0,30.06,711.0,,,133.0,,,,,0.0,0.0,,,,,,,,,,,,,,,,,,,0.0,15.0,0.0,0.0,30.3,0.0,,0.0,0.2,,,30.0,0.0,0.0,-0.7,2.2,1.2,,,,,15.0,17.0,15.0,17.0,15.0,17.0,16.0,17.0,,,15.0,254.4,,0.2,4.0,0.0,,,0.662,0.8,0.0,14.8,,,,,,0.0,2026-02-22 15:00:12-08:00
10.06,1.0,7.0,2026-02-22 23:00:15,37.08165,-121.5996,294.0,0.0,124.9,-12.6,,,,,23:00:14,10.8,-0.8,21.2,0.0,2.0,0.1,-0.01,1.0,,-104.0,21.0,0.0,30.06,711.0,,,133.0,,,,,0.0,0.0,,,,,,,,,,,,,,,,,,,0.0,15.0,0.0,0.0,30.3,0.0,,0.0,0.2,,,30.0,0.0,0.0,-0.7,2.2,1.2,,,,,15.0,17.0,15.0,17.0,15.0,17.0,16.0,17.0,,,15.0,254.4,,0.2,4.0,0.0,,,0.662,0.8,0.0,14.8,,,,,,0.0,2026-02-22 15:00:12-08:00
11.06,1.0,7.0,2026-02-22 23:00:16,37.08164,-121.59959,297.0,0.0,124.9,-12.6,,,,,23:00:15,10.8,-0.8,21.2,0.0,2.0,0.1,-0.01,1.0,,-61.0,21.0,0.0,30.06,711.0,,,133.0,,,,,0.0,0.0,,,,,,,,,,,,,,,,,,,0.0,15.0,0.0,0.0,30.3,0.0,,0.0,0.2,,,30.0,0.0,0.0,-0.7,2.2,1.2,,,,,15.0,17.0,15.0,17.0,15.0,17.0,16.0,17.0,,,15.0,254.3,,0.2,4.0,0.0,,,0.662,0.8,0.0,14.8,,,,,,0.0,2026-02-22 15:00:12-08:00
12.06,1.0,7.0,2026-02-22 23:00:17,37.08164,-121.59959,300.0,0.0,124.9,-12.6,,,,,23:00:16,10.8,-0.8,21.2,0.0,2.0,0.1,-0.01,1.0,,-55.0,21.0,0.0,30.06,716.0,,,133.0,,,,,0.0,0.0,,,,,,,,,,,,,,,,,,,0.0,15.0,0.0,0.0,30.3,0.0,,0.0,0.2,,,30.0,0.0,0.0,-0.7,2.2,1.2,,,,,15.0,17.0,15.0,17.0,15.0,17.0,16.0,17.0,,,15.0,254.3,,0.2,4.0,0.0,,,0.662,0.8,0.0,14.8,,,,,,0.0,2026-02-22 15:00:12-08:00
13.06,1.0,8.0,2026-02-22 23:00:18,37.08163,-121.59959,304.0,0.0,124.9,-12.6,,,,,23:00:17,10.8,-0.7,21.3,0.0,2.0,0.1,-0.01,1.0,,-44.0,21.0,0.0,30.06,716.0,,,133.0,,,,,0.0,0.0,,,,,,,,,,,,,,,,,,,0.0,15.0,0.0,0.0,30.3,0.0,,0.0,0.2,,,30.0,0.0,0.0,-0.7,2.2,1.2,,,,,15.0,17.0,15.0,17.0,15.0,17.0,16.0,17.0,,,15.0,254.3,,0.2,4.0,0.0,,,0.66,0.8,0.0,14.8,,,,,,0.0,2026-02-22 15:00:12-08:00
14.06,1.0,8.0,2026-02-22 23:00:19,37.08163,-121.59959,306.0,0.0,124.9,-12.6,,,,,23:00:18,10.8,-0.8,21.2,0.0,2.0,0.0,-0.01,1.0,,-22.0,21.0,0.0,30.06,716.0,,,133.0,,,,,0.0,0.0,,,,,,,,,,,,,,,,,,,0.0,15.0,0.0,0.0,30.3,0.0,,0.0,0.2,,,30.0,0.0,0.0,-0.7,2.2,1.2,,,,,15.0,17.0,15.0,17.0,15.0,17.0,16.0,17.0,,,15.0,254.3,,0.2,4.0,0.0,,,0.662,0.8,0.0,14.8,,,,,,0.0,2026-02-22 15:00:12-08:00
15.06,1.0,8.0,2026-02-22 23:00:20,37.08163,-121.59959,308.0,0.0,124.9,-12.6,,,,,23:00:19,10.9,-0.8,21.3,0.0,1.0,0.1,-0.01,1.0,,-35.0,21.0,0.0,30.06,715.0,,,133.0,,,,,0.0,0.0,,,,,,,,,,,,,,,,,,,0.0,15.0,0.0,0.0,30.3,0.0,,0.0,0.2,,,30.0,0.0,0.0,-0.7,2.2,1.2,,,,,15.0,17.0,15.0,17.0,15.0,17.0,16.0,17.0,,,15.0,254.3,,0.2,4.0,0.0,,,0.662,0.8,0.0,14.8,,,,,,0.0,2026-02-22 15:00:12-08:00
16.06,1.0,8.0,2026-02-22 23:00:21,37.08162,-121.59959,312.0,0.0,124.9,-12.6,,,,,23:00:20,10.9,-0.8,21.3,0.0,1.0,0.1,-0.01,1.0,,-28.0,21.0,0.0,30.06,716.0,,,133.0,,,,,0.0,0.0,,,,,,,,,,,,,,,,,,,0.0,15.0,0.0,0.0,30.3,0.0,,0.0,0.2,,,30.0,0.0,0.0,-0.7,2.2,1.2,,,,,16.0,17.0,16.0,17.0,16.0,17.0,16.0,17.0,,,15.0,254.3,,0.2,4.0,0.0,,,0.66,0.8,0.0,14.8,,,,,,0.0,2026-02-22 15:00:12-08:00
17.06,1.0,8.0,2026-02-22 23:00:22,37.08162,-121.59959,315.0,0.0,124.9,-12.6,,,,,23:00:21,10.9,-0.8,21.3,0.0,1.0,0.1,-0.01,1.0,,-16.0,21.0,0.0,30.06,716.0,,,133.0,,,,,0.0,0.0,,,,,,,,,,,,,,,,,,,0.0,15.0,0.0,0.0,30.3,0.0,,0.0,0.2,,,30.0,0.0,0.0,-0.7,2.2,1.2,,,,,15.0,17.0,15.0,17.0,15.0,17.0,16.0,17.0,,,15.0,254.3,,0.2,4.0,0.0,,,0.662,0.8,0.0,14.8,,,,,,0.0,2026-02-22 15:00:12-08:00
18.06,1.0,8.0,2026-02-22 23:00:23,37.08162,-121.5996,317.0,0.0,124.9,-12.6,,,,,23:00:22,10.9,-0.8,21.3,0.0,-1.0,0.1,-0.01,1.0,,-62.0,21.0,0.0,30.06,716.0,,,133.0,,,,,0.0,0.0,,,,,,,,,,,,,,,,,,,0.0,15.0,0.0,0.0,30.3,0.0,,0.0,0.2,,,30.0,0.0,0.0,-0.7,2.2,1.2,,,,,16.0,17.0,16.0,17.0,16.0,17.0,16.0,17.0,,,15.0,254.3,,0.2,4.0,0.0,,,0.662,0.8,0.0,14.8,,,,,,0.0,2026-02-22 15:00:12-08:00
19.06,1.0,8.0,2026-02-22 23:00:24,37.08162,-121.5996,321.0,0.0,124.9,-12.6,,,,,23:00:23,10.9,-0.7,21.3,0.0,-2.0,0.1,-0.01,1.0,,-66.0,21.0,0.0,30.06,724.0,,,133.0,,,,,0.0,0.0,,,,,,,,,,,,,,,,,,,0.0,15.0,0.0,0.0,30.3,0.0,,0.0,0.2,,,30.0,0.0,0.0,-0.7,2.2,1.2,,,,,16.0,17.0,16.0,17.0,16.0,17.0,16.0,17.0,,,15.0,254.3,,0.2,4.0,0.0,,,0.662,0.8,0.0,14.8,,,,,,0.0,2026-02-22 15:00:12-08:00
20.06,1.0,8.0,2026-02-22 23:00:25,37.08162,-121.5996,324.0,0.0,124.9,-12.6,,,,,23:00:24,10.9,-0.7,21.3,0.0,-5.0,0.1,-0.01,1.0,,-107.0,21.0,0.0,30.06,724.0,,,133.0,,,,,0.0,0.0,,,,,,,,,,,,,,,,,,,0.0,15.0,0.0,0.0,30.3,0.0,,0.0,0.2,,,30.0,0.0,0.0,-0.7,2.2,1.2,,,,,16.0,17.0,16.0,17.0,16.0,17.0,16.0,17.0,,,15.0,254.3,,0.2,4.0,0.0,,,0.662,0.8,0.0,14.8,,,,,,0.0,2026-02-22 15:00:12-08:00
21.06,1.0,8.0,2026-02-22 23:00:26,37.08162,-121.5996,327.0,0.0,124.9,-12.6,,,,,23:00:25,10.9,-0.8,21.2,0.0,-7.0,0.1,-0.01,1.0,,-138.0,21.0,0.0,30.06,724.0,,,133.0,,,,,0.0,0.0,,,,,,,,,,,,,,,,,,,0.0,15.0,0.0,0.0,30.3,0.0,,0.0,0.2,,,30.0,0.0,0.0,-0.7,2.2,1.2,,,,,16.0,17.0,16.0,17.0,16.0,17.0,16.0,17.0,,,15.0,254.3,,0.2,4.0,0.0,,,0.662,0.8,0.0,14.8,,,,,,0.0,2026-02-22 15:00:12-08:00
22.06,1.0,8.0,2026-02-22 23:00:27,37.08161,-121.5996,329.0,0.0,124.9,-12.6,,,,,23:00:26,10.8,-0.8,21.2,0.0,-8.0,0.0,-0.01,1.0,,-105.0,21.0,0.0,30.06,716.0,,,133.0,,,,,0.0,0.0,,,,,,,,,,,,,,,,,,,0.0,15.0,0.0,0.0,30.3,0.0,,0.0,0.0,,,30.0,0.0,0.0,-0.7,2.2,1.2,,,,,16.0,17.0,16.0,17.0,16.0,17.0,16.0,17.0,,,15.0,254.3,,0.0,4.0,0.0,,,0.662,0.8,0.0,14.8,,,,,,0.0,2026-02-22 15:00:12-08:00
23.06,1.0,8.0,2026-02-22 23:00:28,37.08161,-121.5996,332.0,0.0,124.9,-12.6,,,,,23:00:27,10.8,-0.8,21.1,0.0,-10.0,0.0,-0.01,1.0,,-106.0,21.0,0.0,30.06,716.0,,,133.0,,,,,0.0,0.0,,,,,,,,,,,,,,,,,,,0.0,15.0,0.0,0.0,30.3,0.0,,0.0,0.0,,,30.0,0.0,0.0,-0.7,2.2,1.2,,,,,16.0,17.0,16.0,17.0,16.0,17.0,16.0,17.0,,,15.0,254.3,,0.0,4.0,0.0,,,0.66,0.8,0.0,14.8,,,,,,0.0,2026-02-22 15:00:12-08:00
24.06,1.0,8.0,2026-02-22 23:00:29,37.08161,-121.59961,334.0,0.0,124.9,-12.6,,,,,23:00:28,10.8,-0.9,21.1,0.0,-12.0,0.0,-0.01,1.0,,-119.0,21.0,0.0,30.06,716.0,,,133.0,,,,,0.0,0.0,,,,,,,,,,,,,,,,,,,0.0,15.0,0.0,0.0,30.3,0.0,,0.0,0.0,,,30.0,0.0,0.0,-0.7,2.2,1.2,,,,,16.0,17.0,16.0,17.0,16.0,17.0,16.0,17.0,,,15.0,254.3,,0.0,4.0,0.0,,,0.662,0.8,0.0,14.8,,,,,,0.0,2026-02-22 15:00:12-08:00
25.06,1.0,8.0,2026-02-22 23:00:30,37.08161,-121.59961,337.0,0.0,124.9,-12.6,,,,,23:00:29,10.8,-0.9,21.1,0.0,-14.0,0.1,-0.01,1.0,,-130.0,21.0,0.0,30.06,720.0,,,133.0,,,,,0.0,0.0,,,,,,,,,,,,,,,,,,,0.0,15.0,0.0,0.0,30.3,0.0,,0.0,0.0,,,30.0,0.0,0.0,-0.7,2.2,1.2,,,,,16.0,17.0,16.0,17.0,16.0,17.0,16.0,17.0,,,15.0,254.3,,0.0,4.0,0.0,,,0.662,0.801,0.0,14.8,,,,,,0.0,2026-02-22 15:00:12-08:00
26.06,1.0,8.0,2026-02-22 23:00:31,37.08161,-121.59961,339.0,0.0,124.9,-12.6,,,,,23:00:30,10.8,-0.9,21.1,0.0,-16.0,0.1,-0.01,1.0,,-147.0,21.0,0.0,30.06,720.0,,,133.0,,,,,0.0,0.0,,,,,,,,,,,,,,,,,,,0.0,15.0,0.0,0.0,30.3,0.0,,0.0,0.0,,,30.0,0.0,0.0,-0.7,2.2,1.2,,,,,16.0,17.0,16.0,17.0,16.0,17.0,16.0,17.0,,,15.0,254.3,,0.0,4.0,0.0,,,0.662,0.801,0.0,14.8,,,,,,0.0,2026-02-22 15:00:12-08:00
27.06,1.0,8.0,2026-02-22 23:00:32,37.0816,-121.59961,341.0,0.0,124.9,-12.6,,,,,23:00:31,10.9,-0.8,21.2,0.0,-20.0,0.1,-0.01,1.0,,-170.0,21.0,0.0,30.06,720.0,,,133.0,,,,,0.0,0.0,,,,,,,,,,,,,,,,,,,0.0,15.0,0.0,0.0,30.3,0.0,,0.0,0.0,,,30.0,0.0,0.0,-0.7,2.2,1.2,,,,,16.0,17.0,16.0,17.0,16.0,17.0,16.0,17.0,,,15.0,254.3,,0.0,4.0,0.0,,,0.662,0.8,0.0,14.8,,,,,,0.0,2026-02-22 15:00:12-08:00
28.06,1.0,8.0,2026-02-22 23:00:33,37.0816,-121.59961,342.0,0.0,124.9,-12.6,,,,,23:00:32,10.9,-0.8,21.2,0.0,-22.0,0.1,-0.01,1.0,,-166.0,21.0,0.0,30.06,718.0,,,133.0,,,,,0.0,0.0,,,,,,,,,,,,,,,,,,,0.0,15.0,0.0,0.0,30.3,0.0,,0.0,0.0,,,30.0,0.0,0.0,-0.7,2.2,1.2,,,,,16.0,17.0,16.0,17.0,16.0,17.0,16.0,17.0,,,16.0,254.3,,0.0,4.0,0.0,,,0.662,0.801,0.0,14.8,,,,,,0.0,2026-02-22 15:00:12-08:00
29.06,1.0,8.0,2026-02-22 23:00:34,37.0816,-121.59961,343.0,0.0,124.9,-12.6,,,,,23:00:33,10.9,-0.9,21.1,0.0,-24.0,0.1,-0.01,1.0,,-150.0,21.0,0.0,30.06,718.0,,,133.0,,,,,0.0,0.0,,,,,,,,,,,,,,,,,,,0.0,15.0,0.0,0.0,30.3,0.0,,0.0,2.4,,,30.0,0.0,0.0,-0.6,2.2,1.2,,,,,16.0,17.0,16.0,17.0,16.0,17.0,16.0,17.0,,,16.0,254.3,,2.4,4.0,0.0,,,0.662,0.801,0.0,14.8,,,,,,0.0,2026-02-22 15:00:12-08:00
30.06,1.0,8.0,2026-02-22 23:00:35,37.0816,-121.59961,344.0,0.0,124.9,-12.6,,,,,23:00:34,10.9,-0.9,21.2,0.0,-25.0,0.1,-0.01,1.0,,-115.0,21.0,0.0,30.06,718.0,,,133.0,,,,,0.0,0.0,,,,,,,,,,,,,,,,,,,0.0,15.0,0.0,0.0,30.3,0.0,,0.0,29.1,,,30.0,0.0,0.0,-0.6,2.2,1.2,,,,,16.0,17.0,16.0,17.0,16.0,17.0,16.0,17.0,,,16.0,254.3,,29.1,4.0,0.0,,,0.662,0.801,0.0,14.8,,,,,,0.0,2026-02-22 15:00:12-08:00
31.06,1.0,8.0,2026-02-22 23:00:36,37.0816,-121.59961,345.0,0.0,124.9,-12.6,,,,,23:00:35,10.9,-0.9,21.1,0.0,-26.0,0.1,-0.01,1.0,,-90.0,21.0,0.0,30.06,713.0,,,133.0,,,,,0.0,0.0,,,,,,,,,,,,,,,,,,,0.0,15.0,0.0,0.0,30.3,0.0,,0.0,32.8,,,30.0,0.0,0.0,-0.6,2.2,1.2,,,,,16.0,17.0,16.0,17.0,16.0,17.0,16.0,17.0,,,16.0,254.3,,32.8,4.0,0.0,,,0.662,0.8,0.0,14.8,,,,,,0.0,2026-02-22 15:00:12-08:00
32.06,1.0,8.0,2026-02-22 23:00:37,37.0816,-121.59961,345.0,0.0,124.9,-12.6,,,,,23:00:36,10.9,-0.9,21.1,0.0,-26.0,0.1,-0.01,1.0,,-43.0,21.0,0.0,30.06,713.0,,,133.0,,,,,0.0,0.0,,,,,,,,,,,,,,,,,,,0.0,15.0,0.0,0.0,30.3,0.0,,0.0,33.7,,,30.0,0.0,0.0,-0.6,2.2,1.2,,,,,16.0,17.0,16.0,17.0,16.0,17.0,16.0,17.0,,,16.0,254.3,,33.7,4.0,0.0,,,0.662,0.8,0.0,14.8,,,,,,0.0,2026-02-22 15:00:12-08:00
33.06,1.0,8.0,2026-02-22 23:00:38,37.0816,-121.59961,345.0,0.0,124.9,-12.6,,,,,23:00:37,10.9,-0.9,21.1,0.0,-26.0,0.1,-0.01,1.0,,-35.0,21.0,0.0,30.06,713.0,,,133.0,,,,,0.0,0.0,,,,,,,,,,,,,,,,,,,0.0,15.0,0.0,0.0,30.3,0.3,,0.3,34.1,,,30.0,0.0,0.0,-0.6,2.2,1.2,,,,,16.0,17.0,16.0,17.0,16.0,17.0,16.0,17.0,,,16.0,254.3,,34.1,4.0,0.0,,,0.662,0.8,0.0,14.8,,,,,,0.0,2026-02-22 15:00:12-08:00
34.06,1.0,8.0,2026-02-22 23:00:39,37.0816,-121.59961,345.0,0.0,124.9,-12.6,,,,,23:00:38,10.9,-0.9,21.1,0.0,-26.0,0.1,-0.01,1.0,,-44.0,21.0,0.0,30.06,714.0,,,133.0,,,,,0.0,0.0,,,,,,,,,,,,,,,,,,,0.0,15.0,0.0,0.0,30.3,0.9,,0.9,33.8,,,30.0,0.0,0.0,-0.6,2.2,1.2,,,,,16.0,17.0,16.0,17.0,16.0,17.0,16.0,17.0,,,16.0,254.3,,33.8,4.0,0.0,,,0.662,0.8,0.0,14.8,,,,,,0.0,2026-02-22 15:00:12-08:00
35.06,1.0,8.0,2026-02-22 23:00:40,37.0816,-121.59961,345.0,0.0,124.9,-12.6,,,,,23:00:39,10.9,-0.9,21.0,0.0,-28.0,0.1,-0.01,1.0,,-69.0,21.0,0.0,30.06,714.0,,,133.0,,,,,0.0,0.0,,,,,,,,,,,,,,,,,,,0.0,15.0,0.0,0.0,30.3,1.3,,1.3,34.0,,,30.0,0.0,0.0,-0.6,2.2,1.2,,,,,16.0,17.0,16.0,17.0,16.0,17.0,16.0,17.0,,,16.0,254.3,,34.0,4.0,0.0,,,0.662,0.801,0.0,14.8,,,,,,0.0,2026-02-22 15:00:12-08:00
36.06,1.0,8.0,2026-02-22 23:00:41,37.0816,-121.59961,344.0,0.0,124.9,-12.6,,,,,23:00:40,10.9,-0.9,21.0,0.0,-29.0,0.0,-0.01,1.0,,-51.0,21.0,0.0,30.06,714.0,,,133.0,,,,,0.0,0.0,,,,,,,,,,,,,,,,,,,0.0,15.0,0.0,0.0,30.3,1.3,,1.3,33.4,,,30.0,0.0,0.0,-0.6,2.2,1.2,,,,,16.0,17.0,16.0,17.0,16.0,17.0,16.0,17.0,,,16.0,254.3,,33.4,4.0,0.0,,,0.662,0.8,0.0,14.8,,,,,,0.0,2026-02-22 15:00:12-08:00
37.06,1.0,8.0,2026-02-22 23:00:42,37.0816,-121.59961,344.0,0.0,124.9,-12.6,,,,,23:00:41,10.9,-0.9,21.0,0.0,-29.0,0.0,-0.01,1.0,,-39.0,21.0,0.0,30.06,721.0,,,133.0,,,,,0.0,0.0,,,,,,,,,,,,,,,,,,,0.0,15.0,0.0,0.0,30.3,1.3,,1.3,33.1,,,30.0,0.0,0.0,-0.6,2.2,1.2,,,,,16.0,17.0,16.0,17.0,16.0,17.0,16.0,17.0,,,16.0,254.3,,33.1,4.0,0.0,,,0.662,0.8,0.0,14.8,,,,,,0.0,2026-02-22 15:00:12-08:00
38.06,1.0,8.0,2026-02-22 23:00:43,37.0816,-121.59961,344.0,0.0,124.9,-12.6,,,,,23:00:42,10.9,-0.9,21.0,0.0,-29.0,0.0,-0.01,1.0,,-30.0,21.0,0.0,30.06,721.0,,,133.0,,,,,0.0,0.0,,,,,,,,,,,,,,,,,,,0.0,15.0,0.0,0.0,30.3,1.3,,1.3,32.9,,,30.0,0.0,0.0,-0.6,2.2,1.2,,,,,16.0,17.0,16.0,17.0,16.0,17.0,16.0,17.0,,,16.0,254.3,,32.9,4.0,0.0,,,0.662,0.801,0.0,14.8,,,,,,0.0,2026-02-22 15:00:12-08:00
39.06,1.0,8.0,2026-02-22 23:00:44,37.0816,-121.5996,343.0,0.0,124.9,-12.6,,,,,23:00:43,10.9,-0.9,21.0,0.0,-29.0,0.1,-0.01,1.0,,-2.0,21.0,0.0,30.06,722.0,,,133.0,,,,,0.0,0.0,,,,,,,,,,,,,,,,,,,0.0,15.0,0.0,0.0,30.3,0.0,,0.0,32.7,,,30.0,0.0,0.0,-0.7,2.2,1.2,,,,,16.0,17.0,16.0,17.0,16.0,17.0,16.0,17.0,,,16.0,254.3,,32.7,4.0,0.0,,,0.662,0.801,0.0,14.8,,,,,,0.0,2026-02-22 15:00:12-08:00
40.06,1.0,8.0,2026-02-22 23:00:45,37.0816,-121.5996,342.0,0.0,124.9,-12.6,,,,,23:00:44,10.9,-0.8,21.1,0.0,-29.0,0.1,-0.01,1.0,,17.0,21.0,0.0,30.06,722.0,,,133.0,,,,,0.0,0.0,,,,,,,,,,,,,,,,,,,0.0,15.0,0.0,0.0,30.3,0.0,,0.0,32.5,,,30.0,0.0,0.0,-0.7,2.2,1.2,,,,,16.0,17.0,16.0,17.0,16.0,17.0,16.0,17.0,,,16.0,254.3,,32.5,4.0,0.0,,,0.662,0.8,0.0,14.8,,,,,,0.0,2026-02-22 15:00:12-08:00
41.06,1.0,8.0,2026-02-22 23:00:46,37.0816,-121.5996,341.0,0.0,124.9,-12.6,,,,,23:00:45,10.9,-0.8,21.1,0.0,-29.0,0.1,-0.01,1.0,,29.0,21.0,0.0,30.06,722.0,,,133.0,,,,,0.0,0.0,,,,,,,,,,,,,,,,,,,0.0,15.0,0.0,0.0,30.3,0.0,,0.0,32.3,,,30.0,0.0,0.0,-0.7,2.2,1.2,,,,,16.0,17.0,16.0,17.0,16.0,17.0,16.0,17.0,,,16.0,254.3,,32.3,4.0,0.0,,,0.662,0.801,0.0,14.8,,,,,,0.0,2026-02-22 15:00:12-08:00
42.06,1.0,8.0,2026-02-22 23:00:47,37.0816,-121.5996,340.0,0.0,124.9,-12.6,,,,,23:00:46,10.9,-0.8,21.1,0.0,-29.0,0.1,-0.01,1.0,,36.0,21.0,0.0,30.06,731.0,,,133.0,,,,,0.0,0.0,,,,,,,,,,,,,,,,,,,0.0,15.0,0.0,0.0,30.3,0.0,,0.0,32.2,,,30.0,0.0,0.0,-0.7,2.2,1.2,,,,,16.0,17.0,16.0,17.0,16.0,17.0,16.0,17.0,,,16.0,227.3,,32.2,4.0,0.0,,,0.662,0.801,0.0,14.8,,,,,,0.0,2026-02-22 15:00:12-08:00
43.06,1.0,8.0,2026-02-22 23:00:48,37.0816,-121.5996,339.0,0.0,124.9,-12.6,,,,,23:00:47,10.9,-0.9,21.1,0.0,-29.0,0.1,-0.01,1.0,,24.0,21.0,0.0,30.06,731.0,,,133.0,,,,,0.0,0.0,,,,,,,,,,,,,,,,,,,0.0,15.0,0.0,0.0,30.3,0.0,,0.0,32.0,,,30.0,0.0,0.0,-0.7,2.2,1.2,,,,,16.0,17.0,16.0,17.0,16.0,17.0,16.0,17.0,,,16.0,176.9,,32.0,4.0,0.0,,,0.662,0.801,0.0,14.8,,,,,,0.0,2026-02-22 15:00:12-08:00
44.06,1.0,8.0,2026-02-22 23:00:49,37.0816,-121.5996,338.0,0.0,124.9,-12.6,,,,,23:00:48,10.9,-0.9,21.1,0.0,-29.0,0.1,-0.01,1.0,,33.0,22.0,0.0,30.06,732.0,,,133.0,,,,,0.0,0.0,,,,,,,,,,,,,,,,,,,0.0,15.0,0.0,0.0,30.3,0.0,,0.0,31.9,,,30.0,0.0,0.0,-0.7,2.2,1.2,,,,,16.0,17.0,16.0,17.0,16.0,17.0,16.0,17.0,,,16.0,137.7,,31.9,4.0,0.0,,,0.662,0.801,0.0,14.8,,,,,,0.0,2026-02-22 15:00:12-08:00
45.06,1.0,8.0,2026-02-22 23:00:50,37.0816,-121.5996,336.0,0.0,124.9,-12.6,,,,,23:00:49,10.9,-0.9,21.1,0.0,-29.0,0.1,-0.01,1.0,,-6.0,22.0,0.0,30.06,732.0,,,133.0,,,,,0.0,0.0,,,,,,,,,,,,,,,,,,,0.0,15.0,0.0,0.0,30.3,0.0,,0.0,31.7,,,30.0,0.0,0.0,-0.7,2.2,1.2,,,,,16.0,17.0,16.0,17.0,16.0,17.0,16.0,17.0,,,16.0,107.3,,31.7,4.0,0.0,,,0.662,0.801,0.0,14.8,,,,,,0.0,2026-02-22 15:00:12-08:00
46.06,1.0,8.0,2026-02-22 23:00:51,37.0816,-121.5996,335.0,0.0,124.9,-12.6,,,,,23:00:50,10.9,-0.9,21.0,0.0,-29.0,0.1,-0.01,1.0,,-23.0,22.0,0.0,30.06,732.0,,,133.0,,,,,0.0,0.0,,,,,,,,,,,,,,,,,,,0.0,15.0,0.0,0.0,30.3,0.0,,0.0,31.6,,,30.0,0.0,0.0,-0.7,2.2,1.2,,,,,16.0,17.0,16.0,17.0,16.0,17.0,16.0,17.0,,,16.0,83.6,,31.6,4.0,0.0,,,0.662,0.8,0.0,14.8,,,,,,0.0,2026-02-22 15:00:12-08:00
47.06,1.0,8.0,2026-02-22 23:00:52,37.0816,-121.5996,334.0,0.0,124.9,-12.6,,,,,23:00:51,10.9,-0.9,21.0,0.0,-29.0,0.1,-0.01,1.0,,-17.0,22.0,0.0,30.06,742.0,,,133.0,,,,,0.0,0.0,,,,,,,,,,,,,,,,,,,0.0,15.0,0.0,0.0,30.3,0.0,,0.0,31.4,,,30.0,0.0,0.0,-0.7,2.2,1.2,,,,,16.0,17.0,16.0,17.0,16.0,17.0,16.0,17.0,,,16.0,65.2,,31.4,4.0,0.0,,,0.662,0.801,0.0,14.8,,,,,,0.0,2026-02-22 15:00:12-08:00
48.06,1.0,8.0,2026-02-22 23:00:53,37.0816,-121.59959,334.0,0.0,124.9,-12.6,,,,,23:00:52,10.9,-0.9,21.0,0.0,-29.0,0.1,-0.01,1.0,,-48.0,22.0,0.0,30.06,742.0,,,133.0,,,,,0.0,0.0,,,,,,,,,,,,,,,,,,,0.0,15.0,0.0,0.0,30.3,0.0,,0.0,31.3,,,30.0,0.0,0.0,-0.7,2.2,1.2,,,,,16.0,17.0,16.0,17.0,16.0,17.0,16.0,17.0,,,16.0,50.9,,31.3,4.0,0.0,,,0.662,0.801,0.0,14.8,,,,,,0.0,2026-02-22 15:00:12-08:00
49.06,1.0,8.0,2026-02-22 23:00:54,37.0816,-121.59959,333.0,0.0,124.9,-12.6,,,,,23:00:53,10.9,-0.8,21.0,0.0,-29.0,0.0,-0.01,1.0,,-77.0,22.0,0.0,30.06,743.0,,,133.0,,,,,0.0,0.0,,,,,,,,,,,,,,,,,,,0.0,15.0,0.0,0.0,30.3,0.0,,0.0,31.2,,,30.0,0.0,0.0,-0.7,2.2,1.2,,,,,16.0,17.0,16.0,17.0,16.0,17.0,16.0,17.0,,,16.0,39.8,,31.2,4.0,0.0,,,0.662,0.801,0.0,14.8,,,,,,0.0,2026-02-22 15:00:12-08:00
50.06,1.0,8.0,2026-02-22 23:00:55,37.0816,-121.59959,332.0,0.0,124.9,-12.6,,,,,23:00:54,10.9,-0.8,21.0,0.0,-30.0,0.0,-0.01,1.0,,-86.0,22.0,0.0,30.06,743.0,,,133.0,,,,,0.0,0.0,,,,,,,,,,,,,,,,,,,0.0,15.0,0.0,0.0,30.3,0.0,,0.0,31.1,,,30.0,0.0,0.0,-0.7,2.2,1.2,,,,,16.0,17.0,16.0,17.0,16.0,17.0,16.0,17.0,,,16.0,31.1,,31.1,4.0,0.0,,,0.662,0.801,0.0,14.8,,,,,,0.0,2026-02-22 15:00:12-08:00
51.06,1.0,8.0,2026-02-22 23:00:56,37.0816,-121.59959,332.0,0.0,124.9,-12.6,,,,,23:00:55,10.9,-0.9,21.0,0.0,-30.0,0.1,-0.01,1.0,,-59.0,22.0,0.0,30.06,743.0,,,133.0,,,,,0.0,0.0,,,,,,,,,,,,,,,,,,,0.0,15.0,0.0,0.0,30.3,0.0,,0.0,31.0,,,30.0,0.0,0.0,-0.7,2.2,1.2,,,,,16.0,17.0,16.0,17.0,16.0,17.0,16.0,17.0,,,16.0,24.4,,31.0,4.0,0.0,,,0.662,0.801,0.0,14.8,,,,,,0.0,2026-02-22 15:00:12-08:00
52.06,1.0,8.0,2026-02-22 23:00:57,37.0816,-121.59959,331.0,0.0,124.9,-12.6,,,,,23:00:56,10.9,-0.9,21.0,0.0,-33.0,0.1,-0.01,1.0,,-101.0,22.0,0.0,30.06,747.0,,,133.0,,,,,0.0,0.0,,,,,,,,,,,,,,,,,,,0.0,15.0,0.0,0.0,30.3,0.0,,0.0,30.8,,,30.0,0.0,0.0,-0.7,2.2,1.2,,,,,16.0,17.0,16.0,17.0,16.0,17.0,16.0,17.0,,,16.0,19.2,,30.8,4.0,0.0,,,0.662,0.801,0.0,14.8,,,,,,0.0,2026-02-22 15:00:12-08:00
53.06,1.0,8.0,2026-02-22 23:00:58,37.0816,-121.59959,331.0,0.0,124.9,-12.6,,,,,23:00:57,10.9,-0.9,20.9,0.0,-34.0,0.0,-0.01,1.0,,-109.0,22.0,0.0,30.06,747.0,,,133.0,,,,,0.0,0.0,,,,,,,,,,,,,,,,,,,0.0,15.0,0.0,0.0,30.3,0.0,,0.0,30.7,,,30.0,0.0,0.0,-0.7,2.2,1.2,,,,,16.0,17.0,16.0,17.0,16.0,17.0,16.0,17.0,,,16.0,15.1,,30.7,4.0,0.0,,,0.662,0.801,0.0,14.8,,,,,,0.0,2026-02-22 15:00:12-08:00
54.06,1.0,8.0,2026-02-22 23:00:59,37.0816,-121.59959,331.0,0.0,124.9,-12.6,,,,,23:00:58,10.9,-0.9,21.0,0.0,-35.0,0.1,-0.01,1.0,,-78.0,22.0,0.0,30.06,747.0,,,133.0,,,,,0.0,0.0,,,,,,,,,,,,,,,,,,,0.0,15.0,0.0,0.0,30.3,0.0,,0.0,30.6,,,30.0,0.0,0.0,-0.7,2.2,1.2,,,,,16.0,17.0,16.0,17.0,16.0,17.0,16.0,17.0,,,16.0,12.0,,30.6,4.0,0.0,,,0.662,0.801,0.0,14.8,,,,,,0.0,2026-02-22 15:00:12-08:00
55.06,1.0,8.0,2026-02-22 23:01:00,37.0816,-121.59959,330.0,0.0,124.9,-12.6,,,,,23:00:59,10.9,-0.9,20.9,0.0,-38.0,0.1,-0.01,1.0,,-105.0,22.0,0.0,30.06,751.0,,,133.0,,,,,0.0,0.0,,,,,,,,,,,,,,,,,,,0.0,15.0,0.0,0.0,30.3,0.0,,0.0,30.5,,,30.0,0.0,0.0,-0.7,2.2,1.2,,,,,16.0,17.0,16.0,17.0,16.0,17.0,16.0,17.0,,,16.0,9.5,,30.5,4.0,0.0,,,0.662,0.801,0.0,14.8,,,,,,0.0,2026-02-22 15:00:12-08:00
56.06,1.0,8.0,2026-02-22 23:01:01,37.0816,-121.59959,330.0,0.0,124.9,-12.6,,,,,23:01:00,10.9,-0.9,20.9,0.0,-39.0,0.1,-0.01,1.0,,-98.0,22.0,0.0,30.06,751.0,,,133.0,,,,,0.0,0.0,,,,,,,,,,,,,,,,,,,0.0,15.0,0.0,0.0,30.3,0.0,,0.0,30.4,,,30.0,0.0,0.0,-0.7,2.2,1.2,,,,,16.0,17.0,16.0,17.0,16.0,17.0,16.0,17.0,,,16.0,7.6,,30.4,4.0,0.0,,,0.662,0.801,0.0,14.8,,,,,,0.0,2026-02-22 15:00:12-08:00
57.06,1.0,8.0,2026-02-22 23:01:02,37.0816,-121.59959,330.0,0.0,124.9,-12.6,,,,,23:01:01,10.9,-0.9,21.0,0.0,-40.0,0.1,-0.01,1.0,,-97.0,22.0,0.0,30.06,751.0,,,133.0,,,,,0.0,0.0,,,,,,,,,,,,,,,,,,,0.0,15.0,0.0,0.0,30.3,0.0,,0.0,30.3,,,30.0,0.0,0.0,-0.7,2.2,1.2,,,,,16.0,17.0,16.0,17.0,16.0,17.0,16.0,17.0,,,16.0,6.1,,30.3,4.0,0.0,,,0.662,0.801,0.0,14.8,,,,,,0.0,2026-02-22 15:00:12-08:00
58.06,1.0,8.0,2026-02-22 23:01:03,37.0816,-121.59959,329.0,0.0,124.9,-12.6,,,,,23:01:02,10.9,-0.9,21.0,0.0,-41.0,0.1,-0.01,1.0,,-74.0,22.0,0.0,30.06,748.0,,,133.0,,,,,0.0,0.0,,,,,,,,,,,,,,,,,,,0.0,15.0,0.0,0.0,30.3,0.0,,0.0,30.2,,,30.0,0.0,0.0,-0.7,2.2,1.2,,,,,16.0,17.0,16.0,17.0,16.0,17.0,16.0,17.0,,,16.0,5.0,,30.2,4.0,0.0,,,0.662,0.801,0.0,14.8,,,,,,0.0,2026-02-22 15:00:12-08:00
59.06,1.0,8.0,2026-02-22 23:01:04,37.0816,-121.59959,329.0,0.0,124.9,-12.6,,,,,23:01:03,10.9,-0.9,21.0,0.0,-42.0,0.1,-0.01,1.0,,-58.0,22.0,0.0,30.06,748.0,,,133.0,,,,,0.0,0.0,,,,,,,,,,,,,,,,,,,0.0,15.0,0.0,0.0,30.3,0.0,,0.0,30.1,,,30.0,0.0,0.0,-0.7,2.2,1.2,,,,,16.0,17.0,16.0,17.0,16.0,17.0,16.0,17.0,,,16.0,4.1,,30.1,4.0,0.0,,,0.662,0.801,0.0,14.8,,,,,,0.0,2026-02-22 15:00:12-08:00
60.06,1.0,8.0,2026-02-22 23:01:05,37.0816,-121.59959,329.0,0.0,124.9,-12.6,,,,,23:01:04,10.9,-0.9,21.0,0.0,-42.0,0.1,-0.01,1.0,,-18.0,22.0,0.0,30.06,748.0,,,133.0,,,,,0.0,0.0,,,,,,,,,,,,,,,,,,,0.0,15.0,0.0,0.0,30.3,0.0,,0.0,30.0,,,30.0,0.0,0.0,-0.7,2.2,1.2,,,,,16.0,17.0,16.0,17.0,16.0,17.0,16.0,17.0,,,16.0,3.4,,30.0,4.0,0.0,,,0.662,0.801,0.0,14.8,,,,,,0.0,2026-02-22 15:00:12-08:00
61.06,1.0,8.0,2026-02-22 23:01:06,37.0816,-121.59959,329.0,0.0,124.9,-12.6,,,,,23:01:05,10.9,-0.9,21.0,0.0,-42.0,0.0,-0.01,1.0,,-17.0,22.0,0.0,30.06,747.0,,,133.0,,,,,0.0,0.0,,,,,,,,,,,,,,,,,,,0.0,15.0,0.0,0.0,30.3,0.0,,0.0,29.9,,,30.0,0.0,0.0,-0.7,2.2,1.2,,,,,16.0,17.0,16.0,17.0,16.0,17.0,16.0,17.0,,,16.0,2.9,,29.9,4.0,0.0,,,0.662,0.801,0.0,14.8,,,,,,0.0,2026-02-22 15:00:12-08:00
62.06,1.0,8.0,2026-02-22 23:01:07,37.0816,-121.59959,328.0,0.0,124.9,-12.6,,,,,23:01:06,10.9,-0.9,21.0,0.0,-42.0,0.1,-0.01,1.0,,-6.0,22.0,0.0,30.06,747.0,,,133.0,,,,,0.0,0.0,,,,,,,,,,,,,,,,,,,0.0,15.0,0.0,0.0,30.3,0.0,,0.0,29.8,,,30.0,0.0,0.0,-0.7,2.2,1.2,,,,,16.0,17.0,16.0,17.0,16.0,17.0,16.0,17.0,,,16.0,2.4,,29.8,4.0,0.0,,,0.662,0.801,0.0,14.8,,,,,,0.0,2026-02-22 15:00:12-08:00
63.06,1.0,8.0,2026-02-22 23:01:08,37.0816,-121.59959,328.0,0.0,124.9,-12.6,,,,,23:01:07,11.0,-0.9,21.0,0.0,-42.0,0.1,-0.01,1.0,,-32.0,22.0,0.0,30.06,747.0,,,133.0,,,,,0.0,0.0,,,,,,,,,,,,,,,,,,,0.0,15.0,0.0,0.0,30.3,0.0,,0.0,29.7,,,30.0,0.0,0.0,-0.7,2.2,1.2,,,,,16.0,17.0,16.0,17.0,16.0,17.0,16.0,17.0,,,16.0,2.1,,29.7,4.0,0.0,,,0.662,0.801,0.0,14.8,,,,,,0.0,2026-02-22 15:00:12-08:00
64.06,1.0,8.0,2026-02-22 23:01:09,37.0816,-121.59959,327.0,0.0,124.9,-12.6,,,,,23:01:08,10.9,-0.8,21.0,0.0,-43.0,0.1,-0.01,1.0,,-45.0,22.0,0.0,30.06,747.0,,,133.0,,,,,0.0,0.0,,,,,,,,,,,,,,,,,,,0.0,15.0,0.0,0.0,30.3,0.0,,0.0,29.6,,,30.0,0.0,0.0,-0.7,2.2,1.2,,,,,16.0,17.0,16.0,17.0,16.0,17.0,16.0,17.0,,,16.0,1.9,,29.6,4.0,0.0,,,0.662,0.801,0.0,14.8,,,,,,0.0,2026-02-22 15:00:12-08:00
65.06,1.0,8.0,2026-02-22 23:01:10,37.0816,-121.59959,327.0,0.0,124.9,-12.6,,,,,23:01:09,11.0,-0.9,21.0,0.0,-43.0,0.1,-0.01,1.0,,-18.0,22.0,0.0,30.06,756.0,,,133.0,,,,,0.0,0.0,,,,,,,,,,,,,,,,,,,0.0,15.0,0.0,0.0,30.3,0.0,,0.0,29.5,,,30.0,0.0,0.0,-0.7,2.2,1.2,,,,,16.0,17.0,16.0,17.0,16.0,17.0,16.0,17.0,,,16.0,1.6,,29.5,4.0,0.0,,,0.662,0.801,0.0,14.8,,,,,,0.0,2026-02-22 15:00:12-08:00
66.06,1.0,8.0,2026-02-22 23:01:11,37.0816,-121.59959,327.0,0.0,124.9,-12.6,,,,,23:01:10,10.9,-0.8,21.0,0.0,-43.0,0.1,-0.01,1.0,,0.0,22.0,0.0,30.06,756.0,,,133.0,,,,,0.0,0.0,,,,,,,,,,,,,,,,,,,0.0,15.0,0.0,0.0,30.3,0.0,,0.0,29.4,,,30.0,0.0,0.0,-0.7,2.2,1.2,,,,,16.0,17.0,16.0,17.0,16.0,17.0,16.0,17.0,,,16.0,1.5,,29.4,4.0,0.0,,,0.662,0.801,0.0,14.8,,,,,,0.0,2026-02-22 15:00:12-08:00
67.06,1.0,8.0,2026-02-22 23:01:12,37.0816,-121.59959,326.0,0.0,124.9,-12.6,,,,,23:01:11,10.9,-0.9,21.0,0.0,-43.0,0.1,-0.01,1.0,,32.0,22.0,0.0,30.06,757.0,,,133.0,,,,,0.0,0.0,,,,,,,,,,,,,,,,,,,0.0,15.0,0.0,0.0,30.3,0.0,,0.0,29.3,,,30.0,0.0,0.0,-0.7,2.2,1.2,,,,,16.0,17.0,16.0,17.0,16.0,17.0,16.0,17.0,,,16.0,1.4,,29.3,4.0,0.0,,,0.662,0.801,0.0,14.8,,,,,,0.0,2026-02-22 15:00:12-08:00
68.06,1.0,8.0,2026-02-22 23:01:13,37.08161,-121.59957,308.0,0.0,124.9,-12.6,,,,,23:01:12,10.9,-0.9,21.0,0.0,-43.0,0.1,-0.01,1.0,,32.0,22.0,0.0,30.06,757.0,,,133.0,,,,,0.0,0.0,,,,,,,,,,,,,,,,,,,0.0,15.0,0.0,0.0,30.3,0.0,,0.0,29.2,,,30.0,0.0,0.0,-0.7,2.2,1.2,,,,,16.0,17.0,16.0,17.0,16.0,17.0,16.0,17.0,,,16.0,1.3,,29.2,4.0,0.0,,,0.662,0.801,0.0,14.8,,,,,,0.0,2026-02-22 15:00:12-08:00
69.06,1.0,8.0,2026-02-22 23:01:14,37.08161,-121.59957,308.0,0.0,124.9,-12.6,,,,,23:01:13,10.9,-0.8,21.0,0.0,-43.0,0.1,-0.01,1.0,,42.0,22.0,0.0,30.06,757.0,,,133.0,,,,,0.0,0.0,,,,,,,,,,,,,,,,,,,0.0,15.0,0.0,0.0,30.3,0.0,,0.0,29.2,,,30.0,0.0,0.0,-0.7,2.2,1.2,,,,,16.0,17.0,16.0,17.0,16.0,17.0,16.0,17.0,,,16.0,1.2,,29.2,4.0,0.0,,,0.662,0.801,0.0,14.8,,,,,,0.0,2026-02-22 15:00:12-08:00
70.06,1.0,8.0,2026-02-22 23:01:15,37.08161,-121.59957,308.0,0.0,124.9,-12.6,,,,,23:01:14,10.9,-0.8,21.1,0.0,-43.0,0.1,-0.01,1.0,,68.0,22.0,0.0,30.06,766.0,,,133.0,,,,,0.0,0.0,,,,,,,,,,,,,,,,,,,0.0,15.0,0.0,0.0,30.3,0.0,,0.0,29.1,,,30.0,0.0,0.0,-0.7,2.2,1.2,,,,,16.0,17.0,16.0,17.0,16.0,17.0,16.0,17.0,,,16.0,1.2,,29.1,4.0,0.0,,,0.662,0.801,0.0,14.8,,,,,,0.0,2026-02-22 15:00:12-08:00
71.06,1.0,8.0,2026-02-22 23:01:16,37.08161,-121.59957,309.0,0.0,124.9,-12.6,,,,,23:01:15,10.9,-0.8,21.1,0.0,-43.0,0.1,-0.01,1.0,,47.0,22.0,0.0,30.06,766.0,,,133.0,,,,,0.0,0.0,,,,,,,,,,,,,,,,,,,0.0,15.0,0.0,0.0,30.3,0.0,,0.0,29.0,,,30.0,0.0,0.0,-0.7,2.2,1.2,,,,,16.0,17.0,16.0,17.0,16.0,17.0,16.0,17.0,,,16.0,1.1,,29.0,4.0,0.0,,,0.662,0.801,0.0,14.8,,,,,,0.0,2026-02-22 15:00:12-08:00
72.06,1.0,8.0,2026-02-22 23:01:17,37.0816,-121.59957,309.0,0.0,124.9,-12.6,,,,,23:01:16,10.9,-0.8,21.1,0.0,-43.0,0.1,-0.01,1.0,,26.0,22.0,0.0,30.06,767.0,,,133.0,,,,,0.0,0.0,,,,,,,,,,,,,,,,,,,0.0,15.0,0.0,0.0,30.3,0.0,,0.0,28.9,,,30.0,0.0,0.0,-0.7,2.2,1.2,,,,,16.0,17.0,16.0,17.0,16.0,17.0,16.0,17.0,,,16.0,1.1,,28.9,4.0,0.0,,,0.662,0.801,0.0,14.8,,,,,,0.0,2026-02-22 15:00:12-08:00
73.06,1.0,8.0,2026-02-22 23:01:18,37.0816,-121.59956,309.0,0.0,124.9,-12.6,,,,,23:01:17,10.9,-0.8,21.1,0.0,-43.0,0.1,-0.01,1.0,,56.0,22.0,0.0,30.06,767.0,,,133.0,,,,,0.0,0.0,,,,,,,,,,,,,,,,,,,0.0,15.0,0.0,0.0,30.3,0.0,,0.0,28.8,,,30.0,0.0,0.0,-0.7,2.2,1.2,,,,,16.0,17.0,16.0,17.0,16.0,17.0,16.0,17.0,,,16.0,1.1,,28.8,4.0,0.0,,,0.662,0.801,0.0,14.8,,,,,,0.0,2026-02-22 15:00:12-08:00
74.06,1.0,8.0,2026-02-22 23:01:19,37.0816,-121.59956,309.0,0.0,124.9,-12.6,,,,,23:01:18,10.9,-0.8,21.0,0.0,-43.0,0.0,-0.01,1.0,,38.0,22.0,0.0,30.06,767.0,,,133.0,,,,,0.0,0.0,,,,,,,,,,,,,,,,,,,0.0,15.0,0.0,0.0,30.3,0.0,,0.0,28.8,,,30.0,0.0,0.0,-0.7,2.2,1.2,,,,,16.0,17.0,16.0,17.0,16.0,17.0,16.0,17.0,,,16.0,1.0,,28.8,4.0,0.0,,,0.662,0.801,0.0,14.8,,,,,,0.0,2026-02-22 15:00:12-08:00
75.06,1.0,8.0,2026-02-22 23:01:20,37.0816,-121.59956,309.0,0.0,124.9,-12.6,,,,,23:01:19,10.9,-0.8,21.0,0.0,-43.0,0.1,-0.01,1.0,,32.0,22.0,0.0,30.06,777.0,,,133.0,,,,,0.0,0.0,,,,,,,,,,,,,,,,,,,0.0,15.0,0.0,0.0,30.3,0.0,,0.0,28.7,,,30.0,0.0,0.0,-0.7,2.2,1.2,,,,,16.0,17.0,16.0,17.0,16.0,17.0,16.0,17.0,,,16.0,1.0,,28.7,4.0,0.0,,,0.662,0.801,0.0,14.8,,,,,,0.0,2026-02-22 15:00:12-08:00
76.06,1.0,8.0,2026-02-22 23:01:21,37.0816,-121.59956,310.0,0.0,124.9,-12.6,,,,,23:01:20,10.9,-0.9,21.0,0.0,-43.0,0.1,-0.01,1.0,,12.0,22.0,0.0,30.06,777.0,,,133.0,,,,,0.0,0.0,,,,,,,,,,,,,,,,,,,0.0,15.0,0.0,0.0,30.3,0.0,,0.0,28.6,,,30.0,0.0,0.0,-0.7,2.2,1.2,,,,,16.0,17.0,16.0,18.0,16.0,17.0,16.0,18.0,,,15.0,1.0,,28.6,4.0,0.0,,,0.662,0.801,0.0,14.8,,,,,,0.0,2026-02-22 15:00:12-08:00
77.06,1.0,8.0,2026-02-22 23:01:22,37.0816,-121.59956,310.0,0.0,124.9,-12.6,,,,,23:01:21,10.9,-0.9,21.0,0.0,-43.0,0.1,-0.01,1.0,,13.0,22.0,0.0,30.06,778.0,,,133.0,,,,,0.0,0.0,,,,,,,,,,,,,,,,,,,0.0,15.0,0.0,0.0,30.3,0.0,,0.0,28.5,,,30.0,0.0,0.0,-0.7,2.2,1.2,,,,,16.0,17.0,16.0,18.0,16.0,17.0,16.0,18.0,,,16.0,1.0,,28.5,4.0,0.0,,,0.662,0.801,0.0,14.8,,,,,,0.0,2026-02-22 15:00:12-08:00
78.06,1.0,8.0,2026-02-22 23:01:23,37.0816,-121.59956,311.0,0.0,124.9,-12.6,,,,,23:01:22,10.9,-0.9,21.0,0.0,-43.0,0.1,-0.01,1.0,,-6.0,22.0,0.0,30.06,778.0,,,133.0,,,,,0.0,0.0,,,,,,,,,,,,,,,,,,,0.0,15.0,0.0,0.0,30.3,0.0,,0.0,28.5,,,30.0,0.0,0.0,-0.7,2.2,1.2,,,,,16.0,17.0,16.0,18.0,16.0,17.0,16.0,18.0,,,16.0,1.0,,28.5,4.0,0.0,,,0.662,0.801,0.0,14.8,,,,,,0.0,2026-02-22 15:00:12-08:00
79.06,1.0,8.0,2026-02-22 23:01:24,37.0816,-121.59956,311.0,0.0,124.9,-12.6,,,,,23:01:23,10.9,-0.9,21.0,0.0,-43.0,0.1,-0.01,1.0,,-4.0,22.0,0.0,30.06,778.0,,,133.0,,,,,0.0,0.0,,,,,,,,,,,,,,,,,,,0.0,15.0,0.0,0.0,30.3,0.0,,0.0,28.4,,,30.0,0.0,0.0,-0.7,2.2,1.2,,,,,16.0,17.0,16.0,17.0,16.0,17.0,16.0,18.0,,,16.0,1.0,,28.4,4.0,0.0,,,0.662,0.801,0.0,14.8,,,,,,0.0,2026-02-22 15:00:12-08:00
80.06,1.0,8.0,2026-02-22 23:01:25,37.0816,-121.59956,312.0,0.0,124.9,-12.6,,,,,23:01:24,10.9,-0.8,21.1,0.0,-43.0,0.1,-0.02,1.0,,-38.0,22.0,0.0,30.06,787.0,,,133.0,,,,,0.0,0.0,,,,,,,,,,,,,,,,,,,0.0,12.0,138.0,138.0,30.0,0.0,,0.0,28.5,,,30.0,0.0,0.0,-0.7,2.2,1.2,,,,,12.0,12.0,12.0,12.0,12.0,12.0,12.0,12.0,,,16.0,1.0,,28.5,4.0,0.0,,,0.66,0.801,0.0,12.3,,,,,,138.0,2026-02-22 15:00:12-08:00
81.06,1.0,8.0,2026-02-22 23:01:26,37.0816,-121.59956,312.0,0.0,124.9,-12.6,,,,,23:01:25,10.9,-0.8,21.1,0.0,-43.0,0.1,-0.01,1.0,,-60.0,22.0,0.0,30.06,787.0,,,133.0,,,,,0.0,0.0,,,,,,,,,,,,,,,,,,,1.0,13.0,136.0,136.0,29.7,0.0,,0.0,26.7,,,30.0,0.0,0.0,-0.7,2.2,1.2,,,,,12.0,12.0,12.0,12.0,12.0,12.0,13.0,13.0,,,16.0,1.0,,26.7,4.0,0.0,,,0.66,0.801,1.0,12.6,,,,,,136.0,2026-02-22 15:00:12-08:00
82.06,1.0,8.0,2026-02-22 23:01:27,37.0816,-121.59956,313.0,0.0,124.9,-12.6,,,,,23:01:26,10.9,-0.8,21.1,0.0,-43.0,0.1,-0.02,1.0,,-45.0,22.0,0.0,30.06,787.0,,,133.0,,,,,0.0,0.0,,,,,,,,,,,,,,,,,,,1.0,12.0,138.0,138.0,29.7,0.5,,0.5,21.1,,,30.0,0.0,0.0,-0.7,2.2,1.2,,,,,12.0,12.0,12.0,12.0,12.0,12.0,12.0,12.0,,,16.0,1.0,,21.1,4.0,0.0,,,0.66,0.801,1.2,12.4,,,,,,138.0,2026-02-22 15:00:12-08:00
83.06,1.0,8.0,2026-02-22 23:01:28,37.0816,-121.59957,313.0,0.0,124.9,-12.6,,,,,23:01:27,10.9,-0.8,21.1,0.0,-43.0,0.1,-0.01,1.0,,-49.0,22.0,0.0,30.06,787.0,,,133.0,,,,,0.0,0.0,,,,,,,,,,,,,,,,,,,2.0,13.0,159.0,159.0,29.5,0.9,,0.9,22.4,,,30.0,0.0,0.0,-0.7,2.2,1.2,,,,,12.0,13.0,12.0,12.0,12.0,12.0,13.0,13.0,,,16.0,1.0,,22.4,4.0,0.0,,,0.66,0.801,1.5,12.7,,,,,,159.0,2026-02-22 15:00:12-08:00
84.06,1.0,8.0,2026-02-22 23:01:29,37.0816,-121.59957,313.0,0.0,124.9,-12.6,,,,,23:01:28,10.9,-0.8,21.1,0.0,-43.0,0.1,-0.01,1.0,,-58.0,22.0,0.0,30.06,787.0,,,133.0,,,,,0.0,0.0,,,,,,,,,,,,,,,,,,,3.0,15.0,308.0,308.0,28.0,1.8,,1.8,23.9,,,30.0,0.0,0.0,-0.7,2.2,1.2,,,,,16.0,45.0,16.0,34.0,16.0,17.0,17.0,17.0,,,16.0,1.0,,23.9,4.0,0.0,,,0.673,0.802,2.7,14.9,,,6.0,L,,308.0,2026-02-22 15:00:12-08:00
85.06,1.0,8.0,2026-02-22 23:01:30,37.0816,-121.59957,314.0,0.0,124.9,-12.6,,,,,23:01:29,10.9,-0.9,21.2,0.0,-43.0,0.1,-0.03,1.0,,-70.0,22.0,0.0,30.06,788.0,,,133.0,,,,,0.0,0.0,,,,,,,,,,,,,,,,,,,4.0,15.0,206.0,206.0,29.1,2.1,,2.1,23.7,,,30.0,0.0,0.0,-0.7,2.2,1.2,,,,,16.0,42.0,16.0,52.0,16.0,16.0,17.0,26.0,,,16.0,1.0,,23.7,4.0,0.0,,,0.665,0.802,4.3,14.8,,,13.0,L,,206.0,2026-02-22 15:00:12-08:00
86.06,1.0,8.0,2026-02-22 23:01:31,37.0816,-121.59957,314.0,0.1,124.9,-12.6,,,,,23:01:30,10.9,-0.8,21.2,0.0,-43.0,0.1,-0.02,1.0,,-90.0,22.0,0.0,30.06,788.0,,,133.0,,,,,0.0,0.0,,,,,,,,,,,,,,,,,,,5.0,15.0,68.0,68.0,30.0,2.0,,2.0,22.8,,,30.0,0.0,0.0,-0.7,2.2,1.2,,,,,16.0,41.0,17.0,53.0,16.0,16.0,17.0,26.0,,,16.0,0.0,,22.8,4.0,0.0,,,0.665,0.802,5.2,14.8,,,,,,68.0,2026-02-22 15:00:12-08:00
87.06,1.0,8.0,2026-02-22 23:01:32,37.0816,-121.59957,315.0,0.0,124.9,-12.6,,,,,23:01:31,10.9,-0.8,21.2,0.0,-43.0,0.1,-0.02,1.0,,-88.0,22.0,0.0,30.06,788.0,,,133.0,,,,,0.0,0.0,,,,,,,,,,,,,,,,,,,6.0,15.0,0.0,0.0,30.1,1.8,,1.8,22.9,,,30.0,0.0,0.0,-0.7,2.2,1.2,,,,,16.0,40.0,17.0,52.0,16.0,16.0,17.0,26.0,,,16.0,0.0,,22.9,4.0,0.0,,,0.665,0.801,6.0,14.8,,,,,,0.0,2026-02-22 15:00:12-08:00
88.06,1.0,8.0,2026-02-22 23:01:33,37.0816,-121.59957,315.0,0.0,124.9,-12.6,,,,,23:01:32,10.9,-0.7,21.2,0.0,-43.0,0.1,-0.02,1.0,,-72.0,22.0,0.0,30.06,797.0,,,133.0,,,,,0.0,0.0,,,,,,,,,,,,,,,,,,,7.0,15.0,0.0,0.0,30.1,1.8,,1.8,22.9,,,30.0,0.0,0.0,-0.7,2.2,1.2,,,,,16.0,40.0,17.0,52.0,16.0,16.0,17.0,26.0,,,16.0,0.0,,22.9,4.0,0.0,,,0.665,0.801,6.6,14.8,,,,,,0.0,2026-02-22 15:00:12-08:00
89.06,1.0,8.0,2026-02-22 23:01:34,37.0816,-121.59957,315.0,0.0,124.9,-12.6,,,,,23:01:33,10.9,-0.9,21.2,0.0,-43.0,0.1,-0.02,1.0,,-38.0,22.0,0.0,30.06,797.0,,,133.0,,,,,0.0,0.0,,,,,,,,,,,,,,,,,,,7.0,15.0,0.0,0.0,30.3,0.0,,0.0,23.0,,,30.0,0.0,0.0,-0.7,2.2,1.2,,,,,16.0,39.0,17.0,52.0,16.0,16.0,17.0,26.0,,,15.0,0.0,,23.0,4.0,0.0,,,0.665,0.801,7.2,14.8,,,,,,0.0,2026-02-22 15:00:12-08:00
90.06,1.0,8.0,2026-02-22 23:01:35,37.0816,-121.59957,316.0,0.0,124.9,-12.6,,,,,23:01:34,10.9,-0.8,21.2,0.0,-43.0,0.1,-0.02,1.0,,-8.0,22.0,0.0,30.06,797.0,,,133.0,,,,,0.0,0.0,,,,,,,,,,,,,,,,,,,8.0,15.0,0.0,0.0,30.3,0.0,,0.0,23.0,,,30.0,0.0,0.0,-0.7,2.2,1.2,,,,,16.0,39.0,17.0,51.0,16.0,16.0,17.0,26.0,,,15.0,0.0,,23.0,4.0,0.0,,,0.664,0.801,7.6,14.8,,,,,,0.0,2026-02-22 15:00:12-08:00
91.06,1.0,8.0,2026-02-22 23:01:36,37.0816,-121.59957,316.0,0.0,124.9,-12.6,,,,,23:01:35,10.9,-0.8,21.1,0.0,-43.0,0.1,-0.01,1.0,,32.0,22.0,0.0,30.06,798.0,,,133.0,,,,,0.0,0.0,,,,,,,,,,,,,,,,,,,8.0,15.0,0.0,0.0,30.3,0.0,,0.0,24.5,,,30.0,0.0,0.0,-0.6,2.2,1.2,,,,,16.0,38.0,17.0,51.0,16.0,17.0,17.0,26.0,,,15.0,0.0,,24.5,4.0,0.0,,,0.665,0.801,7.9,14.8,,,,,,0.0,2026-02-22 15:00:12-08:00
92.06,1.0,8.0,2026-02-22 23:01:37,37.0816,-121.59957,316.0,0.0,124.9,-12.6,,,,,23:01:36,10.9,-0.8,21.0,0.0,-43.0,0.1,-0.01,1.0,,10.0,22.0,0.0,30.06,798.0,,,133.0,,,,,0.0,0.0,,,,,,,,,,,,,,,,,,,8.0,15.0,0.0,0.0,30.3,0.0,,0.0,32.0,,,30.0,0.0,0.0,-0.6,2.2,1.2,,,,,16.0,38.0,17.0,51.0,16.0,17.0,17.0,26.0,,,15.0,0.0,,32.0,4.0,0.0,,,0.665,0.801,8.1,14.8,,,,,,0.0,2026-02-22 15:00:12-08:00
93.06,1.0,8.0,2026-02-22 23:01:38,37.0816,-121.59957,316.0,0.0,124.9,-12.6,,,,,23:01:37,10.9,-0.9,21.0,0.0,-43.0,0.0,-0.01,1.0,,-5.0,22.0,0.0,30.06,798.0,,,133.0,,,,,0.0,0.0,,,,,,,,,,,,,,,,,,,8.0,15.0,0.0,0.0,30.3,0.9,,0.9,32.8,,,30.0,0.0,0.0,-0.6,2.2,1.2,,,,,16.0,38.0,17.0,50.0,16.0,17.0,17.0,25.0,,,15.0,0.0,,32.8,4.0,0.0,,,0.665,0.801,8.3,14.8,,,,,,0.0,2026-02-22 15:00:12-08:00
94.06,1.0,8.0,2026-02-22 23:01:39,37.0816,-121.59957,317.0,0.0,124.9,-12.6,,,,,23:01:38,10.9,-0.9,21.0,0.0,-43.0,0.1,-0.01,1.0,,-15.0,22.0,0.0,30.06,807.0,,,133.0,,,,,0.0,0.0,,,,,,,,,,,,,,,,,,,9.0,15.0,0.0,0.0,30.3,1.5,,1.5,33.3,,,30.0,0.0,0.0,-0.6,2.2,1.2,,,,,16.0,37.0,17.0,49.0,16.0,17.0,17.0,25.0,,,15.0,0.0,,33.3,4.0,0.0,,,0.665,0.802,8.5,14.8,,,,,,0.0,2026-02-22 15:00:12-08:00
95.06,1.0,8.0,2026-02-22 23:01:40,37.0816,-121.59957,317.0,0.0,124.9,-12.6,,,,,23:01:39,10.9,-0.8,21.0,0.0,-43.0,0.1,-0.01,1.0,,-31.0,22.0,0.0,30.06,807.0,,,133.0,,,,,0.0,0.0,,,,,,,,,,,,,,,,,,,9.0,15.0,0.0,0.0,30.3,2.0,,2.0,33.1,,,30.0,0.0,0.0,-0.6,2.2,1.2,,,,,16.0,37.0,17.0,49.0,16.0,17.0,17.0,25.0,,,15.0,0.0,,33.1,4.0,0.0,,,0.665,0.801,8.6,14.8,,,,,,0.0,2026-02-22 15:00:12-08:00
96.06,1.0,8.0,2026-02-22 23:01:41,37.0816,-121.59957,317.0,0.0,124.9,-12.6,,,,,23:01:40,10.9,-0.8,21.1,0.0,-43.0,0.1,-0.01,1.0,,2.0,22.0,0.0,30.06,808.0,,,133.0,,,,,0.0,0.0,,,,,,,,,,,,,,,,,,,9.0,15.0,0.0,0.0,30.3,1.9,,1.9,33.2,,,30.0,0.0,0.0,-0.6,2.2,1.2,,,,,16.0,36.0,17.0,48.0,16.0,17.0,17.0,25.0,,,15.0,0.0,,33.2,4.0,0.0,,,0.665,0.802,8.7,14.8,,,,,,0.0,2026-02-22 15:00:12-08:00
97.06,1.0,8.0,2026-02-22 23:01:42,37.0816,-121.59957,318.0,0.0,124.9,-12.6,,,,,23:01:41,10.9,-0.8,21.1,0.0,-43.0,0.1,-0.01,1.0,,22.0,22.0,0.0,30.06,808.0,,,133.0,,,,,0.0,0.0,,,,,,,,,,,,,,,,,,,9.0,15.0,0.0,0.0,30.3,1.9,,1.9,33.0,,,30.0,0.0,0.0,-0.6,2.2,1.2,,,,,16.0,36.0,17.0,48.0,16.0,17.0,17.0,25.0,,,15.0,0.0,,33.0,4.0,0.0,,,0.664,0.801,8.7,14.8,,,,,,0.0,2026-02-22 15:00:12-08:00
98.06,1.0,8.0,2026-02-22 23:01:43,37.08159,-121.59956,327.0,0.0,124.9,-12.6,,,,,23:01:42,10.9,-0.8,21.1,0.0,-43.0,0.1,-0.01,1.0,,32.0,22.0,0.0,30.06,808.0,,,133.0,,,,,0.0,0.0,,,,,,,,,,,,,,,,,,,9.0,15.0,0.0,0.0,30.3,1.9,,1.9,32.7,,,30.0,0.0,0.0,-0.6,2.2,1.2,,,,,16.0,36.0,17.0,47.0,16.0,17.0,17.0,25.0,,,15.0,0.0,,32.7,4.0,0.0,,,0.665,0.801,8.7,14.8,,,,,,0.0,2026-02-22 15:00:12-08:00
99.06,1.0,8.0,2026-02-22 23:01:44,37.08159,-121.59956,327.0,0.0,124.9,-12.6,,,,,23:01:43,10.9,-0.8,21.1,0.0,-43.0,0.1,-0.01,1.0,,72.0,22.0,0.0,30.06,818.0,,,133.0,,,,,0.0,0.0,,,,,,,,,,,,,,,,,,,9.0,15.0,0.0,0.0,30.3,0.0,,0.0,32.6,,,30.0,0.0,0.0,-0.7,2.2,1.2,,,,,16.0,35.0,17.0,47.0,16.0,17.0,17.0,25.0,,,15.0,0.0,,32.6,4.0,0.0,,,0.665,0.801,8.6,14.8,,,,,,0.0,2026-02-22 15:00:12-08:00
100.06,1.0,8.0,2026-02-22 23:01:45,37.08159,-121.59956,328.0,0.0,124.9,-12.6,,,,,23:01:44,10.9,-0.8,21.2,0.0,-43.0,0.1,-0.01,1.0,,85.0,22.0,0.0,30.06,818.0,,,133.0,,,,,0.0,0.0,,,,,,,,,,,,,,,,,,,9.0,15.0,0.0,0.0,30.3,0.0,,0.0,32.4,,,30.0,0.0,0.0,-0.7,2.2,1.2,,,,,16.0,35.0,17.0,46.0,16.0,17.0,17.0,25.0,,,15.0,0.0,,32.4,4.0,0.0,,,0.665,0.801,8.6,14.8,,,,,,0.0,2026-02-22 15:00:12-08:00
101.06,1.0,8.0,2026-02-22 23:01:46,37.08159,-121.59956,328.0,0.0,124.9,-12.6,,,,,23:01:45,10.9,-0.7,21.2,0.0,-43.0,0.1,-0.01,1.0,,98.0,22.0,0.0,30.06,818.0,,,133.0,,,,,0.0,0.0,,,,,,,,,,,,,,,,,,,8.0,15.0,0.0,0.0,30.3,0.0,,0.0,32.2,,,30.0,0.0,0.0,-0.7,2.2,1.2,,,,,16.0,34.0,17.0,45.0,16.0,17.0,17.0,24.0,,,15.0,0.0,,32.2,4.0,0.0,,,0.665,0.801,8.5,14.8,,,,,,0.0,2026-02-22 15:00:12-08:00
102.06,1.0,8.0,2026-02-22 23:01:47,37.08159,-121.59956,328.0,0.0,124.9,-12.6,,,,,23:01:46,10.9,-0.8,21.3,0.0,-43.0,0.1,-0.01,1.0,,80.0,22.0,0.0,30.06,820.0,,,133.0,,,,,0.0,0.0,,,,,,,,,,,,,,,,,,,9.0,13.0,183.0,183.0,30.2,0.0,,0.0,32.2,,,30.0,0.0,0.0,-0.7,2.2,1.2,,,,,13.0,30.0,14.0,42.0,13.0,14.0,14.0,20.0,,,15.0,0.0,,32.2,4.0,0.0,,,0.664,0.801,8.9,13.0,,,,,,183.0,2026-02-22 15:00:12-08:00
103.06,1.0,8.0,2026-02-22 23:01:48,37.08159,-121.59957,329.0,0.0,124.9,-12.6,,,,,23:01:47,10.9,-0.7,21.2,0.0,-42.0,0.1,-0.02,1.0,,82.0,22.0,0.0,30.06,821.0,,,133.0,,,,,0.0,0.0,,,,,,,,,,,,,,,,,,,12.0,14.0,776.0,776.0,26.2,1.4,,1.4,24.4,,,30.0,0.0,0.0,-0.6,2.2,1.2,,,,,15.0,70.0,15.0,62.0,15.0,60.0,15.0,40.0,,,15.0,0.0,,24.4,4.0,0.0,,,0.667,0.802,12.1,13.8,,,3.0,L,,776.0,2026-02-22 15:00:12-08:00
104.06,1.0,8.0,2026-02-22 23:01:49,37.08159,-121.59957,329.0,0.0,124.9,-12.6,,,,,23:01:48,10.9,-0.7,21.2,0.0,-38.0,0.1,-0.01,1.0,,142.0,22.0,0.0,30.06,826.0,,,133.0,,,,,0.0,0.0,,,,,,,,,,,,,,,,,,,17.0,15.0,907.0,907.0,22.3,2.1,,2.1,24.1,,,30.0,0.0,0.0,-0.6,2.2,1.2,,,,,17.0,124.0,17.0,89.0,17.0,116.0,17.0,100.0,,,15.0,0.0,,24.1,4.0,0.0,,,0.663,0.801,17.0,14.8,,,10.0,P,,907.0,2026-02-22 15:00:12-08:00
105.06,1.0,8.0,2026-02-22 23:01:50,37.08159,-121.59957,330.0,0.1,124.9,-12.6,,,,,23:01:49,10.9,-0.8,21.2,0.0,-36.0,0.1,-0.01,1.0,,125.0,22.0,0.0,30.06,828.0,,,133.0,,,,,0.0,0.0,,,,,,,,,,,,,,,,,,,23.0,15.0,946.0,946.0,21.3,2.6,,2.6,24.3,,,30.0,0.0,0.0,-0.7,2.2,1.2,,,,,17.0,153.0,17.0,115.0,17.0,163.0,17.0,152.0,,,15.0,0.0,,24.3,4.0,0.0,,,0.674,0.802,23.0,14.8,,,12.0,R,,946.0,2026-02-22 15:00:12-08:00
106.06,1.0,8.0,2026-02-22 23:01:51,37.08159,-121.59957,330.0,0.0,124.9,-12.6,,,,,23:01:50,10.9,-0.7,21.2,0.0,-35.0,0.1,-0.01,1.0,,89.0,22.0,0.0,30.06,829.0,,,133.0,,,,,0.0,0.0,,,,,,,,,,,,,,,,,,,30.0,15.0,981.0,981.0,20.7,3.0,,3.0,24.4,,,30.0,0.0,0.0,-0.7,2.2,1.2,,,,,17.0,184.0,18.0,138.0,17.0,202.0,18.0,195.0,,,15.0,0.0,,24.4,4.0,0.0,,,0.691,0.802,30.4,14.8,,,11.0,R,,981.0,2026-02-22 15:00:12-08:00
107.06,1.0,8.0,2026-02-22 23:01:52,37.08159,-121.59957,331.0,0.0,124.9,-12.6,,,,,23:01:51,10.9,-0.7,21.2,0.0,-34.0,0.0,-0.01,1.0,,66.0,22.0,0.0,30.06,830.0,,,133.0,,,,,0.0,0.0,,,,,,,,,,,,,,,,,,,39.0,15.0,1019.0,1019.0,20.1,3.3,,3.3,24.7,,,30.0,0.0,0.0,-0.7,2.2,1.2,,,,,17.0,207.0,18.0,160.0,18.0,240.0,18.0,234.0,,,15.0,0.0,,24.7,4.0,0.0,,,0.668,0.801,39.2,14.8,,,,,,1019.0,2026-02-22 15:00:12-08:00
108.06,1.0,8.0,2026-02-22 23:01:53,37.08159,-121.59957,332.0,0.0,124.9,-12.6,,,,,23:01:52,10.9,-0.8,21.2,0.0,-34.0,0.1,-0.01,1.0,,67.0,22.0,0.0,30.06,841.0,,,133.0,,,,,0.0,0.0,,,,,,,,,,,,,,,,,,,49.0,15.0,1073.0,1073.0,19.5,3.6,,3.6,24.8,,,30.0,0.0,0.0,-0.7,2.2,1.2,,,,,18.0,237.0,18.0,178.0,18.0,272.0,19.0,271.0,,,15.0,0.0,,24.8,4.0,0.0,,,0.668,0.801,48.7,14.8,,,,,,1073.0,2026-02-22 15:00:12-08:00
109.06,1.0,8.0,2026-02-22 23:01:54,37.08159,-121.59957,332.0,0.0,124.9,-12.6,,,,,23:01:53,10.9,-0.7,21.1,0.0,-33.0,0.0,-0.01,1.0,,34.0,23.0,0.0,30.06,842.0,,,133.0,,,,,0.0,0.0,,,,,,,,,,,,,,,,,,,58.0,15.0,1115.0,1115.0,18.8,3.8,,3.8,25.0,,,30.0,0.0,0.0,-0.7,2.2,1.2,,,,,18.0,276.0,19.0,194.0,18.0,303.0,19.0,302.0,,,15.0,0.0,,25.0,4.0,0.0,,,0.67,0.802,57.9,14.8,,,,,,1115.0,2026-02-22 15:00:12-08:00
110.06,1.0,8.0,2026-02-22 23:01:55,37.08159,-121.59957,333.0,0.0,124.9,-12.6,,,,,23:01:54,10.9,-0.7,21.2,0.0,-33.0,0.0,-0.02,1.0,,28.0,23.0,0.0,30.06,842.0,,,133.0,,,,,0.0,0.0,,,,,,,,,,,,,,,,,,,65.0,15.0,1154.0,1154.0,18.1,3.9,,3.9,25.2,,,30.0,0.0,0.0,-0.7,2.2,1.2,,,,,18.0,313.0,19.0,215.0,19.0,331.0,20.0,330.0,,,15.0,0.0,,25.2,4.0,0.0,,,0.662,0.802,65.2,14.8,,,,,,1154.0,2026-02-22 15:00:12-08:00
111.06,1.0,8.0,2026-02-22 23:01:56,37.08159,-121.59957,334.0,0.0,124.9,-12.6,,,,,23:01:55,10.9,-0.7,21.2,0.0,-33.0,0.1,-0.02,1.0,,-2.0,23.0,0.0,30.06,842.0,,,133.0,,,,,0.0,0.0,,,,,,,,,,,,,,,,,,,70.0,15.0,1187.0,1187.0,17.4,4.0,,4.0,25.3,,,30.0,0.0,0.0,-0.7,2.2,1.2,,,,,19.0,345.0,19.0,252.0,19.0,357.0,20.0,357.0,,,15.0,0.0,,25.3,4.0,0.0,,,0.66,0.801,70.1,14.8,,,,,,1187.0,2026-02-22 15:00:12-08:00
112.06,1.0,8.0,2026-02-22 23:01:57,37.08159,-121.59957,334.0,0.0,124.9,-12.6,,,,,23:01:56,10.9,-0.7,21.2,0.0,-33.0,0.0,-0.01,1.0,,21.0,23.0,0.0,30.06,853.0,,,133.0,,,,,0.0,0.0,,,,,,,,,,,,,,,,,,,73.0,15.0,1215.0,1215.0,17.1,4.0,,4.0,25.5,,,30.0,0.0,0.0,-0.7,2.2,1.2,,,,,19.0,373.0,20.0,289.0,19.0,379.0,21.0,379.0,,,15.0,0.0,,25.5,4.0,0.0,,,0.659,0.801,72.8,14.8,,,,,,1215.0,2026-02-22 15:00:12-08:00
113.06,1.0,8.0,2026-02-22 23:01:58,37.08159,-121.59957,335.0,0.0,124.9,-12.6,,,,,23:01:57,11.0,-0.7,21.2,0.0,-32.0,0.0,-0.01,1.0,,-2.0,23.0,0.0,30.06,854.0,,,133.0,,,,,0.0,0.0,,,,,,,,,,,,,,,,,,,74.0,15.0,1227.0,1227.0,16.8,4.1,,4.1,25.6,,,30.0,0.0,0.0,-0.7,2.2,1.2,,,,,19.0,397.0,20.0,322.0,20.0,400.0,21.0,400.0,,,15.0,0.0,,25.6,4.0,0.0,,,0.659,0.801,74.1,14.8,,,,,,1227.0,2026-02-22 15:00:12-08:00
114.06,1.0,8.0,2026-02-22 23:01:59,37.08158,-121.59958,335.0,0.0,124.9,-12.6,,,,,23:01:58,11.0,-0.7,21.2,0.0,-32.0,0.1,-0.01,1.0,,-30.0,23.0,0.0,30.06,854.0,,,133.0,,,,,0.0,0.0,,,,,,,,,,,,,,,,,,,75.0,15.0,1123.0,1123.0,15.3,4.0,,4.0,25.8,,,30.0,0.0,0.0,-0.7,2.2,1.2,,,,,20.0,416.0,21.0,349.0,20.0,418.0,22.0,418.0,,,15.0,0.0,,25.8,4.0,0.0,,,0.659,0.801,74.7,14.9,,,,,,1123.0,2026-02-22 15:00:12-08:00
115.06,1.0,8.0,2026-02-22 23:02:00,37.08158,-121.59958,336.0,0.0,124.9,-12.6,,,,,23:01:59,11.0,-0.7,21.2,0.0,-32.0,0.0,-0.02,1.0,,-28.0,23.0,0.0,30.06,864.0,,,133.0,,,,,0.0,0.0,,,,,,,,,,,,,,,,,,,75.0,15.0,1125.0,1125.0,14.9,3.8,,3.8,25.8,,,30.0,0.0,0.0,-0.7,2.2,1.2,,,,,20.0,430.0,22.0,370.0,21.0,433.0,22.0,432.0,,,15.0,0.0,,25.8,4.0,0.0,,,0.66,0.801,75.1,14.9,,,,,,1125.0,2026-02-22 15:00:12-08:00
116.06,1.0,8.0,2026-02-22 23:02:01,37.08158,-121.59958,336.0,0.0,124.9,-12.6,,,,,23:02:00,11.0,-0.7,21.2,0.0,-32.0,0.1,-0.02,0.9,,-58.0,23.0,0.0,30.06,864.0,,,133.0,,,,,0.0,0.0,,,,,,,,,,,,,,,,,,,75.0,15.0,1102.0,1102.0,14.6,3.7,,3.7,25.9,,,30.0,0.0,0.0,-0.7,2.2,1.2,,,,,21.0,441.0,22.0,389.0,21.0,446.0,23.0,445.0,,,15.0,0.0,,25.9,4.0,0.0,,,0.66,0.801,75.2,14.9,,,,,,1102.0,2026-02-22 15:00:12-08:00
117.06,1.0,8.0,2026-02-22 23:02:02,37.08158,-121.59958,337.0,0.0,124.9,-12.6,,,,,23:02:01,11.0,-0.6,21.2,0.0,-32.0,0.1,-0.01,1.0,,-71.0,23.0,0.0,30.06,864.0,,,133.0,,,,,0.0,0.0,,,,,,,,,,,,,,,,,,,75.0,15.0,1098.0,1098.0,14.6,3.6,,3.6,26.0,,,30.0,0.0,0.0,-0.7,2.2,1.2,,,,,21.0,453.0,23.0,407.0,22.0,456.0,23.0,457.0,,,15.0,0.0,,26.0,4.0,0.0,,,0.658,0.801,75.4,14.9,,,,,,1098.0,2026-02-22 15:00:12-08:00
118.06,1.0,8.0,2026-02-22 23:02:03,37.08158,-121.59958,337.0,0.0,124.9,-12.6,,,,,23:02:02,11.0,-0.7,21.2,0.0,-32.0,0.1,-0.02,1.0,,-80.0,23.0,0.0,30.06,874.0,,,133.0,,,,,0.0,0.0,,,,,,,,,,,,,,,,,,,76.0,15.0,1090.0,1090.0,14.5,3.5,,3.5,26.0,,,30.0,0.0,0.0,-0.7,2.2,1.2,,,,,22.0,463.0,23.0,422.0,22.0,466.0,24.0,466.0,,,15.0,0.0,,26.0,4.0,0.0,,,0.658,0.801,75.6,14.9,,,,,,1090.0,2026-02-22 15:00:12-08:00
119.06,1.0,8.0,2026-02-22 23:02:04,37.08158,-121.59958,337.0,0.0,124.9,-12.6,,,,,23:02:03,11.0,-0.6,21.3,0.0,-32.0,0.1,-0.01,1.0,,-52.0,23.0,0.0,30.06,874.0,,,133.0,,,,,0.0,0.0,,,,,,,,,,,,,,,,,,,76.0,15.0,1045.0,1045.0,14.4,3.4,,3.4,26.1,,,30.0,0.0,0.0,-0.7,2.2,1.2,,,,,23.0,470.0,24.0,436.0,23.0,474.0,25.0,475.0,,,15.0,0.0,,26.1,4.0,0.0,,,0.659,0.801,75.7,14.9,,,,,,1045.0,2026-02-22 15:00:12-08:00
120.06,1.0,8.0,2026-02-22 23:02:05,37.08158,-121.59958,337.0,0.0,124.9,-12.6,,,,,23:02:04,10.9,-0.6,21.3,0.0,-32.0,0.1,-0.02,1.0,,-70.0,23.0,0.0,30.06,874.0,,,133.0,,,,,0.0,0.0,,,,,,,,,,,,,,,,,,,76.0,15.0,1031.0,1031.0,14.3,3.3,,3.3,26.1,,,30.0,0.0,0.0,-0.7,2.2,1.2,,,,,23.0,477.0,25.0,448.0,23.0,480.0,25.0,482.0,,,15.0,0.0,,26.1,4.0,0.0,,,0.658,0.802,75.8,14.9,,,,,,1031.0,2026-02-22 15:00:12-08:00
121.06,1.0,8.0,2026-02-22 23:02:06,37.08158,-121.59958,337.0,0.0,124.9,-12.6,,,,,23:02:05,10.9,-0.6,21.3,0.0,-34.0,0.1,-0.01,1.0,,-95.0,23.0,0.0,30.06,874.0,,,133.0,,,,,0.0,0.0,,,,,,,,,,,,,,,,,,,76.0,15.0,1078.0,1078.0,14.4,3.1,,3.1,26.3,,,30.0,0.0,0.0,-0.7,2.2,1.2,,,,,24.0,484.0,25.0,458.0,24.0,485.0,26.0,488.0,,,15.0,0.0,,26.3,4.0,0.0,,,0.658,0.802,75.9,14.9,,,,,,1078.0,2026-02-22 15:00:12-08:00
122.06,1.0,8.0,2026-02-22 23:02:07,37.08158,-121.59958,337.0,0.0,124.9,-12.6,,,,,23:02:06,10.9,-0.6,21.4,0.0,-34.0,0.1,-0.01,1.0,,-57.0,23.0,0.0,30.06,882.0,,,133.0,,,,,0.0,0.0,,,,,,,,,,,,,,,,,,,76.0,15.0,1089.0,1089.0,13.8,2.9,,2.9,26.3,,,30.0,0.0,0.0,-0.7,2.2,1.2,,,,,24.0,489.0,26.0,466.0,24.0,492.0,26.0,495.0,,,15.0,0.0,,26.3,4.0,0.0,,,0.658,0.802,76.0,14.9,,,,,,1089.0,2026-02-22 15:00:12-08:00
123.06,1.0,8.0,2026-02-22 23:02:08,37.08158,-121.59958,337.0,0.0,124.9,-12.6,,,,,23:02:07,10.9,-0.7,21.3,0.0,-34.0,0.1,-0.01,1.0,,-36.0,23.0,0.0,30.06,882.0,,,133.0,,,,,0.0,0.0,,,,,,,,,,,,,,,,,,,76.0,15.0,1085.0,1085.0,13.6,2.8,,2.8,26.3,,,30.0,0.0,0.0,-0.7,2.2,1.2,,,,,25.0,494.0,26.0,473.0,25.0,500.0,27.0,502.0,,,15.0,0.0,,26.3,4.0,0.0,,,0.657,0.801,76.1,14.9,,,,,,1085.0,2026-02-22 15:00:12-08:00
124.06,1.0,8.0,2026-02-22 23:02:09,37.08158,-121.59958,337.0,0.0,124.9,-12.6,,,,,23:02:08,10.9,-0.8,21.3,0.0,-34.0,0.0,-0.01,1.0,,-32.0,23.0,0.0,30.06,883.0,,,133.0,,,,,0.0,0.0,,,,,,,,,,,,,,,,,,,76.0,15.0,1075.0,1075.0,13.5,2.7,,2.7,26.3,,,30.0,0.0,0.0,-0.7,2.2,1.2,,,,,25.0,498.0,27.0,480.0,25.0,508.0,28.0,509.0,,,15.0,0.0,,26.3,4.0,0.0,,,0.659,0.801,76.1,14.9,,,,,,1075.0,2026-02-22 15:00:12-08:00
125.06,1.0,8.0,2026-02-22 23:02:10,37.08158,-121.59958,337.0,0.0,124.9,-12.6,,,,,23:02:09,10.8,-0.7,21.2,0.0,-34.0,0.0,-0.01,0.9,,-17.0,23.0,0.0,30.06,883.0,,,133.0,,,,,0.0,0.0,,,,,,,,,,,,,,,,,,,76.0,15.0,1085.0,1085.0,13.4,2.6,,2.6,26.4,,,30.0,0.0,0.0,-0.7,2.2,1.2,,,,,26.0,502.0,27.0,486.0,26.0,516.0,28.0,516.0,,,15.0,0.0,,26.4,4.0,0.0,,,0.663,0.801,76.2,15.0,,,,,,1085.0,2026-02-22 15:00:12-08:00
126.06,1.0,8.0,2026-02-22 23:02:11,37.08158,-121.59958,337.0,0.0,124.9,-12.6,,,,,23:02:10,10.8,-0.8,21.2,0.0,-34.0,0.1,-0.02,1.0,,0.0,23.0,0.0,30.06,883.0,,,133.0,,,,,0.0,0.0,,,,,,,,,,,,,,,,,,,76.0,15.0,1096.0,1096.0,13.3,2.5,,2.5,26.4,,,30.0,0.0,0.0,-0.7,2.2,1.2,,,,,27.0,507.0,28.0,492.0,26.0,523.0,29.0,522.0,,,15.0,0.0,,26.4,4.0,0.0,,,0.673,0.801,76.2,15.0,,,,,,1096.0,2026-02-22 15:00:12-08:00
127.06,1.0,8.0,2026-02-22 23:02:12,37.08158,-121.59958,336.0,0.0,124.9,-12.6,,,,,23:02:11,10.8,-0.7,21.2,0.0,-34.0,0.1,-0.01,1.0,,39.0,23.0,0.0,30.06,893.0,,,133.0,,,,,0.0,0.0,,,,,,,,,,,,,,,,,,,76.0,15.0,1095.0,1095.0,13.3,2.4,,2.4,26.4,,,30.0,0.0,0.0,-0.7,2.2,1.2,,,,,27.0,510.0,29.0,498.0,27.0,529.0,29.0,529.0,,,15.0,0.0,,26.4,4.0,0.0,,,0.662,0.801,76.2,15.0,,,,,,1095.0,2026-02-22 15:00:12-08:00
128.06,1.0,8.0,2026-02-22 23:02:13,37.08157,-121.59959,344.0,0.0,124.9,-12.6,,,,,23:02:12,10.8,-0.7,21.2,0.0,-34.0,0.1,-0.01,1.0,,48.0,23.0,0.0,30.06,893.0,,,133.0,,,,,0.0,0.0,,,,,,,,,,,,,,,,,,,76.0,16.0,1083.0,1083.0,13.2,2.4,,2.4,26.4,,,30.0,0.0,0.0,4.1,2.2,1.2,,,,,29.0,514.0,31.0,504.0,29.0,536.0,31.0,536.0,,,15.0,0.0,,26.4,4.0,0.0,,,0.658,0.801,76.2,15.8,,,,,,1083.0,2026-02-22 15:00:12-08:00
129.06,1.0,8.0,2026-02-22 23:02:14,37.08157,-121.59959,343.0,0.0,124.9,-12.6,,,,,23:02:13,10.8,-0.7,21.2,0.0,-34.0,0.1,-0.02,1.0,,16.0,23.0,0.0,30.06,893.0,,,133.0,,,,,0.0,0.0,,,,,,,0.0,,,-3.0,,,,,,,,,76.0,16.0,1053.0,1053.0,13.5,2.3,,2.3,26.3,,,30.0,0.0,0.0,28.8,2.2,1.2,,,,,30.0,516.0,31.0,507.0,30.0,541.0,32.0,542.0,,,15.0,0.0,,26.3,4.0,0.0,,,0.658,0.801,76.2,15.9,,,,,,1053.0,2026-02-22 15:00:12-08:00
130.06,1.0,8.0,2026-02-22 23:02:15,37.08157,-121.59959,342.0,0.0,124.9,-12.6,,,,,23:02:14,10.8,-0.8,21.1,0.0,-34.0,0.1,-0.01,1.0,,44.0,23.0,0.0,30.06,903.0,,,133.0,,,,,0.0,0.0,,,,,,,0.0,,,-4.0,,,,,,,,,76.0,16.0,1041.0,1041.0,13.7,2.3,,2.3,26.4,,,30.0,0.0,0.0,43.3,2.2,1.2,,,,,31.0,518.0,32.0,511.0,30.0,546.0,33.0,547.0,,,15.0,0.0,,26.4,4.0,0.0,,,0.657,0.802,76.2,15.9,,,,,,1041.0,2026-02-22 15:00:12-08:00
131.06,1.0,8.0,2026-02-22 23:02:16,37.08158,-121.59959,341.0,0.0,124.9,-12.6,,,,,23:02:15,10.8,-0.7,21.1,0.0,-34.0,0.1,-0.01,1.0,,23.0,23.0,0.0,30.06,903.0,,,133.0,,,,,0.0,0.0,,,,,,,0.0,,,-5.0,,,,,,,,,76.0,16.0,1053.0,1053.0,13.8,2.3,,2.3,26.4,,,30.0,0.0,0.0,52.0,2.2,1.2,,,,,31.0,519.0,33.0,515.0,31.0,549.0,33.0,552.0,,,15.0,0.0,,26.4,4.0,0.0,,,0.657,0.802,76.2,15.9,,,,,,1053.0,2026-02-22 15:00:12-08:00
132.06,1.0,8.0,2026-02-22 23:02:17,37.08158,-121.59959,341.0,0.0,124.9,-12.6,,,,,23:02:16,10.8,-0.7,21.1,0.0,-34.0,0.1,-0.01,1.0,,-31.0,23.0,0.0,30.06,904.0,,,133.0,,,,,0.0,0.0,,,,,,,0.0,,,-5.0,,,,,,,,,76.0,16.0,1048.0,1048.0,13.9,2.3,,2.3,26.4,,,30.0,0.0,0.0,57.2,2.2,1.2,,,,,32.0,521.0,33.0,517.0,31.0,553.0,34.0,556.0,,,15.0,0.0,,26.4,4.0,0.0,,,0.657,0.801,76.3,15.9,,,,,,1048.0,2026-02-22 15:00:12-08:00
133.06,1.0,8.0,2026-02-22 23:02:18,37.08158,-121.59959,340.0,0.0,124.9,-12.6,,,,,23:02:17,10.8,-0.7,21.1,0.0,-34.0,0.1,-0.01,1.0,,-13.0,23.0,0.0,30.06,904.0,,,133.0,,,,,0.0,0.0,,,,,,,0.0,,,-5.0,,,,,1.0,0.0,0.0,1200.0,76.0,16.0,1059.0,1059.0,13.9,2.3,,2.3,26.4,,,30.0,0.0,0.0,60.4,2.2,1.2,,,,,33.0,523.0,34.0,520.0,32.0,557.0,35.0,560.0,,,15.0,0.0,,26.4,4.0,0.0,,,0.656,0.801,76.4,15.9,,,,,,1059.0,2026-02-22 15:00:12-08:00
134.06,1.0,8.0,2026-02-22 23:02:19,37.08158,-121.59959,339.0,0.0,124.9,-12.6,,,,,23:02:18,10.8,-0.7,21.2,0.0,-34.0,0.1,-0.01,1.0,,5.0,23.0,0.0,30.06,904.0,,,133.0,,,,,0.0,0.0,,,,,,,0.0,,,-7.0,,,,,1.0,0.0,0.0,1200.0,76.0,16.0,1040.0,1040.0,13.8,2.3,,2.3,26.4,,,30.0,0.0,0.0,62.1,2.2,1.2,,,,,33.0,525.0,35.0,523.0,33.0,561.0,35.0,563.0,,,15.0,0.0,,26.4,4.0,0.0,,,0.657,0.801,76.4,15.9,,,,,,1040.0,2026-02-22 15:00:12-08:00
135.06,1.0,8.0,2026-02-22 23:02:20,37.08158,-121.59959,339.0,0.0,124.9,-12.6,,,,,23:02:19,10.8,-0.7,21.2,0.0,-34.0,0.1,-0.02,1.0,,15.0,23.0,0.0,30.06,913.0,,,133.0,,,,,0.0,0.0,,,,,,,0.0,,,-8.0,,,,,1.0,0.0,0.0,1200.0,76.0,16.0,1051.0,1051.0,14.0,2.3,,2.3,26.4,,,30.0,0.0,0.0,63.0,2.2,1.2,,,,,34.0,528.0,36.0,525.0,33.0,564.0,36.0,566.0,,,15.0,0.0,,26.4,4.0,0.001,,,0.656,0.801,76.4,15.9,,,,,,1051.0,2026-02-22 15:00:12-08:00
136.06,1.0,8.0,2026-02-22 23:02:21,37.08158,-121.59959,338.0,0.0,124.9,-12.6,,,,,23:02:20,10.9,-0.7,21.1,0.0,-34.0,0.0,-0.01,1.0,,22.0,23.0,0.0,30.06,913.0,,,133.0,,,,,0.0,0.0,,,,,,,0.0,,,-8.0,,,,,,,,,76.0,16.0,1055.0,1055.0,13.9,2.3,,2.3,26.4,,,30.0,0.0,0.0,63.7,2.2,1.2,,,,,34.0,529.0,36.0,528.0,34.0,566.0,37.0,569.0,,,15.0,0.0,,26.4,4.0,0.001,,,0.656,0.802,76.5,15.9,,,,,,1055.0,2026-02-22 15:00:12-08:00
137.06,1.0,8.0,2026-02-22 23:02:22,37.08158,-121.59959,337.0,0.0,124.9,-12.6,,,,,23:02:21,10.8,-0.7,21.2,0.0,-34.0,0.1,-0.01,0.9,,62.0,23.0,0.0,30.06,913.0,,,133.0,,,,,0.0,0.0,,,,,,,0.0,,,-9.0,,,,,,,,,77.0,16.0,1054.0,1054.0,13.9,2.3,,2.3,26.4,,,30.0,0.0,0.0,64.1,2.2,1.2,,,,,35.0,530.0,37.0,530.0,34.0,568.0,37.0,573.0,,,15.0,0.0,,26.4,4.0,0.001,,,0.657,0.802,76.5,15.9,,,,,,1054.0,2026-02-22 15:00:12-08:00
138.06,1.0,8.0,2026-02-22 23:02:23,37.08158,-121.59959,337.0,0.0,124.9,-12.6,,,,,23:02:22,10.8,-0.8,21.1,0.0,-34.0,0.0,-0.01,1.0,,19.0,23.0,0.0,30.06,913.0,,,133.0,,,,,0.0,0.0,,,,,,,0.0,,,-10.0,,,,,,,,,77.0,16.0,1059.0,1059.0,13.9,2.3,,2.3,26.4,,,30.0,0.0,0.0,64.2,2.2,1.2,,,,,36.0,532.0,37.0,532.0,35.0,571.0,38.0,576.0,,,15.0,0.0,,26.4,4.0,0.001,,,0.656,0.801,76.6,15.9,,,,,,1059.0,2026-02-22 15:00:12-08:00
139.06,2.0,8.0,2026-02-22 23:02:24,37.08158,-121.5996,338.0,0.1,124.9,-12.6,,,,,23:02:23,10.8,-0.7,21.1,0.0,-34.0,0.0,-0.01,1.0,,58.0,23.0,0.0,30.06,914.0,,,133.0,,,,,0.0,0.0,,,,,,,0.0,,,-10.0,,,,,,,,,77.0,16.0,1060.0,1060.0,13.8,2.3,,2.3,26.4,,,30.0,0.0,0.0,64.4,2.2,1.2,,,,,36.0,535.0,38.0,535.0,36.0,575.0,38.0,578.0,,,15.0,0.0,,26.4,4.0,0.001,,,0.656,0.801,76.6,15.9,,,,,,1060.0,2026-02-22 15:00:12-08:00
140.06,2.0,8.0,2026-02-22 23:02:25,37.08158,-121.59959,338.0,0.0,124.9,-12.6,,,,,23:02:24,10.7,-0.7,21.1,0.0,-34.0,0.1,-0.01,1.0,,60.0,23.0,0.0,30.06,914.0,,,133.0,,,,,0.0,0.0,,,,,,,0.0,,,-10.0,,,,,,,,,77.0,16.0,1075.0,1075.0,13.8,2.2,,2.2,26.4,,,30.0,0.0,0.0,64.7,2.2,1.2,,,,,37.0,536.0,39.0,537.0,37.0,576.0,39.0,580.0,,,15.0,0.0,,26.4,4.0,0.001,,,0.656,0.802,76.7,15.9,,,,,,1075.0,2026-02-22 15:00:12-08:00
141.06,2.0,8.0,2026-02-22 23:02:26,37.08158,-121.59959,336.0,0.0,124.9,-12.6,,,,,23:02:25,10.7,-0.8,21.1,0.0,-33.0,0.1,-0.02,0.9,,60.0,23.0,0.0,30.06,915.0,,,133.0,,,,,0.0,0.0,,,,,,,0.0,,,-11.0,,,,,,,,,77.0,16.0,1067.0,1067.0,13.6,2.2,,2.2,26.4,,,30.0,0.0,0.0,64.9,2.2,1.2,,,,,37.0,540.0,39.0,539.0,37.0,578.0,40.0,582.0,,,16.0,0.0,,26.4,4.0,0.001,,,0.656,0.801,76.7,15.9,,,,,,1067.0,2026-02-22 15:00:12-08:00
142.06,2.0,8.0,2026-02-22 23:02:27,37.08158,-121.59959,335.0,0.1,124.9,-12.6,,,,,23:02:26,10.8,-0.7,21.1,0.0,-33.0,0.1,-0.02,1.0,,29.0,23.0,0.0,30.06,915.0,,,133.0,,,,,0.0,0.0,,,,,,,0.0,,,-11.0,,,,,,,,,77.0,16.0,1076.0,1076.0,13.7,2.2,,2.2,26.4,,,30.0,0.0,0.0,64.6,2.2,1.2,,,,,38.0,542.0,40.0,540.0,37.0,580.0,40.0,587.0,,,15.0,0.0,,26.4,4.0,0.001,,,0.654,0.801,76.7,15.9,,,,,,1076.0,2026-02-22 15:00:12-08:00
143.06,2.0,8.0,2026-02-22 23:02:28,37.08158,-121.59959,335.0,0.1,124.9,-12.6,,,,,23:02:27,10.8,-0.7,21.1,0.0,-32.0,0.1,-0.02,1.0,,21.0,23.0,0.0,30.06,916.0,,,133.0,,,,,0.0,0.0,,,,,,,0.0,,,-12.0,,,,,,,,,77.0,16.0,1067.0,1067.0,13.6,2.2,,2.2,26.4,,,30.0,0.0,0.0,62.2,2.2,1.2,,,,,39.0,542.0,41.0,543.0,38.0,582.0,41.0,593.0,,,16.0,0.0,,26.4,4.0,0.001,,,0.654,0.801,76.7,15.9,,,,,,1067.0,2026-02-22 15:00:12-08:00
144.06,2.0,8.0,2026-02-22 23:02:29,37.08158,-121.59959,333.0,0.1,124.9,-12.6,,,,,23:02:28,10.8,-0.8,21.1,0.0,-32.0,0.0,-0.02,1.0,,-18.0,23.0,0.0,30.06,916.0,,,133.0,,,,,0.0,0.0,,,,,,,0.0,,,-12.0,,,,,,,,,77.0,16.0,1089.0,1089.0,13.8,2.2,,2.2,26.4,,,30.0,0.0,0.0,58.6,2.2,1.2,,,,,39.0,544.0,41.0,545.0,39.0,585.0,42.0,596.0,,,15.0,0.0,,26.4,4.0,0.001,,,0.66,0.802,76.8,15.8,,,,,,1089.0,2026-02-22 15:00:12-08:00
145.06,2.0,8.0,2026-02-22 23:02:30,37.08158,-121.59959,333.0,0.1,124.9,-12.6,,,,,23:02:29,10.8,-0.8,21.0,0.0,-32.0,0.1,-0.02,1.0,,9.0,23.0,0.0,30.06,916.0,,,133.0,,,,,0.0,0.0,,,,,,,3.0,,,-13.0,,,,,,,,,77.0,16.0,1104.0,1104.0,13.5,2.2,,2.2,26.4,,,30.0,0.0,0.0,54.3,2.2,1.2,,,,,40.0,546.0,42.0,549.0,40.0,588.0,42.0,597.0,,,15.0,0.0,,26.4,4.0,0.001,,,0.659,0.801,76.8,15.8,,,,,,1104.0,2026-02-22 15:00:12-08:00
146.06,2.0,8.0,2026-02-22 23:02:31,37.08158,-121.59959,337.0,0.1,124.9,-12.6,,,,,23:02:30,10.8,-0.8,21.0,0.0,-32.0,0.0,-0.01,1.0,,-18.0,23.0,0.0,30.06,927.0,,,133.0,,,,,0.0,0.0,,,,,,,6.0,,,-13.0,,,,,,,,,77.0,16.0,1089.0,1089.0,13.4,2.2,,2.2,26.4,,,30.0,0.0,0.0,50.1,2.2,1.2,,,,,40.0,547.0,42.0,552.0,40.0,590.0,43.0,600.0,,,15.0,0.1,,26.4,4.0,0.001,,,0.657,0.801,76.7,15.8,,,,,,1089.0,2026-02-22 15:00:12-08:00
147.06,2.0,8.0,2026-02-22 23:02:32,37.08158,-121.59959,338.0,0.1,124.9,-12.6,,,,,23:02:31,10.8,-0.8,21.1,0.0,-32.0,0.1,-0.01,1.0,,-28.0,23.0,0.0,30.06,927.0,,,133.0,,,,,0.0,0.0,,,,,,,5.0,,,-13.0,,,,,,,,,77.0,16.0,1098.0,1098.0,13.3,2.2,,2.2,26.4,,,30.0,0.0,0.0,46.1,2.2,1.2,,,,,41.0,548.0,43.0,555.0,41.0,591.0,43.0,602.0,,,15.0,0.1,,26.4,4.0,0.0,,,0.659,0.801,76.7,15.8,,,,,,1098.0,2026-02-22 15:00:12-08:00
148.06,2.0,8.0,2026-02-22 23:02:33,37.08158,-121.59959,338.0,0.0,124.9,-12.6,,,,,23:02:32,10.8,-0.7,21.1,0.0,-32.0,0.1,-0.01,1.0,,-33.0,23.0,0.0,30.06,927.0,,,133.0,,,,,0.0,0.0,,,,,,,5.0,,,-13.0,,,,,,,,,77.0,16.0,1081.0,1081.0,13.3,2.2,,2.2,26.4,,,30.0,0.0,0.0,42.3,2.2,1.2,,,,,42.0,551.0,44.0,556.0,41.0,594.0,44.0,603.0,,,15.0,0.1,,26.4,4.0,0.001,,,0.676,0.802,76.7,15.7,,,,,,1081.0,2026-02-22 15:00:12-08:00
149.06,2.0,8.0,2026-02-22 23:02:34,37.08158,-121.59959,340.0,0.1,124.9,-12.6,,,,,23:02:33,10.8,-0.8,21.1,0.0,-32.0,0.1,-0.01,1.0,,2.0,23.0,0.0,30.06,936.0,,,133.0,,,,,0.0,0.0,,,,,,,5.0,,,-13.0,,,,,,,,,77.0,16.0,1110.0,1110.0,13.4,2.2,,2.2,26.4,,,30.0,0.0,0.0,38.8,2.2,1.2,,,,,42.0,553.0,44.0,558.0,42.0,599.0,45.0,605.0,,,15.0,0.1,,26.4,4.0,0.0,,,0.66,0.802,76.7,15.7,,,,,,1110.0,2026-02-22 15:00:12-08:00
150.06,2.0,8.0,2026-02-22 23:02:35,37.08158,-121.59959,339.0,0.1,124.9,-12.6,,,,,23:02:34,10.8,-0.8,21.2,0.0,-32.0,0.1,-0.01,0.9,,22.0,23.0,0.0,30.06,936.0,,,133.0,,,,,0.0,0.0,,,,,,,5.0,,,-13.0,,,,,,,,,77.0,16.0,1111.0,1111.0,13.2,2.2,,2.2,26.4,,,30.0,0.0,0.0,35.6,2.2,1.2,,,,,43.0,554.0,45.0,561.0,43.0,601.0,46.0,605.0,,,15.0,0.1,,26.4,4.0,0.0,,,0.659,0.802,76.7,15.7,,,,,,1111.0,2026-02-22 15:00:12-08:00
151.06,2.0,8.0,2026-02-22 23:02:36,37.08158,-121.59958,337.0,0.0,124.9,-12.6,,,,,23:02:35,10.8,-0.8,21.1,0.0,-32.0,0.1,-0.01,1.0,,-30.0,23.0,0.0,30.06,936.0,,,133.0,,,,,0.0,0.0,,,,,,,5.0,,,-13.0,,,,,,,,,77.0,16.0,1113.0,1113.0,13.1,2.2,,2.2,26.4,,,30.0,0.0,0.0,32.6,2.3,1.2,,,,,44.0,556.0,45.0,563.0,43.0,606.0,46.0,606.0,,,15.0,0.1,,26.4,4.0,0.0,,,0.657,0.801,76.7,15.7,,,,,,1113.0,2026-02-22 15:00:12-08:00
152.06,2.0,8.0,2026-02-22 23:02:37,37.08158,-121.59958,337.0,0.0,124.9,-12.6,,,,,23:02:36,10.8,-0.8,21.1,0.0,-32.0,0.1,-0.02,1.0,,-54.0,23.0,0.0,30.06,936.0,,,133.0,,,,,0.0,0.0,,,,,,,5.0,,,-14.0,,,,,,,,,77.0,16.0,1113.0,1113.0,13.1,2.2,,2.2,26.4,,,30.0,0.0,0.0,30.0,2.3,1.2,,,,,44.0,558.0,46.0,564.0,44.0,608.0,47.0,608.0,,,16.0,0.1,,26.4,4.0,0.0,,,0.656,0.802,76.7,15.7,,,,,,1113.0,2026-02-22 15:00:12-08:00
153.06,2.0,8.0,2026-02-22 23:02:38,37.08157,-121.59958,336.0,0.1,124.9,-12.6,,,,,23:02:37,10.8,-0.8,21.1,0.0,-32.0,0.1,-0.01,1.0,,-82.0,23.0,0.0,30.06,936.0,,,133.0,,,,,0.0,0.0,,,,,,,5.0,,,-14.0,,,,,,,,,77.0,16.0,1124.0,1124.0,13.1,2.2,,2.2,26.4,,,30.0,0.0,0.0,28.2,2.3,1.2,,,,,45.0,560.0,47.0,566.0,45.0,609.0,48.0,610.0,,,16.0,0.1,,26.4,4.0,0.0,,,0.657,0.802,76.7,15.7,,,,,,1124.0,2026-02-22 15:00:12-08:00
154.06,2.0,8.0,2026-02-22 23:02:39,37.08157,-121.59958,335.0,0.0,124.9,-12.6,,,,,23:02:38,10.8,-0.8,21.1,0.0,-32.0,0.1,-0.01,1.0,,-72.0,23.0,0.0,30.06,936.0,,,133.0,,,,,0.0,0.0,,,,,,,5.0,,,-14.0,,,,,,,,,77.0,16.0,1116.0,1116.0,13.0,2.2,,2.2,26.4,,,30.0,0.0,0.0,26.6,2.3,1.2,,,,,46.0,562.0,48.0,567.0,45.0,610.0,48.0,611.0,,,16.0,0.1,,26.4,4.0,0.0,,,0.656,0.801,76.7,15.7,,,,,,1116.0,2026-02-22 15:00:12-08:00
