Session Time,GPS Fix Quality,Number of Satellites,GPS Date & Time,Latitude (deg),Longitude (deg),GPS Altitude (feet),Ground Speed (knots),Ground Track (deg),Mag Var (deg),Cross Track Error (NM),Destination Waypoint ID,Range to Destination (NM),Bearing to Destination (deg),System Time,Pitch (deg),Roll (deg),Magnetic Heading (deg),Indicated Airspeed (knots),Pressure Altitude (ft),Turn Rate (deg/s),Lateral Accel (g),Vertical Accel(g),Angle of Attack (%),Vertical Speed (ft/min),OAT (deg C),True Airspeed (knots),Barometer Setting (inHg),Density Altitude (ft),Wind Direction (deg),Wind Speed (knots),Heading Bug (deg),Altitude Bug (ft),Airspeed Bug (knots),Vertical Speed Bug (ft/min),Course (deg),CDI Source Type,CDI Source Port,CDI Scale (NM),CDI Deflection (%),Glideslope (%),AP Engaged,AP Roll Mode,AP Roll Force,AP Roll Position (steps),AP Roll Slip (bool),AP Pitch Force,AP Pitch Position (steps),AP Pitch Slip (bool),AP Yaw Force,AP Yaw Position,AP Yaw Slip (bool),Transponder Status,Transponder Reply (bool),Transponder Identing (bool),Transponder Code (octal),Oil Pressure (PSI),Oil Temp (deg C),RPM L,RPM R,Manifold Pressure (inHg),Fuel Flow 1 (gal/hr),Fuel Flow 2 (gal/hr),Total Fuel Flow (gal/hr),Fuel Pressure (PSI),Fuel Level L (gal),Fuel Level R (gal),Fuel Remaining (gal),Volts 1,Volts 2,Amps,Hobbs Time,Tach Time,Thermocouple 1 (deg C),Thermocouple 2 (deg C),Thermocouple 3 (deg C),Thermocouple 4 (deg C),CHT 4 (deg C),EGT 4 (deg C),CHT 3 (deg C),EGT 3 (deg C),CHT 2 (deg C),EGT 2 (deg C),CHT 1 (deg C),EGT 1 (deg C),Thermocouple 13 (deg C),Thermocouple 14 (deg C),ELEV POSITION (%),CO PPM PRESSURE (PSI),GP Input 3,FUEL PRESSURE (PSI),AILERN POSITION (%),CANOPY CONTACT (V),GP Input 7,GP Input 8,LEFT LEVEL (Sensor V),RIGHT LEVEL (Sensor V),OIL PRESSURE (PSI),OIL TEMPERATURE (deg C),GP Input 13,Contacts,Percent Power,EGT Leaning State,Unnamed: 103,RPM,Flight ID
6.06,1.0,8.0,2026-04-18 15:46:35,37.0816,-121.59956,330.0,0.0,61.1,-12.6,,,,,15:46:35,10.8,-0.5,5.9,0.0,208.0,0.1,-0.01,1.0,99.0,-71.0,14.0,0.0,30.08,100.0,,,317.0,,,,,0.0,0.0,,,,,,,,,,,,,,,,,,,0.0,12.0,0.0,0.0,30.1,0.0,,0.0,0.0,,,36.1,0.0,0.0,-0.3,11.1,9.1,,,,,12.0,12.0,12.0,13.0,12.0,12.0,12.0,13.0,,,-2.0,254.6,,0.0,5.0,0.0,,,0.656,0.841,+0.0,11.9,,,,,,0.0,2026-04-18 08:46:35-07:00
7.06,1.0,9.0,2026-04-18 15:46:36,37.08162,-121.59959,286.0,0.0,61.1,-12.6,,,,,15:46:36,10.8,-0.5,5.9,0.0,208.0,0.1,-0.01,1.0,99.0,-74.0,14.0,0.0,30.08,107.0,,,317.0,,,,,0.0,0.0,,,,,,,,,,,,,,,,,,,0.0,12.0,0.0,0.0,30.1,0.0,,0.0,0.0,,,36.1,0.0,0.0,-0.3,11.1,9.1,,,,,12.0,12.0,12.0,13.0,12.0,12.0,12.0,13.0,,,-2.0,254.6,,0.0,5.0,0.0,,,0.656,0.841,+0.0,11.9,,,,,,0.0,2026-04-18 08:46:35-07:00
8.06,1.0,9.0,2026-04-18 15:46:37,37.08159,-121.59959,287.0,0.0,61.1,-12.6,,,,,15:46:37,10.8,-0.5,5.9,0.0,207.0,0.1,-0.01,1.0,99.0,-77.0,14.0,0.0,30.08,104.0,,,317.0,,,,,0.0,0.0,,,,,,,,,,,,,,,,,,,0.0,12.0,0.0,0.0,30.1,0.0,,0.0,0.0,,,36.1,0.0,0.0,-0.3,11.1,9.1,,,,,12.0,12.0,12.0,13.0,12.0,12.0,12.0,13.0,,,-2.0,254.6,,0.0,5.0,0.0,,,0.654,0.841,+0.0,11.9,,,,,,0.0,2026-04-18 08:46:35-07:00
9.06,1.0,9.0,2026-04-18 15:46:38,37.0816,-121.59959,285.0,0.0,61.1,-12.6,,,,,15:46:38,10.8,-0.5,6.0,0.0,205.0,0.1,-0.01,1.0,99.0,-57.0,14.0,0.0,30.08,104.0,,,317.0,,,,,0.0,0.0,,,,,,,,,,,,,,,,,,,0.0,12.0,0.0,0.0,30.1,0.0,,0.0,0.0,,,36.1,0.0,0.0,-0.3,11.1,9.1,,,,,12.0,12.0,12.0,13.0,12.0,12.0,12.0,13.0,,,-1.0,254.6,,0.0,5.0,0.0,,,0.654,0.841,+0.0,11.9,,,,,,0.0,2026-04-18 08:46:35-07:00
10.06,1.0,9.0,2026-04-18 15:46:39,37.0816,-121.59959,284.0,0.0,61.1,-12.6,,,,,15:46:39,10.8,-0.5,6.0,0.0,205.0,0.1,-0.01,1.0,99.0,-61.0,14.0,0.0,30.08,104.0,,,317.0,,,,,0.0,0.0,,,,,,,,,,,,,,,,,,,0.0,12.0,0.0,0.0,30.1,0.0,,0.0,0.0,,,36.1,0.0,0.0,-0.3,11.1,9.1,,,,,12.0,12.0,12.0,13.0,12.0,12.0,12.0,13.0,,,-2.0,254.6,,0.0,5.0,0.0,,,0.654,0.841,+0.0,11.9,,,,,,0.0,2026-04-18 08:46:35-07:00
11.06,1.0,9.0,2026-04-18 15:46:40,37.0816,-121.59959,282.0,0.0,61.1,-12.6,,,,,15:46:40,10.8,-0.5,6.0,0.0,204.0,0.1,-0.01,1.0,99.0,-62.0,14.0,0.0,30.08,103.0,,,317.0,,,,,0.0,0.0,,,,,,,,,,,,,,,,,,,0.0,12.0,0.0,0.0,30.1,0.0,,0.0,0.0,,,36.1,0.0,0.0,-0.3,11.1,9.1,,,,,12.0,12.0,12.0,13.0,12.0,12.0,12.0,13.0,,,-1.0,254.6,,0.0,5.0,0.0,,,0.654,0.841,+0.0,11.9,,,,,,0.0,2026-04-18 08:46:35-07:00
12.06,1.0,9.0,2026-04-18 15:46:41,37.0816,-121.59959,281.0,0.0,61.1,-12.6,,,,,15:46:41,10.9,-0.5,6.0,0.0,203.0,0.1,-0.01,1.0,99.0,-59.0,14.0,0.0,30.08,103.0,,,317.0,,,,,0.0,0.0,,,,,,,,,,,,,,,,,,,0.0,12.0,0.0,0.0,30.1,0.0,,0.0,0.0,,,36.1,0.0,0.0,-0.3,11.1,9.1,,,,,12.0,12.0,12.0,13.0,12.0,12.0,12.0,13.0,,,-1.0,254.6,,0.0,5.0,0.0,,,0.656,0.841,+0.0,11.9,,,,,,0.0,2026-04-18 08:46:35-07:00
13.06,1.0,9.0,2026-04-18 15:46:42,37.0816,-121.59959,279.0,0.0,61.1,-12.6,,,,,15:46:42,10.9,-0.5,5.9,0.0,202.0,0.1,-0.01,1.0,99.0,-43.0,14.0,0.0,30.08,103.0,,,317.0,,,,,0.0,0.0,,,,,,,,,,,,,,,,,,,0.0,12.0,0.0,0.0,30.1,0.0,,0.0,0.0,,,36.1,0.0,0.0,-0.3,11.1,9.1,,,,,12.0,12.0,12.0,13.0,12.0,12.0,12.0,13.0,,,-1.0,254.6,,0.0,5.0,0.0,,,0.654,0.841,+0.0,11.8,,,,,,0.0,2026-04-18 08:46:35-07:00
14.06,1.0,9.0,2026-04-18 15:46:43,37.08161,-121.59959,278.0,0.0,61.1,-12.6,,,,,15:46:43,10.9,-0.5,6.0,0.0,202.0,0.1,-0.01,1.0,99.0,-24.0,14.0,0.0,30.08,100.0,,,317.0,,,,,0.0,0.0,,,,,,,,,,,,,,,,,,,0.0,12.0,0.0,0.0,30.1,0.0,,0.0,0.0,,,36.1,0.0,0.0,-0.3,11.1,9.1,,,,,12.0,12.0,12.0,13.0,12.0,12.0,12.0,13.0,,,-1.0,254.6,,0.0,5.0,0.0,,,0.654,0.84,+0.0,11.8,,,,,,0.0,2026-04-18 08:46:35-07:00
15.06,1.0,9.0,2026-04-18 15:46:44,37.08161,-121.59959,276.0,0.0,61.1,-12.6,,,,,15:46:44,10.9,-0.6,5.9,0.0,202.0,0.1,-0.01,1.0,99.0,-38.0,14.0,0.0,30.08,100.0,,,317.0,,,,,0.0,0.0,,,,,,,,,,,,,,,,,,,0.0,12.0,0.0,0.0,30.1,0.0,,0.0,0.0,,,36.1,0.0,0.0,-0.3,11.1,9.1,,,,,12.0,12.0,12.0,13.0,12.0,12.0,12.0,13.0,,,-1.0,254.6,,0.0,5.0,0.0,,,0.654,0.841,+0.0,11.8,,,,,,0.0,2026-04-18 08:46:35-07:00
16.06,1.0,9.0,2026-04-18 15:46:45,37.08161,-121.59959,275.0,0.0,61.1,-12.6,,,,,15:46:45,10.8,-0.6,5.8,0.0,199.0,0.1,-0.01,1.0,99.0,-77.0,14.0,0.0,30.08,100.0,,,317.0,,,,,0.0,0.0,,,,,,,,,,,,,,,,,,,0.0,12.0,0.0,0.0,30.1,0.0,,0.0,0.0,,,36.1,0.0,0.0,-0.3,11.1,9.1,,,,,12.0,12.0,12.0,13.0,12.0,12.0,12.0,13.0,,,-1.0,254.6,,0.0,5.0,0.0,,,0.654,0.841,+0.0,11.8,,,,,,0.0,2026-04-18 08:46:35-07:00
17.06,1.0,9.0,2026-04-18 15:46:46,37.08162,-121.59959,274.0,0.0,61.1,-12.6,,,,,15:46:46,10.8,-0.6,5.8,0.0,198.0,0.1,-0.01,1.0,99.0,-73.0,14.0,0.0,30.08,97.0,,,317.0,,,,,0.0,0.0,,,,,,,,,,,,,,,,,,,0.0,12.0,0.0,0.0,30.1,0.0,,0.0,0.0,,,36.1,0.0,0.0,-0.3,11.1,9.1,,,,,12.0,12.0,12.0,13.0,12.0,12.0,12.0,13.0,,,-1.0,254.6,,0.0,5.0,0.0,,,0.654,0.841,+0.0,11.8,,,,,,0.0,2026-04-18 08:46:35-07:00
18.06,1.0,9.0,2026-04-18 15:46:47,37.08162,-121.59959,273.0,0.0,61.1,-12.6,,,,,15:46:47,10.8,-0.6,5.8,0.0,197.0,0.1,-0.01,1.0,99.0,-98.0,14.0,0.0,30.08,97.0,,,317.0,,,,,0.0,0.0,,,,,,,,,,,,,,,,,,,0.0,12.0,0.0,0.0,30.1,0.0,,0.0,0.0,,,36.1,0.0,0.0,-0.3,11.1,9.1,,,,,12.0,12.0,12.0,13.0,12.0,12.0,12.0,13.0,,,-1.0,254.6,,0.0,5.0,0.0,,,0.654,0.841,+0.0,11.8,,,,,,0.0,2026-04-18 08:46:35-07:00
19.06,1.0,9.0,2026-04-18 15:46:48,37.08162,-121.59959,272.0,0.0,61.1,-12.6,,,,,15:46:48,10.8,-0.6,5.8,0.0,196.0,0.1,-0.01,1.0,99.0,-72.0,14.0,0.0,30.08,97.0,,,317.0,,,,,0.0,0.0,,,,,,,,,,,,,,,,,,,0.0,12.0,0.0,0.0,30.1,0.0,,0.0,0.0,,,36.1,0.0,0.0,-0.3,11.1,9.1,,,,,12.0,12.0,12.0,13.0,12.0,12.0,12.0,13.0,,,-2.0,254.6,,0.0,5.0,0.0,,,0.656,0.841,+0.0,11.8,,,,,,0.0,2026-04-18 08:46:35-07:00
20.06,1.0,9.0,2026-04-18 15:46:49,37.08162,-121.59959,272.0,0.0,61.1,-12.6,,,,,15:46:49,10.8,-0.6,5.8,0.0,194.0,0.1,-0.01,1.0,99.0,-75.0,14.0,0.0,30.08,93.0,,,317.0,,,,,0.0,0.0,,,,,,,,,,,,,,,,,,,0.0,12.0,0.0,0.0,30.1,0.0,,0.0,0.0,,,36.1,0.0,0.0,-0.3,11.1,9.1,,,,,12.0,12.0,12.0,13.0,12.0,12.0,12.0,13.0,,,-1.0,254.6,,0.0,5.0,0.0,,,0.654,0.841,+0.0,11.8,,,,,,0.0,2026-04-18 08:46:35-07:00
21.06,1.0,9.0,2026-04-18 15:46:50,37.08162,-121.59959,272.0,0.0,61.1,-12.6,,,,,15:46:50,10.8,-0.5,5.8,0.0,193.0,0.1,-0.01,1.0,99.0,-98.0,14.0,0.0,30.08,93.0,,,317.0,,,,,0.0,0.0,,,,,,,,,,,,,,,,,,,0.0,12.0,0.0,0.0,30.1,0.0,,0.0,0.0,,,36.1,0.0,0.0,-0.3,11.1,9.1,,,,,12.0,12.0,12.0,13.0,12.0,12.0,12.0,13.0,,,-1.0,254.6,,0.0,5.0,0.0,,,0.656,0.841,+0.0,11.8,,,,,,0.0,2026-04-18 08:46:35-07:00
22.06,1.0,9.0,2026-04-18 15:46:51,37.08162,-121.59959,272.0,0.0,61.1,-12.6,,,,,15:46:51,10.8,-0.5,5.8,0.0,189.0,0.1,-0.01,1.0,99.0,-118.0,14.0,0.0,30.08,93.0,,,317.0,,,,,0.0,0.0,,,,,,,,,,,,,,,,,,,0.0,12.0,0.0,0.0,30.1,0.0,,0.0,0.0,,,36.1,0.0,0.0,-0.3,11.1,9.1,,,,,12.0,12.0,12.0,13.0,12.0,12.0,12.0,13.0,,,-1.0,254.6,,0.0,5.0,0.0,,,0.656,0.841,+0.0,11.8,,,,,,0.0,2026-04-18 08:46:35-07:00
23.06,1.0,9.0,2026-04-18 15:46:52,37.08162,-121.59959,271.0,0.0,61.1,-12.6,,,,,15:46:52,10.9,-0.5,5.8,0.0,189.0,0.1,-0.01,1.0,99.0,-88.0,14.0,0.0,30.08,96.0,,,317.0,,,,,0.0,0.0,,,,,,,,,,,,,,,,,,,0.0,12.0,0.0,0.0,30.1,0.0,,0.0,0.0,,,36.1,0.0,0.0,-0.3,11.1,9.1,,,,,12.0,12.0,12.0,13.0,12.0,12.0,12.0,13.0,,,-1.0,254.6,,0.0,5.0,0.0,,,0.654,0.841,+0.0,11.8,,,,,,0.0,2026-04-18 08:46:35-07:00
24.06,1.0,9.0,2026-04-18 15:46:53,37.08162,-121.59959,271.0,0.0,61.1,-12.6,,,,,15:46:53,10.9,-0.5,5.8,0.0,188.0,0.1,-0.01,1.0,99.0,-90.0,14.0,0.0,30.08,96.0,,,317.0,,,,,0.0,0.0,,,,,,,,,,,,,,,,,,,0.0,12.0,0.0,0.0,30.1,0.0,,0.0,0.0,,,36.1,0.0,0.0,-0.3,11.1,9.1,,,,,12.0,12.0,12.0,13.0,12.0,12.0,12.0,13.0,,,-1.0,254.6,,0.0,5.0,0.0,,,0.656,0.841,+0.0,11.8,,,,,,0.0,2026-04-18 08:46:35-07:00
25.06,1.0,9.0,2026-04-18 15:46:54,37.08162,-121.59959,271.0,0.0,61.1,-12.6,,,,,15:46:54,10.8,-0.6,5.8,0.0,186.0,0.1,-0.01,1.0,99.0,-98.0,14.0,0.0,30.08,96.0,,,317.0,,,,,0.0,0.0,,,,,,,,,,,,,,,,,,,0.0,12.0,0.0,0.0,30.1,0.0,,0.0,0.0,,,36.1,0.0,0.0,-0.3,11.1,9.1,,,,,12.0,12.0,12.0,13.0,12.0,12.0,12.0,13.0,,,-1.0,254.6,,0.0,5.0,0.0,,,0.656,0.841,+0.0,11.8,,,,,,0.0,2026-04-18 08:46:35-07:00
26.06,1.0,9.0,2026-04-18 15:46:55,37.08162,-121.59959,271.0,0.0,61.1,-12.6,,,,,15:46:55,10.8,-0.6,5.8,0.0,185.0,0.1,-0.01,1.0,99.0,-98.0,14.0,0.0,30.08,90.0,,,317.0,,,,,0.0,0.0,,,,,,,,,,,,,,,,,,,0.0,12.0,0.0,0.0,30.1,0.0,,0.0,0.0,,,36.1,0.0,0.0,-0.3,11.1,9.1,,,,,12.0,12.0,12.0,13.0,12.0,12.0,12.0,13.0,,,-1.0,254.6,,0.0,5.0,0.0,,,0.654,0.841,+0.0,11.8,,,,,,0.0,2026-04-18 08:46:35-07:00
27.06,1.0,9.0,2026-04-18 15:46:56,37.08162,-121.59959,271.0,0.0,61.1,-12.6,,,,,15:46:56,10.8,-0.6,5.8,0.0,183.0,0.1,-0.01,1.0,99.0,-92.0,14.0,0.0,30.08,90.0,,,317.0,,,,,0.0,0.0,,,,,,,,,,,,,,,,,,,0.0,12.0,0.0,0.0,30.1,0.0,,0.0,0.0,,,36.1,0.0,0.0,-0.3,11.1,9.1,,,,,12.0,12.0,12.0,13.0,12.0,12.0,12.0,13.0,,,-1.0,254.6,,0.0,5.0,0.0,,,0.654,0.841,+0.0,11.8,,,,,,0.0,2026-04-18 08:46:35-07:00
28.06,1.0,9.0,2026-04-18 15:46:57,37.08162,-121.59959,271.0,0.0,61.1,-12.6,,,,,15:46:57,10.8,-0.6,5.8,0.0,182.0,0.1,-0.01,1.0,99.0,-89.0,14.0,0.0,30.08,90.0,,,317.0,,,,,0.0,0.0,,,,,,,,,,,,,,,,,,,0.0,12.0,0.0,0.0,30.1,0.0,,0.0,0.0,,,36.1,0.0,0.0,-0.3,11.1,9.1,,,,,12.0,12.0,12.0,13.0,12.0,12.0,12.0,13.0,,,-2.0,254.6,,0.0,5.0,0.0,,,0.654,0.841,+0.0,11.8,,,,,,0.0,2026-04-18 08:46:35-07:00
29.06,1.0,9.0,2026-04-18 15:46:58,37.08162,-121.59958,270.0,0.0,61.1,-12.6,,,,,15:46:58,10.8,-0.6,5.8,0.0,180.0,0.1,-0.01,1.0,99.0,-75.0,14.0,0.0,30.08,84.0,,,317.0,,,,,0.0,0.0,,,,,,,,,,,,,,,,,,,0.0,12.0,0.0,0.0,30.1,0.0,,0.0,0.0,,,36.1,0.0,0.0,-0.3,11.1,9.1,,,,,12.0,12.0,12.0,13.0,12.0,12.0,12.0,13.0,,,-1.0,254.6,,0.0,5.0,0.0,,,0.656,0.841,+0.0,11.8,,,,,,0.0,2026-04-18 08:46:35-07:00
30.06,1.0,9.0,2026-04-18 15:46:59,37.08162,-121.59958,270.0,0.0,61.1,-12.6,,,,,15:46:59,10.8,-0.6,5.8,0.0,180.0,0.1,-0.01,1.0,99.0,-61.0,14.0,0.0,30.08,84.0,,,317.0,,,,,0.0,0.0,,,,,,,,,,,,,,,,,,,0.0,12.0,0.0,0.0,30.1,0.0,,0.0,0.0,,,36.1,0.0,0.0,-0.3,11.1,9.1,,,,,12.0,12.0,12.0,13.0,12.0,12.0,12.0,13.0,,,-1.0,254.6,,0.0,5.0,0.0,,,0.656,0.841,+0.0,11.8,,,,,,0.0,2026-04-18 08:46:35-07:00
31.06,1.0,9.0,2026-04-18 15:47:00,37.08162,-121.59958,271.0,0.0,61.1,-12.6,,,,,15:47:00,10.8,-0.6,5.8,0.0,179.0,0.1,-0.01,1.0,99.0,-74.0,14.0,0.0,30.08,84.0,,,317.0,,,,,0.0,0.0,,,,,,,,,,,,,,,,,,,0.0,12.0,0.0,0.0,30.1,0.0,,0.0,0.0,,,36.1,0.0,0.0,-0.3,11.1,9.1,,,,,12.0,12.0,12.0,13.0,12.0,12.0,12.0,13.0,,,-1.0,254.6,,0.0,5.0,0.0,,,0.654,0.841,+0.0,11.8,,,,,,0.0,2026-04-18 08:46:35-07:00
32.06,1.0,9.0,2026-04-18 15:47:01,37.08162,-121.59958,271.0,0.0,61.1,-12.6,,,,,15:47:01,10.8,-0.6,5.7,0.0,179.0,0.1,-0.01,1.0,99.0,-25.0,14.0,0.0,30.08,92.0,,,317.0,,,,,0.0,0.0,,,,,,,,,,,,,,,,,,,0.0,12.0,0.0,0.0,30.1,0.0,,0.0,0.0,,,36.1,0.0,0.0,-0.3,11.1,9.1,,,,,12.0,12.0,12.0,13.0,12.0,12.0,12.0,13.0,,,-1.0,254.6,,0.0,5.0,0.0,,,0.654,0.841,+0.0,11.8,,,,,,0.0,2026-04-18 08:46:35-07:00
33.06,1.0,9.0,2026-04-18 15:47:02,37.08162,-121.59958,271.0,0.0,61.1,-12.6,,,,,15:47:02,10.8,-0.6,5.7,0.0,179.0,0.1,-0.01,1.0,99.0,-43.0,14.0,0.0,30.08,92.0,,,317.0,,,,,0.0,0.0,,,,,,,,,,,,,,,,,,,0.0,12.0,0.0,0.0,30.1,0.0,,0.0,0.0,,,36.1,0.0,0.0,-0.3,11.1,9.1,,,,,12.0,13.0,12.0,13.0,12.0,13.0,12.0,13.0,,,-1.0,254.6,,0.0,5.0,0.0,,,0.656,0.841,+0.0,11.8,,,,,,0.0,2026-04-18 08:46:35-07:00
34.06,1.0,9.0,2026-04-18 15:47:03,37.08162,-121.59958,271.0,0.0,61.1,-12.6,,,,,15:47:03,10.8,-0.6,5.7,0.0,178.0,0.1,-0.01,1.0,99.0,-25.0,14.0,0.0,30.08,91.0,,,317.0,,,,,0.0,0.0,,,,,,,,,,,,,,,,,,,0.0,12.0,0.0,0.0,30.1,0.0,,0.0,0.0,,,36.1,0.0,0.0,-0.3,11.1,9.1,,,,,12.0,13.0,12.0,13.0,12.0,13.0,12.0,13.0,,,-1.0,254.6,,0.0,5.0,0.0,,,0.656,0.841,+0.0,11.8,,,,,,0.0,2026-04-18 08:46:35-07:00
35.06,1.0,9.0,2026-04-18 15:47:04,37.08162,-121.59958,271.0,0.0,61.1,-12.6,,,,,15:47:04,10.9,-0.6,5.7,0.0,177.0,0.1,-0.01,1.0,99.0,-54.0,14.0,0.0,30.08,91.0,,,317.0,,,,,0.0,0.0,,,,,,,,,,,,,,,,,,,0.0,12.0,0.0,0.0,30.1,0.0,,0.0,0.0,,,36.1,0.0,0.0,-0.3,11.1,9.1,,,,,12.0,12.0,12.0,13.0,12.0,13.0,12.0,13.0,,,0.0,254.6,,0.0,5.0,0.0,,,0.654,0.841,+0.0,11.8,,,,,,0.0,2026-04-18 08:46:35-07:00
36.06,1.0,9.0,2026-04-18 15:47:05,37.08162,-121.59958,271.0,0.0,61.1,-12.6,,,,,15:47:05,10.9,-0.6,5.7,0.0,176.0,0.1,-0.01,1.0,99.0,-53.0,14.0,0.0,30.08,90.0,,,317.0,,,,,0.0,0.0,,,,,,,,,,,,,,,,,,,0.0,12.0,0.0,0.0,30.1,0.0,,0.0,0.0,,,36.1,0.0,0.0,-0.3,11.1,9.1,,,,,12.0,13.0,12.0,13.0,12.0,13.0,12.0,13.0,,,0.0,254.6,,0.0,5.0,0.0,,,0.656,0.841,+0.0,11.8,,,,,,0.0,2026-04-18 08:46:35-07:00
37.06,1.0,9.0,2026-04-18 15:47:06,37.08162,-121.59958,271.0,0.0,61.1,-12.6,,,,,15:47:06,10.8,-0.5,5.8,0.0,176.0,0.1,-0.01,1.0,99.0,-41.0,14.0,0.0,30.08,90.0,,,317.0,,,,,0.0,0.0,,,,,,,,,,,,,,,,,,,0.0,12.0,0.0,0.0,30.1,0.0,,0.0,0.0,,,36.1,0.0,0.0,-0.3,11.1,9.1,,,,,12.0,12.0,12.0,13.0,12.0,13.0,12.0,13.0,,,0.0,254.6,,0.0,5.0,0.0,,,0.656,0.841,+0.0,11.8,,,,,,0.0,2026-04-18 08:46:35-07:00
38.06,1.0,9.0,2026-04-18 15:47:07,37.08162,-121.59958,271.0,0.0,61.1,-12.6,,,,,15:47:07,10.8,-0.6,5.8,0.0,176.0,0.1,-0.01,1.0,99.0,-46.0,14.0,0.0,30.08,90.0,,,317.0,,,,,0.0,0.0,,,,,,,,,,,,,,,,,,,0.0,12.0,0.0,0.0,30.1,0.0,,0.0,0.0,,,36.1,0.0,0.0,-0.3,11.1,9.1,,,,,12.0,12.0,12.0,13.0,12.0,13.0,12.0,13.0,,,0.0,254.6,,0.0,5.0,0.0,,,0.656,0.84,+0.0,11.8,,,,,,0.0,2026-04-18 08:46:35-07:00
39.06,1.0,9.0,2026-04-18 15:47:08,37.08162,-121.59958,271.0,0.0,61.1,-12.6,,,,,15:47:08,10.8,-0.6,5.8,0.0,175.0,0.1,-0.01,1.0,99.0,-47.0,14.0,0.0,30.08,89.0,,,317.0,,,,,0.0,0.0,,,,,,,,,,,,,,,,,,,0.0,12.0,0.0,0.0,30.1,0.0,,0.0,0.0,,,36.1,0.0,0.0,-0.3,11.1,9.1,,,,,12.0,12.0,12.0,13.0,12.0,13.0,12.0,13.0,,,1.0,254.6,,0.0,5.0,0.0,,,0.654,0.841,+0.0,11.8,,,,,,0.0,2026-04-18 08:46:35-07:00
40.06,1.0,9.0,2026-04-18 15:47:09,37.08162,-121.59958,271.0,0.0,61.1,-12.6,,,,,15:47:09,10.8,-0.6,5.7,0.0,175.0,0.1,-0.01,1.0,99.0,-15.0,14.0,0.0,30.08,89.0,,,317.0,,,,,0.0,0.0,,,,,,,,,,,,,,,,,,,0.0,12.0,0.0,0.0,30.1,0.0,,0.0,0.0,,,36.1,0.0,0.0,-0.3,11.1,9.1,,,,,12.0,12.0,12.0,13.0,12.0,13.0,12.0,13.0,,,1.0,254.6,,0.0,5.0,0.0,,,0.656,0.841,+0.0,11.8,,,,,,0.0,2026-04-18 08:46:35-07:00
41.06,1.0,9.0,2026-04-18 15:47:10,37.08162,-121.59958,271.0,0.0,61.1,-12.6,,,,,15:47:10,10.8,-0.6,5.7,0.0,175.0,0.1,-0.01,1.0,99.0,5.0,14.0,0.0,30.08,90.0,,,317.0,,,,,0.0,0.0,,,,,,,,,,,,,,,,,,,0.0,12.0,0.0,0.0,30.1,0.0,,0.0,0.0,,,36.1,0.0,0.0,-0.3,11.1,9.1,,,,,12.0,12.0,12.0,13.0,12.0,13.0,13.0,13.0,,,1.0,254.6,,0.0,5.0,0.0,,,0.654,0.841,+0.0,11.8,,,,,,0.0,2026-04-18 08:46:35-07:00
42.06,1.0,9.0,2026-04-18 15:47:11,37.08162,-121.59958,271.0,0.0,61.1,-12.6,,,,,15:47:11,10.8,-0.6,5.7,0.0,175.0,0.1,-0.01,1.0,99.0,22.0,14.0,0.0,30.08,90.0,,,317.0,,,,,0.0,0.0,,,,,,,,,,,,,,,,,,,0.0,12.0,0.0,0.0,30.1,0.0,,0.0,0.0,,,36.1,0.0,0.0,-0.3,11.1,9.1,,,,,12.0,12.0,12.0,13.0,12.0,13.0,13.0,13.0,,,0.0,248.1,,0.0,5.0,0.0,,,0.654,0.84,+0.0,11.8,,,,,,0.0,2026-04-18 08:46:35-07:00
43.06,1.0,9.0,2026-04-18 15:47:12,37.08162,-121.59958,271.0,0.0,61.1,-12.6,,,,,15:47:12,10.9,-0.7,5.6,0.0,175.0,0.1,-0.01,1.0,99.0,5.0,14.0,0.0,30.08,90.0,,,317.0,,,,,0.0,0.0,,,,,,,,,,,,,,,,,,,0.0,12.0,0.0,0.0,30.1,0.0,,0.0,0.0,,,36.1,0.0,0.0,-0.3,11.1,9.1,,,,,12.0,12.0,12.0,13.0,12.0,13.0,12.0,13.0,,,0.0,193.2,,0.0,5.0,0.0,,,0.654,0.84,+0.0,11.8,,,,,,0.0,2026-04-18 08:46:35-07:00
44.06,1.0,9.0,2026-04-18 15:47:13,37.08162,-121.59958,271.0,0.1,61.1,-12.6,,,,,15:47:13,10.9,-0.6,5.6,0.0,175.0,0.1,-0.01,1.0,99.0,-12.0,14.0,0.0,30.08,99.0,,,317.0,,,,,0.0,0.0,,,,,,,,,,,,,,,,,,,0.0,12.0,0.0,0.0,30.1,0.0,,0.0,0.0,,,36.1,0.0,0.0,-0.3,11.1,9.1,,,,,12.0,12.0,12.0,13.0,12.0,13.0,13.0,13.0,,,1.0,150.4,,0.0,5.0,0.0,,,0.654,0.841,+0.0,11.8,,,,,,0.0,2026-04-18 08:46:35-07:00
45.06,1.0,9.0,2026-04-18 15:47:14,37.08162,-121.59958,271.0,0.0,61.1,-12.6,,,,,15:47:14,10.9,-0.6,5.6,0.0,175.0,0.1,-0.01,1.0,99.0,-3.0,14.0,0.0,30.08,99.0,,,317.0,,,,,0.0,0.0,,,,,,,,,,,,,,,,,,,0.0,12.0,0.0,0.0,30.1,0.0,,0.0,0.0,,,36.1,0.0,0.0,-0.3,11.1,9.1,,,,,12.0,12.0,12.0,13.0,12.0,13.0,13.0,13.0,,,1.0,117.1,,0.0,5.0,0.0,,,0.656,0.841,+0.0,11.8,,,,,,0.0,2026-04-18 08:46:35-07:00
46.06,1.0,9.0,2026-04-18 15:47:15,37.08162,-121.59958,271.0,0.0,61.1,-12.6,,,,,15:47:15,10.9,-0.6,5.6,0.0,175.0,0.1,-0.01,1.0,99.0,-21.0,14.0,0.0,30.08,99.0,,,317.0,,,,,0.0,0.0,,,,,,,,,,,,,,,,,,,0.0,12.0,0.0,0.0,30.1,0.0,,0.0,0.0,,,36.1,0.0,0.0,-0.3,11.1,9.1,,,,,12.0,12.0,12.0,13.0,12.0,13.0,13.0,13.0,,,1.0,91.2,,0.0,5.0,0.0,,,0.654,0.841,+0.0,11.8,,,,,,0.0,2026-04-18 08:46:35-07:00
47.06,1.0,9.0,2026-04-18 15:47:16,37.08162,-121.59958,272.0,0.0,61.1,-12.6,,,,,15:47:16,10.8,-0.6,5.7,0.0,175.0,0.1,-0.01,1.0,99.0,-10.0,14.0,0.0,30.08,99.0,,,317.0,,,,,0.0,0.0,,,,,,,,,,,,,,,,,,,0.0,12.0,0.0,0.0,30.1,0.0,,0.0,0.0,,,36.1,0.0,0.0,-0.3,11.1,9.1,,,,,12.0,12.0,12.0,13.0,12.0,13.0,13.0,13.0,,,1.0,71.1,,0.0,5.0,0.0,,,0.656,0.841,+0.0,11.8,,,,,,0.0,2026-04-18 08:46:35-07:00
48.06,1.0,9.0,2026-04-18 15:47:17,37.08162,-121.59958,272.0,0.0,61.1,-12.6,,,,,15:47:17,10.9,-0.6,5.7,0.0,175.0,0.1,-0.01,1.0,99.0,7.0,14.0,0.0,30.08,99.0,,,317.0,,,,,0.0,0.0,,,,,,,,,,,,,,,,,,,0.0,12.0,0.0,0.0,30.1,0.0,,0.0,0.0,,,36.1,0.0,0.0,-0.3,11.1,9.1,,,,,12.0,12.0,12.0,13.0,12.0,13.0,13.0,13.0,,,2.0,55.5,,0.0,5.0,0.0,,,0.654,0.841,+0.0,11.8,,,,,,0.0,2026-04-18 08:46:35-07:00
49.06,1.0,10.0,2026-04-18 15:47:18,37.08165,-121.59956,294.0,0.0,61.1,-12.6,,,,,15:47:18,10.8,-0.6,5.7,0.0,175.0,0.1,-0.01,1.0,99.0,-8.0,14.0,0.0,30.08,99.0,,,317.0,,,,,0.0,0.0,,,,,,,,,,,,,,,,,,,0.0,12.0,0.0,0.0,30.1,0.0,,0.0,0.0,,,36.1,0.0,0.0,-0.4,11.1,9.1,,,,,12.0,12.0,12.0,13.0,12.0,13.0,13.0,13.0,,,2.0,43.4,,0.0,5.0,0.0,,,0.654,0.84,+0.0,11.8,,,,,,0.0,2026-04-18 08:46:35-07:00
50.06,1.0,10.0,2026-04-18 15:47:19,37.08163,-121.59957,280.0,0.0,61.1,-12.6,,,,,15:47:19,10.9,-0.6,5.7,0.0,175.0,0.0,-0.01,1.0,99.0,-22.0,14.0,0.0,30.08,99.0,,,317.0,,,,,0.0,0.0,,,,,,,,,,,,,,,,,,,0.0,12.0,0.0,0.0,30.1,0.0,,0.0,0.0,,,36.1,0.0,0.0,-0.4,11.1,9.1,,,,,12.0,12.0,12.0,13.0,12.0,13.0,13.0,13.0,,,1.0,33.9,,0.0,5.0,0.0,,,0.654,0.84,+0.0,11.8,,,,,,0.0,2026-04-18 08:46:35-07:00
51.06,1.0,10.0,2026-04-18 15:47:20,37.08163,-121.59957,281.0,0.0,61.1,-12.6,,,,,15:47:20,10.8,-0.6,5.7,0.0,175.0,0.1,-0.01,1.0,99.0,-15.0,14.0,0.0,30.08,99.0,,,317.0,,,,,0.0,0.0,,,,,,,,,,,,,,,,,,,0.0,12.0,0.0,0.0,30.1,0.0,,0.0,0.0,,,36.1,0.0,0.0,-0.4,11.1,9.1,,,,,12.0,12.0,12.0,13.0,12.0,13.0,13.0,13.0,,,1.0,26.6,,0.0,5.0,0.0,,,0.656,0.84,+0.0,11.8,,,,,,0.0,2026-04-18 08:46:35-07:00
52.06,1.0,10.0,2026-04-18 15:47:21,37.08163,-121.59957,281.0,0.0,61.1,-12.6,,,,,15:47:21,10.9,-0.6,5.7,0.0,175.0,0.1,-0.01,1.0,99.0,-15.0,14.0,0.0,30.08,99.0,,,317.0,,,,,0.0,0.0,,,,,,,,,,,,,,,,,,,0.0,12.0,0.0,0.0,30.1,0.0,,0.0,0.0,,,36.1,0.0,0.0,-0.4,11.1,9.1,,,,,12.0,12.0,12.0,13.0,12.0,13.0,13.0,13.0,,,1.0,20.9,,0.0,5.0,0.0,,,0.654,0.841,+0.0,11.8,,,,,,0.0,2026-04-18 08:46:35-07:00
53.06,1.0,10.0,2026-04-18 15:47:22,37.08163,-121.59957,282.0,0.0,61.1,-12.6,,,,,15:47:22,10.9,-0.6,5.7,0.0,173.0,0.1,-0.01,1.0,99.0,-35.0,14.0,0.0,30.08,98.0,,,317.0,,,,,0.0,0.0,,,,,,,,,,,,,,,,,,,0.0,12.0,0.0,0.0,30.1,0.0,,0.0,0.0,,,36.1,0.0,0.0,-0.4,11.1,9.1,,,,,12.0,12.0,12.0,13.0,12.0,13.0,13.0,13.0,,,0.0,16.4,,0.0,5.0,0.0,,,0.656,0.841,+0.0,11.8,,,,,,0.0,2026-04-18 08:46:35-07:00
54.06,1.0,10.0,2026-04-18 15:47:23,37.08163,-121.59957,283.0,0.0,61.1,-12.6,,,,,15:47:23,10.9,-0.6,5.7,0.0,173.0,0.1,-0.01,1.0,99.0,-42.0,14.0,0.0,30.08,99.0,,,317.0,,,,,0.0,0.0,,,,,,,,,,,,,,,,,,,0.0,12.0,0.0,0.0,30.1,0.0,,0.0,0.0,,,36.1,0.0,0.0,-0.4,11.1,9.1,,,,,12.0,12.0,12.0,13.0,12.0,13.0,13.0,13.0,,,0.0,13.0,,0.0,5.0,0.0,,,0.654,0.841,+0.0,11.8,,,,,,0.0,2026-04-18 08:46:35-07:00
55.06,1.0,10.0,2026-04-18 15:47:24,37.08163,-121.59957,284.0,0.0,61.1,-12.6,,,,,15:47:24,10.8,-0.6,5.7,0.0,172.0,0.1,-0.01,1.0,99.0,-47.0,14.0,0.0,30.08,99.0,,,317.0,,,,,0.0,0.0,,,,,,,,,,,,,,,,,,,0.0,12.0,0.0,0.0,30.1,0.0,,0.0,0.0,,,36.1,0.0,0.0,-0.4,11.1,9.1,,,,,12.0,12.0,12.0,13.0,12.0,13.0,13.0,13.0,,,0.0,10.3,,0.0,5.0,0.0,,,0.654,0.84,+0.0,11.8,,,,,,0.0,2026-04-18 08:46:35-07:00
56.06,1.0,10.0,2026-04-18 15:47:25,37.08163,-121.59957,284.0,0.0,61.1,-12.6,,,,,15:47:25,10.9,-0.6,5.7,0.0,172.0,0.1,-0.01,1.0,99.0,-42.0,14.0,0.0,30.08,99.0,,,317.0,,,,,0.0,0.0,,,,,,,,,,,,,,,,,,,0.0,12.0,0.0,0.0,30.1,0.0,,0.0,0.0,,,36.1,0.0,0.0,-0.4,11.1,9.1,,,,,12.0,12.0,12.0,13.0,12.0,13.0,13.0,13.0,,,0.0,8.2,,0.0,5.0,0.0,,,0.654,0.841,+0.0,11.8,,,,,,0.0,2026-04-18 08:46:35-07:00
57.06,1.0,10.0,2026-04-18 15:47:26,37.08163,-121.59957,285.0,0.0,61.1,-12.6,,,,,15:47:26,10.8,-0.7,5.6,0.0,171.0,0.1,-0.01,1.0,99.0,-40.0,14.0,0.0,30.08,106.0,,,317.0,,,,,0.0,0.0,,,,,,,,,,,,,,,,,,,0.0,12.0,0.0,0.0,30.1,0.0,,0.0,0.0,,,36.1,0.0,0.0,-0.4,11.1,9.1,,,,,12.0,12.0,12.0,13.0,12.0,13.0,13.0,13.0,,,0.0,6.6,,0.0,5.0,0.0,,,0.654,0.841,+0.0,11.8,,,,,,0.0,2026-04-18 08:46:35-07:00
58.06,1.0,10.0,2026-04-18 15:47:27,37.08163,-121.59957,285.0,0.0,61.1,-12.6,,,,,15:47:27,10.9,-0.7,5.6,0.0,171.0,0.1,-0.01,1.0,99.0,-20.0,14.0,0.0,30.08,106.0,,,317.0,,,,,0.0,0.0,,,,,,,,,,,,,,,,,,,0.0,12.0,0.0,0.0,30.1,0.0,,0.0,0.0,,,36.1,0.0,0.0,-0.4,11.1,9.1,,,,,12.0,12.0,12.0,13.0,12.0,13.0,13.0,13.0,,,0.0,5.3,,0.0,5.0,0.0,,,0.656,0.84,+0.0,11.8,,,,,,0.0,2026-04-18 08:46:35-07:00
59.06,1.0,10.0,2026-04-18 15:47:28,37.08163,-121.59957,286.0,0.0,61.1,-12.6,,,,,15:47:28,10.9,-0.7,5.6,0.0,171.0,0.1,-0.01,1.0,99.0,-51.0,14.0,0.0,30.08,106.0,,,317.0,,,,,0.0,0.0,,,,,,,,,,,,,,,,,,,0.0,12.0,0.0,0.0,30.1,0.0,,0.0,0.0,,,36.1,0.0,0.0,-0.4,11.1,9.1,,,,,12.0,12.0,12.0,13.0,12.0,13.0,13.0,13.0,,,1.0,4.4,,0.0,5.0,0.0,,,0.654,0.841,+0.0,11.8,,,,,,0.0,2026-04-18 08:46:35-07:00
60.06,1.0,10.0,2026-04-18 15:47:29,37.08163,-121.59957,287.0,0.0,61.1,-12.6,,,,,15:47:29,10.8,-0.7,5.6,0.0,169.0,0.1,-0.01,1.0,99.0,-61.0,14.0,0.0,30.08,104.0,,,317.0,,,,,0.0,0.0,,,,,,,,,,,,,,,,,,,0.0,12.0,0.0,0.0,30.1,0.0,,0.0,0.0,,,36.1,0.0,0.0,-0.4,11.1,9.1,,,,,12.0,13.0,13.0,13.0,13.0,13.0,13.0,13.0,,,1.0,3.6,,0.0,5.0,0.0,,,0.654,0.841,+0.0,11.8,,,,,,0.0,2026-04-18 08:46:35-07:00
61.06,1.0,10.0,2026-04-18 15:47:30,37.08163,-121.59957,288.0,0.0,61.1,-12.6,,,,,15:47:30,10.9,-0.7,5.5,0.0,169.0,0.1,-0.01,1.0,99.0,-30.0,14.0,0.0,30.08,104.0,,,317.0,,,,,0.0,0.0,,,,,,,,,,,,,,,,,,,0.0,12.0,0.0,0.0,30.1,0.0,,0.0,0.0,,,36.1,0.0,0.0,-0.4,11.1,9.1,,,,,12.0,13.0,13.0,13.0,13.0,13.0,13.0,13.0,,,1.0,3.1,,0.0,5.0,0.0,,,0.656,0.841,+0.0,11.8,,,,,,0.0,2026-04-18 08:46:35-07:00
62.06,1.0,10.0,2026-04-18 15:47:31,37.08163,-121.59957,289.0,0.0,61.1,-12.6,,,,,15:47:31,10.9,-0.7,5.5,0.0,169.0,0.1,-0.01,1.0,99.0,-48.0,14.0,0.0,30.08,104.0,,,317.0,,,,,0.0,0.0,,,,,,,,,,,,,,,,,,,0.0,12.0,0.0,0.0,30.1,0.0,,0.0,0.0,,,36.1,0.0,0.0,-0.4,11.1,9.1,,,,,12.0,13.0,13.0,13.0,13.0,13.0,13.0,13.0,,,0.0,2.6,,0.0,5.0,0.0,,,0.656,0.841,+0.0,11.8,,,,,,0.0,2026-04-18 08:46:35-07:00
63.06,1.0,10.0,2026-04-18 15:47:32,37.08163,-121.59957,290.0,0.0,61.1,-12.6,,,,,15:47:32,10.9,-0.7,5.5,0.0,168.0,0.1,-0.01,1.0,99.0,-45.0,14.0,0.0,30.08,102.0,,,317.0,,,,,0.0,0.0,,,,,,,,,,,,,,,,,,,0.0,12.0,0.0,0.0,30.1,0.0,,0.0,0.0,,,36.1,0.0,0.0,-0.4,11.1,9.1,,,,,12.0,13.0,13.0,13.0,13.0,13.0,13.0,13.0,,,0.0,2.2,,0.0,5.0,0.0,,,0.654,0.841,+0.0,11.8,,,,,,0.0,2026-04-18 08:46:35-07:00
64.06,1.0,10.0,2026-04-18 15:47:33,37.08163,-121.59957,291.0,0.0,61.1,-12.6,,,,,15:47:33,10.9,-0.7,5.5,0.0,167.0,0.1,-0.01,1.0,99.0,-46.0,14.0,0.0,30.08,102.0,,,317.0,,,,,0.0,0.0,,,,,,,,,,,,,,,,,,,0.0,12.0,0.0,0.0,30.1,0.0,,0.0,0.0,,,36.1,0.0,0.0,-0.4,11.1,9.1,,,,,12.0,13.0,13.0,13.0,13.0,13.0,13.0,13.0,,,1.0,2.0,,0.0,5.0,0.0,,,0.654,0.841,+0.0,11.8,,,,,,0.0,2026-04-18 08:46:35-07:00
65.06,1.0,10.0,2026-04-18 15:47:34,37.08163,-121.59957,292.0,0.0,61.1,-12.6,,,,,15:47:34,10.9,-0.7,5.5,0.0,167.0,0.1,-0.01,1.0,99.0,-24.0,14.0,0.0,30.08,102.0,,,317.0,,,,,0.0,0.0,,,,,,,,,,,,,,,,,,,0.0,12.0,0.0,0.0,30.1,0.0,,0.0,0.0,,,36.1,0.0,0.0,-0.4,11.1,9.1,,,,,12.0,13.0,13.0,13.0,13.0,13.0,13.0,13.0,,,1.0,1.7,,0.0,5.0,0.0,,,0.656,0.84,+0.0,11.8,,,,,,0.0,2026-04-18 08:46:35-07:00
66.06,1.0,10.0,2026-04-18 15:47:35,37.08162,-121.59957,299.0,0.0,61.1,-12.6,,,,,15:47:35,10.9,-0.7,5.5,0.0,167.0,0.1,-0.01,1.0,99.0,11.0,14.0,0.0,30.08,102.0,,,317.0,,,,,0.0,0.0,,,,,,,,,,,,,,,,,,,0.0,12.0,0.0,0.0,30.1,0.0,,0.0,0.0,,,36.1,0.0,0.0,-0.4,11.1,9.1,,,,,12.0,13.0,13.0,13.0,12.0,13.0,13.0,13.0,,,0.0,1.6,,0.0,5.0,0.0,,,0.656,0.84,+0.0,11.8,,,,,,0.0,2026-04-18 08:46:35-07:00
67.06,1.0,10.0,2026-04-18 15:47:36,37.08162,-121.59957,302.0,0.0,61.1,-12.6,,,,,15:47:36,10.9,-0.7,5.5,0.0,167.0,0.1,-0.01,1.0,99.0,25.0,14.0,0.0,30.08,102.0,,,317.0,,,,,0.0,0.0,,,,,,,,,,,,,,,,,,,0.0,12.0,0.0,0.0,30.1,0.0,,0.0,0.0,,,36.1,0.0,0.0,-0.4,11.1,9.1,,,,,12.0,13.0,13.0,13.0,12.0,13.0,13.0,13.0,,,1.0,1.4,,0.0,5.0,0.0,,,0.656,0.84,+0.0,11.8,,,,,,0.0,2026-04-18 08:46:35-07:00
68.06,1.0,10.0,2026-04-18 15:47:37,37.08162,-121.59957,304.0,0.0,61.1,-12.6,,,,,15:47:37,10.9,-0.6,5.6,0.0,167.0,0.1,-0.01,1.0,99.0,54.0,14.0,0.0,30.08,102.0,,,317.0,,,,,0.0,0.0,,,,,,,,,,,,,,,,,,,0.0,12.0,0.0,0.0,30.1,0.0,,0.0,0.0,,,36.1,0.0,0.0,-0.4,11.1,9.1,,,,,12.0,13.0,13.0,13.0,12.0,13.0,13.0,13.0,,,1.0,1.3,,0.0,5.0,0.0,,,0.654,0.84,+0.0,11.8,,,,,,0.0,2026-04-18 08:46:35-07:00
69.06,1.0,10.0,2026-04-18 15:47:38,37.08161,-121.59957,305.0,0.0,61.1,-12.6,,,,,15:47:38,10.9,-0.6,5.6,0.0,167.0,0.1,-0.01,1.0,99.0,0.0,14.0,0.0,30.08,111.0,,,317.0,,,,,0.0,0.0,,,,,,,,,,,,,,,,,,,0.0,12.0,0.0,0.0,30.1,0.0,,0.0,0.0,,,36.1,0.0,0.0,-0.4,11.1,9.1,,,,,12.0,13.0,13.0,13.0,12.0,13.0,13.0,13.0,,,1.0,1.2,,0.0,5.0,0.0,,,0.654,0.841,+0.0,11.8,,,,,,0.0,2026-04-18 08:46:35-07:00
70.06,1.0,10.0,2026-04-18 15:47:39,37.08161,-121.59958,306.0,0.0,61.1,-12.6,,,,,15:47:39,10.9,-0.6,5.6,0.0,167.0,0.1,-0.01,1.0,99.0,-30.0,14.0,0.0,30.08,110.0,,,317.0,,,,,0.0,0.0,,,,,,,,,,,,,,,,,,,0.0,12.0,0.0,0.0,30.1,0.0,,0.0,0.0,,,36.1,0.0,0.0,-0.4,11.1,9.1,,,,,12.0,13.0,13.0,13.0,12.0,13.0,13.0,13.0,,,1.0,1.2,,0.0,5.0,0.0,,,0.654,0.841,+0.0,11.8,,,,,,0.0,2026-04-18 08:46:35-07:00
71.06,1.0,10.0,2026-04-18 15:47:40,37.08161,-121.59958,307.0,0.0,61.1,-12.6,,,,,15:47:40,10.9,-0.6,5.7,0.0,167.0,0.1,-0.01,1.0,99.0,-18.0,14.0,0.0,30.08,110.0,,,317.0,,,,,0.0,0.0,,,,,,,,,,,,,,,,,,,0.0,12.0,0.0,0.0,30.1,0.5,,0.5,23.4,,,36.1,0.0,0.0,-0.3,11.1,9.1,,,,,12.0,13.0,13.0,13.0,12.0,13.0,13.0,13.0,,,2.0,1.2,,23.4,5.0,0.0,,,0.654,0.841,+0.0,11.8,,,,,,0.0,2026-04-18 08:46:35-07:00
72.06,1.0,10.0,2026-04-18 15:47:41,37.08161,-121.59958,309.0,0.0,61.1,-12.6,,,,,15:47:41,10.9,-0.6,5.7,0.0,167.0,0.1,-0.01,1.0,99.0,5.0,14.0,0.0,30.08,110.0,,,317.0,,,,,0.0,0.0,,,,,,,,,,,,,,,,,,,0.0,12.0,0.0,0.0,30.1,1.4,,1.4,31.1,,,36.1,0.0,0.0,-0.3,11.1,9.1,,,,,12.0,13.0,13.0,13.0,12.0,13.0,13.0,13.0,,,1.0,1.1,,31.1,5.0,0.0,,,0.654,0.841,+0.0,11.8,,,,,,0.0,2026-04-18 08:46:35-07:00
73.06,1.0,10.0,2026-04-18 15:47:42,37.08161,-121.59958,310.0,0.0,61.1,-12.6,,,,,15:47:42,10.9,-0.6,5.7,0.0,167.0,0.1,-0.01,1.0,99.0,38.0,14.0,0.0,30.08,113.0,,,317.0,,,,,0.0,0.0,,,,,,,,,,,,,,,,,,,0.0,12.0,0.0,0.0,30.1,2.1,,2.1,32.0,,,36.1,0.0,0.0,-0.3,11.1,9.1,,,,,12.0,13.0,13.0,13.0,12.0,13.0,13.0,13.0,,,1.0,1.1,,32.0,5.0,0.0,,,0.654,0.841,+0.0,11.8,,,,,,0.0,2026-04-18 08:46:35-07:00
74.06,1.0,10.0,2026-04-18 15:47:43,37.08161,-121.59958,311.0,0.0,61.1,-12.6,,,,,15:47:43,10.9,-0.6,5.7,0.0,167.0,0.1,-0.01,1.0,99.0,18.0,14.0,0.0,30.08,113.0,,,317.0,,,,,0.0,0.0,,,,,,,,,,,,,,,,,,,0.0,12.0,0.0,0.0,30.1,2.6,,2.6,32.2,,,36.1,0.0,0.0,-0.3,11.1,9.1,,,,,12.0,13.0,13.0,13.0,12.0,13.0,13.0,13.0,,,2.0,1.0,,32.2,5.0,0.0,,,0.654,0.841,+0.0,11.8,,,,,,0.0,2026-04-18 08:46:35-07:00
75.06,1.0,10.0,2026-04-18 15:47:44,37.08161,-121.59958,312.0,0.0,61.1,-12.6,,,,,15:47:44,10.9,-0.6,5.6,0.0,167.0,0.1,-0.01,1.0,99.0,20.0,14.0,0.0,30.08,113.0,,,317.0,,,,,0.0,0.0,,,,,,,,,,,,,,,,,,,0.0,12.0,0.0,0.0,30.1,2.8,,2.8,33.4,,,36.1,0.0,0.0,-0.3,11.1,9.1,,,,,12.0,13.0,13.0,13.0,12.0,13.0,13.0,13.0,,,2.0,1.0,,33.4,5.0,0.0,,,0.656,0.841,+0.0,11.8,,,,,,0.0,2026-04-18 08:46:35-07:00
76.06,1.0,10.0,2026-04-18 15:47:45,37.08161,-121.59958,313.0,0.0,61.1,-12.6,,,,,15:47:45,10.9,-0.6,5.6,0.0,167.0,0.1,-0.01,1.0,99.0,-1.0,14.0,0.0,30.08,122.0,,,317.0,,,,,0.0,0.0,,,,,,,,,,,,,,,,,,,0.0,12.0,0.0,0.0,30.1,2.5,,2.5,34.1,,,36.1,0.0,0.0,-0.3,11.1,9.1,,,,,12.0,13.0,13.0,13.0,12.0,13.0,13.0,13.0,,,2.0,1.0,,34.1,5.0,0.0,,,0.656,0.841,+0.0,11.8,,,,,,0.0,2026-04-18 08:46:35-07:00
77.06,1.0,10.0,2026-04-18 15:47:46,37.08162,-121.59958,314.0,0.0,61.1,-12.6,,,,,15:47:46,10.9,-0.6,5.6,0.0,167.0,0.0,-0.01,1.0,99.0,0.0,14.0,0.0,30.08,121.0,,,317.0,,,,,0.0,0.0,,,,,,,,,,,,,,,,,,,0.0,12.0,0.0,0.0,30.1,2.5,,2.5,32.5,,,36.1,0.0,0.0,-0.3,11.1,9.1,,,,,12.0,13.0,13.0,13.0,12.0,13.0,13.0,13.0,,,2.0,1.0,,32.5,5.0,0.0,,,0.654,0.841,+0.0,11.8,,,,,,0.0,2026-04-18 08:46:35-07:00
78.06,1.0,10.0,2026-04-18 15:47:47,37.0816,-121.59957,327.0,0.0,61.1,-12.6,,,,,15:47:47,10.9,-0.6,5.6,0.0,167.0,0.1,-0.01,1.0,99.0,25.0,14.0,0.0,30.08,121.0,,,317.0,,,,,0.0,0.0,,,,,,,,,,,,,,,,,,,0.0,12.0,0.0,0.0,30.1,0.0,,0.0,32.2,,,36.1,0.0,0.0,-0.3,11.1,9.1,,,,,12.0,13.0,12.0,13.0,12.0,13.0,13.0,13.0,,,2.0,1.0,,32.2,5.0,0.0,,,0.654,0.841,+0.0,11.8,,,,,,0.0,2026-04-18 08:46:35-07:00
79.06,1.0,10.0,2026-04-18 15:47:48,37.0816,-121.59957,328.0,0.0,61.1,-12.6,,,,,15:47:48,10.9,-0.6,5.6,0.0,167.0,0.1,-0.01,1.0,99.0,-5.0,14.0,0.0,30.08,121.0,,,317.0,,,,,0.0,0.0,,,,,,,,,,,,,,,,,,,0.0,12.0,0.0,0.0,30.1,0.0,,0.0,32.0,,,36.1,0.0,0.0,-0.4,11.1,9.1,,,,,12.0,13.0,12.0,13.0,12.0,13.0,13.0,13.0,,,2.0,1.0,,32.0,5.0,0.0,,,0.654,0.841,+0.0,11.8,,,,,,0.0,2026-04-18 08:46:35-07:00
80.06,1.0,10.0,2026-04-18 15:47:49,37.0816,-121.59957,330.0,0.0,61.1,-12.6,,,,,15:47:49,10.9,-0.6,5.6,0.0,167.0,0.1,-0.01,1.0,99.0,17.0,14.0,0.0,30.08,122.0,,,317.0,,,,,0.0,0.0,,,,,,,,,,,,,,,,,,,0.0,12.0,0.0,0.0,30.1,0.0,,0.0,31.8,,,36.1,0.0,0.0,-0.4,11.1,9.1,,,,,12.0,13.0,12.0,13.0,12.0,13.0,13.0,13.0,,,2.0,1.0,,31.8,5.0,0.0,,,0.656,0.841,+0.0,11.8,,,,,,0.0,2026-04-18 08:46:35-07:00
81.06,1.0,10.0,2026-04-18 15:47:50,37.0816,-121.59957,332.0,0.0,61.1,-12.6,,,,,15:47:50,10.9,-0.6,5.6,0.0,167.0,0.1,-0.01,1.0,99.0,42.0,14.0,0.0,30.08,122.0,,,317.0,,,,,0.0,0.0,,,,,,,,,,,,,,,,,,,0.0,12.0,0.0,0.0,30.1,0.0,,0.0,31.6,,,36.1,0.0,0.0,-0.4,11.1,9.1,,,,,12.0,13.0,12.0,13.0,12.0,13.0,13.0,13.0,,,1.0,1.0,,31.6,5.0,0.0,,,0.654,0.841,+0.0,11.8,,,,,,0.0,2026-04-18 08:46:35-07:00
82.06,1.0,10.0,2026-04-18 15:47:51,37.0816,-121.59957,334.0,0.1,61.1,-12.6,,,,,15:47:51,11.0,-0.6,5.6,0.0,167.0,0.1,-0.01,1.0,99.0,32.0,14.0,0.0,30.08,122.0,,,317.0,,,,,0.0,0.0,,,,,,,,,,,,,,,,,,,0.0,12.0,0.0,0.0,30.1,0.0,,0.0,31.4,,,36.1,0.0,0.0,-0.4,11.1,9.1,,,,,12.0,13.0,12.0,13.0,12.0,13.0,13.0,13.0,,,2.0,1.0,,31.4,5.0,0.0,,,0.656,0.841,+0.0,11.8,,,,,,0.0,2026-04-18 08:46:35-07:00
83.06,1.0,10.0,2026-04-18 15:47:52,37.0816,-121.59957,335.0,0.1,61.1,-12.6,,,,,15:47:52,10.9,-0.6,5.6,0.0,167.0,0.1,-0.01,1.0,99.0,17.0,14.0,0.0,30.08,122.0,,,317.0,,,,,0.0,0.0,,,,,,,,,,,,,,,,,,,0.0,12.0,0.0,0.0,30.1,0.0,,0.0,31.2,,,36.1,0.0,0.0,-0.4,11.1,9.1,,,,,12.0,13.0,12.0,13.0,12.0,13.0,13.0,13.0,,,2.0,1.0,,31.2,5.0,0.0,,,0.656,0.841,+0.0,11.8,,,,,,0.0,2026-04-18 08:46:35-07:00
84.06,1.0,10.0,2026-04-18 15:47:53,37.0816,-121.59957,336.0,0.0,61.1,-12.6,,,,,15:47:53,10.9,-0.6,5.7,0.0,167.0,0.1,-0.01,1.0,99.0,29.0,14.0,0.0,30.08,122.0,,,317.0,,,,,0.0,0.0,,,,,,,,,,,,,,,,,,,0.0,12.0,0.0,0.0,30.1,0.0,,0.0,31.1,,,36.1,0.0,0.0,-0.4,11.1,9.1,,,,,12.0,13.0,12.0,13.0,12.0,13.0,13.0,13.0,,,2.0,1.0,,31.1,5.0,0.0,,,0.654,0.841,+0.0,11.8,,,,,,0.0,2026-04-18 08:46:35-07:00
85.06,1.0,10.0,2026-04-18 15:47:54,37.08162,-121.59956,355.0,0.1,61.1,-12.6,,,,,15:47:54,10.9,-0.6,5.7,0.0,167.0,0.1,-0.01,1.0,99.0,49.0,14.0,0.0,30.08,122.0,,,317.0,,,,,0.0,0.0,,,,,,,,,,,,,,,,,,,0.0,12.0,0.0,0.0,30.1,0.0,,0.0,30.9,,,36.1,0.0,0.0,-0.4,11.1,9.1,,,,,12.0,13.0,12.0,13.0,12.0,13.0,13.0,13.0,,,2.0,1.0,,30.9,5.0,0.0,,,0.654,0.84,+0.0,11.8,,,,,,0.0,2026-04-18 08:46:35-07:00
86.06,1.0,10.0,2026-04-18 15:47:55,37.08162,-121.59956,356.0,0.0,61.1,-12.6,,,,,15:47:55,10.9,-0.6,5.7,0.0,167.0,0.1,-0.01,1.0,99.0,19.0,14.0,0.0,30.08,123.0,,,317.0,,,,,0.0,0.0,,,,,,,,,,,,,,,,,,,0.0,12.0,0.0,0.0,30.1,0.0,,0.0,30.8,,,36.1,0.0,0.0,-0.4,11.1,9.1,,,,,12.0,13.0,13.0,14.0,13.0,13.0,13.0,14.0,,,3.0,1.0,,30.8,5.0,0.0,,,0.656,0.841,+0.0,11.8,,,,,,0.0,2026-04-18 08:46:35-07:00
87.06,1.0,10.0,2026-04-18 15:47:56,37.08163,-121.59956,356.0,0.1,61.1,-12.6,,,,,15:47:56,10.9,-0.6,5.6,0.0,167.0,0.1,-0.01,1.0,99.0,9.0,14.0,0.0,30.08,125.0,,,317.0,,,,,0.0,0.0,,,,,,,,,,,,,,,,,,,0.0,12.0,0.0,0.0,30.1,0.0,,0.0,30.7,,,36.1,0.0,0.0,-0.4,11.1,9.1,,,,,12.0,13.0,13.0,14.0,13.0,13.0,13.0,14.0,,,2.0,0.0,,30.7,5.0,0.0,,,0.654,0.841,+0.0,11.8,,,,,,0.0,2026-04-18 08:46:35-07:00
88.06,1.0,10.0,2026-04-18 15:47:57,37.08163,-121.59956,358.0,0.0,61.1,-12.6,,,,,15:47:57,10.9,-0.6,5.6,0.0,167.0,0.1,-0.01,1.0,99.0,-15.0,14.0,0.0,30.08,125.0,,,317.0,,,,,0.0,0.0,,,,,,,,,,,,,,,,,,,0.0,12.0,0.0,0.0,30.1,0.0,,0.0,30.6,,,36.1,0.0,0.0,-0.4,11.1,9.1,,,,,12.0,13.0,13.0,14.0,13.0,13.0,13.0,14.0,,,3.0,0.0,,30.6,5.0,0.0,,,0.654,0.841,+0.0,11.8,,,,,,0.0,2026-04-18 08:46:35-07:00
89.06,1.0,10.0,2026-04-18 15:47:58,37.08165,-121.59956,353.0,0.0,61.1,-12.6,,,,,15:47:58,10.9,-0.6,5.6,0.0,167.0,0.1,-0.01,1.0,99.0,-27.0,14.0,0.0,30.08,125.0,,,317.0,,,,,0.0,0.0,,,,,,,,,,,,,,,,,,,0.0,12.0,0.0,0.0,30.1,0.0,,0.0,30.4,,,36.1,0.0,0.0,-0.4,11.1,9.1,,,,,12.0,13.0,13.0,14.0,13.0,13.0,13.0,14.0,,,2.0,0.0,,30.4,5.0,0.0,,,0.654,0.84,+0.0,11.8,,,,,,0.0,2026-04-18 08:46:35-07:00
90.06,1.0,10.0,2026-04-18 15:47:59,37.08166,-121.59956,353.0,0.0,61.1,-12.6,,,,,15:47:59,10.9,-0.6,5.6,0.0,167.0,0.1,-0.01,1.0,99.0,2.0,14.0,0.0,30.08,134.0,,,317.0,,,,,0.0,0.0,,,,,,,,,,,,,,,,,,,0.0,12.0,0.0,0.0,30.1,0.0,,0.0,30.3,,,36.1,0.0,0.0,-0.4,11.1,9.1,,,,,12.0,13.0,13.0,14.0,13.0,13.0,13.0,14.0,,,2.0,0.0,,30.3,5.0,0.0,,,0.654,0.841,+0.0,11.8,,,,,,0.0,2026-04-18 08:46:35-07:00
91.06,1.0,10.0,2026-04-18 15:48:00,37.08166,-121.59956,354.0,0.0,61.1,-12.6,,,,,15:48:00,10.9,-0.6,5.7,0.0,167.0,0.1,-0.01,1.0,99.0,-12.0,14.0,0.0,30.08,134.0,,,317.0,,,,,0.0,0.0,,,,,,,,,,,,,,,,,,,0.0,9.0,0.0,0.0,30.1,0.0,,0.0,30.2,,,36.1,0.0,0.0,-0.4,11.1,9.1,,,,,10.0,10.0,10.0,10.0,10.0,10.0,10.0,10.0,,,2.0,0.0,,30.2,5.0,0.0,,,0.654,0.842,+0.0,8.5,,,,,,0.0,2026-04-18 08:46:35-07:00
92.06,1.0,10.0,2026-04-18 15:48:01,37.08166,-121.59956,354.0,0.1,61.1,-12.6,,,,,15:48:01,10.9,-0.7,5.7,0.0,167.0,0.1,-0.02,1.0,99.0,-17.0,14.0,0.0,30.08,134.0,,,317.0,,,,,0.0,0.0,,,,,,,,,,,,,,,,,,,0.0,10.0,207.0,207.0,29.6,0.0,,0.0,24.5,,,36.1,0.0,0.0,-0.4,11.1,9.1,,,,,11.0,12.0,11.0,25.0,11.0,30.0,11.0,12.0,,,15.0,0.0,,24.5,5.0,0.0,,,0.656,0.846,+0.0,10.4,,,,,,207.0,2026-04-18 08:46:35-07:00
93.06,1.0,10.0,2026-04-18 15:48:02,37.08166,-121.59956,355.0,0.1,61.1,-12.6,,,,,15:48:02,10.9,-0.7,5.8,0.0,167.0,0.1,-0.01,1.0,99.0,-54.0,14.0,0.0,30.08,134.0,,,317.0,,,,,0.0,0.0,,,,,,,,,,,,,,,,,,,1.0,12.0,975.0,975.0,26.3,1.1,,1.1,24.4,,,36.1,0.0,0.0,-0.4,11.1,9.1,,,,,12.0,31.0,13.0,42.0,13.0,56.0,13.0,31.0,,,15.0,0.0,,24.4,5.0,0.001,,,0.665,0.844,+1.3,11.8,,,,,,975.0,2026-04-18 08:46:35-07:00
94.06,1.0,10.0,2026-04-18 15:48:03,37.08166,-121.59956,355.0,0.0,61.1,-12.6,,,,,15:48:03,10.9,-0.5,5.8,0.0,167.0,0.1,-0.01,1.0,99.0,-24.0,14.0,0.0,30.08,134.0,,,317.0,,,,,0.0,0.0,,,,,,,,,,,,,,,,,,,3.0,12.0,1075.0,1075.0,18.0,1.9,,1.9,25.1,,,36.1,0.0,0.0,-0.4,11.1,9.1,,,,,13.0,93.0,13.0,100.0,13.0,117.0,13.0,93.0,,,15.0,0.0,,25.1,5.0,0.001,,,0.656,0.842,+2.7,11.9,,,,,,1075.0,2026-04-18 08:46:35-07:00
95.06,1.0,10.0,2026-04-18 15:48:04,37.08166,-121.59956,354.0,0.1,61.1,-12.6,,,,,15:48:04,10.9,-0.6,5.7,0.0,167.0,0.0,-0.01,1.0,99.0,-34.0,14.0,0.0,30.08,134.0,,,317.0,,,,,0.0,0.0,,,,,,,,,,,,,,,,,,,5.0,12.0,1100.0,1100.0,16.7,2.4,,2.4,25.3,,,36.1,0.0,0.0,-0.4,11.1,9.1,,,,,13.0,146.0,13.0,155.0,13.0,168.0,13.0,147.0,,,15.0,0.0,,25.3,5.0,0.001,,,0.654,0.841,+4.6,11.9,,,,,,1100.0,2026-04-18 08:46:35-07:00
96.06,1.0,10.0,2026-04-18 15:48:05,37.08165,-121.59958,369.0,0.0,61.1,-12.6,,,,,15:48:05,10.9,-0.5,5.7,0.0,167.0,0.0,-0.01,1.0,99.0,-10.0,14.0,0.0,30.08,134.0,,,317.0,,,,,0.0,0.0,,,,,,,,,,,,,,,,,,,7.0,12.0,1199.0,1199.0,16.0,2.6,,2.6,26.0,,,36.1,0.0,0.0,-0.4,11.1,9.1,,,,,13.0,192.0,14.0,199.0,13.0,212.0,14.0,192.0,,,15.0,0.0,,26.0,5.0,0.001,,,0.656,0.841,+6.8,11.9,,,,,,1199.0,2026-04-18 08:46:35-07:00
97.06,1.0,10.0,2026-04-18 15:48:06,37.08165,-121.59958,370.0,0.0,61.1,-12.6,,,,,15:48:06,10.9,-0.5,5.8,0.0,167.0,0.1,-0.01,1.0,99.0,-25.0,14.0,0.0,30.08,136.0,,,317.0,,,,,0.0,0.0,,,,,,,,,,,,,,,,,,,9.0,12.0,1227.0,1227.0,15.5,2.8,,2.8,25.9,,,36.1,0.0,0.0,-0.4,11.1,9.1,,,,,14.0,236.0,14.0,238.0,14.0,251.0,14.0,232.0,,,15.0,0.0,,25.9,5.0,0.001,,,0.656,0.841,+9.5,11.9,,,,,,1227.0,2026-04-18 08:46:35-07:00
98.06,1.0,10.0,2026-04-18 15:48:07,37.08165,-121.59958,369.0,0.0,61.1,-12.6,,,,,15:48:07,10.9,-0.6,5.7,0.0,167.0,0.1,-0.01,1.0,99.0,-48.0,14.0,0.0,30.08,136.0,,,317.0,,,,,0.0,0.0,,,,,,,,,,,,,,,,,,,13.0,12.0,1247.0,1247.0,15.3,3.0,,3.0,25.9,,,36.1,0.0,0.0,-0.4,11.1,9.1,,,,,14.0,274.0,15.0,273.0,14.0,289.0,15.0,269.0,,,15.0,0.0,,25.9,5.0,0.001,,,0.654,0.841,+12.7,12.0,,,,,,1247.0,2026-04-18 08:46:35-07:00
99.06,1.0,10.0,2026-04-18 15:48:08,37.08165,-121.59958,367.0,0.0,61.1,-12.6,,,,,15:48:08,10.9,-0.6,5.7,0.0,167.0,0.0,-0.01,1.0,99.0,-8.0,14.0,0.0,30.08,136.0,,,317.0,,,,,0.0,0.0,,,,,,,,,,,,,,,,,,,16.0,12.0,1227.0,1227.0,14.9,3.1,,3.1,26.0,,,36.1,0.0,0.0,-0.4,11.1,9.1,,,,,15.0,305.0,15.0,303.0,15.0,321.0,16.0,301.0,,,15.0,0.0,,26.0,5.0,0.001,,,0.654,0.841,+16.4,12.0,,,,,,1227.0,2026-04-18 08:46:35-07:00
100.06,1.0,10.0,2026-04-18 15:48:09,37.08165,-121.59959,366.0,0.1,61.1,-12.6,,,,,15:48:09,10.9,-0.5,5.8,0.0,167.0,0.1,-0.01,1.0,99.0,-12.0,14.0,0.0,30.08,145.0,,,317.0,,,,,0.0,0.0,,,,,,,,,,,,,,,,,,,21.0,12.0,1180.0,1180.0,14.4,3.1,,3.1,26.0,,,36.1,0.0,0.0,-0.4,11.1,9.1,,,,,15.0,337.0,16.0,333.0,15.0,353.0,16.0,333.0,,,15.0,0.0,,26.0,5.0,0.001,,,0.654,0.841,+21.4,12.0,,,,,,1180.0,2026-04-18 08:46:35-07:00
101.06,1.0,10.0,2026-04-18 15:48:10,37.08165,-121.59959,365.0,0.0,61.1,-12.6,,,,,15:48:10,10.9,-0.5,5.8,0.0,167.0,0.1,-0.01,1.0,99.0,-4.0,14.0,0.0,30.08,145.0,,,317.0,,,,,0.0,0.0,,,,,,,0.0,,,0.0,,,,,,,,,27.0,12.0,1062.0,1062.0,13.6,3.1,,3.1,26.1,,,36.1,0.0,0.0,-0.4,11.1,9.1,,,,,16.0,358.0,16.0,354.0,16.0,376.0,17.0,356.0,,,15.0,0.0,,26.1,5.0,0.001,,,0.654,0.84,+27.1,12.1,,,,,,1062.0,2026-04-18 08:46:35-07:00
102.06,1.0,10.0,2026-04-18 15:48:11,37.08165,-121.59958,363.0,0.1,61.1,-12.6,,,,,15:48:11,10.9,-0.5,5.8,0.0,167.0,0.1,-0.01,1.0,99.0,-13.0,15.0,0.0,30.08,147.0,,,317.0,,,,,0.0,0.0,,,,,,,0.0,,,0.0,,,,,,,,,34.0,12.0,1056.0,1056.0,13.5,3.0,,3.0,26.1,,,36.1,0.0,0.0,-0.4,11.1,9.1,,,,,16.0,375.0,17.0,372.0,16.0,395.0,17.0,376.0,,,15.0,0.0,,26.1,5.0,0.0,,,0.654,0.84,+33.7,12.1,,,,,,1056.0,2026-04-18 08:46:35-07:00
103.06,1.0,10.0,2026-04-18 15:48:12,37.08165,-121.59958,364.0,0.1,61.1,-12.6,,,,,15:48:12,10.9,-0.6,5.7,0.0,167.0,0.0,-0.01,1.0,99.0,21.0,15.0,0.0,30.08,147.0,,,317.0,,,,,0.0,0.0,,,,,,,0.0,,,0.0,,,,,,,,,41.0,12.0,1043.0,1043.0,13.4,3.0,,3.0,26.1,,,36.1,0.0,0.0,-0.4,11.1,9.1,,,,,17.0,389.0,17.0,387.0,16.0,412.0,18.0,395.0,,,15.0,0.0,,26.1,5.0,0.0,,,0.654,0.84,+41.1,12.1,,,,,,1043.0,2026-04-18 08:46:35-07:00
104.06,1.0,10.0,2026-04-18 15:48:13,37.08165,-121.59958,363.0,0.0,61.1,-12.6,,,,,15:48:13,10.9,-0.6,5.7,0.0,167.0,0.1,-0.01,1.0,99.0,12.0,15.0,0.0,30.08,147.0,,,317.0,,,,,0.0,0.0,,,,,,,0.0,,,0.0,,,,,3.0,0.0,0.0,1200.0,49.0,12.0,1039.0,1039.0,13.5,3.0,,3.0,26.1,,,36.1,0.0,0.0,-0.4,11.1,9.1,,,,,17.0,402.0,18.0,401.0,17.0,426.0,18.0,411.0,,,15.0,0.0,,26.1,5.0,0.0,,,0.654,0.844,+48.7,12.2,,,,,,1039.0,2026-04-18 08:46:35-07:00
105.06,1.0,10.0,2026-04-18 15:48:14,37.08165,-121.59958,362.0,0.0,61.1,-12.6,,,,,15:48:14,10.9,-0.5,5.8,0.0,167.0,0.1,-0.01,1.0,99.0,21.0,15.0,0.0,30.08,156.0,,,317.0,,,,,0.0,0.0,,,,,,,0.0,,,0.0,,,,,1.0,0.0,0.0,1200.0,56.0,12.0,1041.0,1041.0,13.6,2.9,,2.9,26.1,,,36.1,0.0,0.0,-0.4,11.1,9.1,,,,,17.0,413.0,18.0,412.0,17.0,439.0,19.0,426.0,,,15.0,0.0,,26.1,5.0,0.0,,,0.654,0.842,+56.0,12.2,,,,,,1041.0,2026-04-18 08:46:35-07:00
106.06,1.0,10.0,2026-04-18 15:48:15,37.08165,-121.59958,360.0,0.0,61.1,-12.6,,,,,15:48:15,10.9,-0.5,5.7,0.0,167.0,0.1,-0.01,1.0,99.0,43.0,15.0,0.0,30.08,156.0,,,317.0,,,,,0.0,0.0,,,,,,,0.0,,,0.0,,,,,1.0,0.0,0.0,1200.0,62.0,12.0,1027.0,1027.0,13.6,2.9,,2.9,26.1,,,36.1,0.0,0.0,-0.4,11.1,9.1,,,,,18.0,423.0,19.0,424.0,18.0,449.0,19.0,438.0,,,15.0,0.0,,26.1,5.0,0.0,,,0.654,0.845,+62.0,12.2,,,,,,1027.0,2026-04-18 08:46:35-07:00
107.06,1.0,10.0,2026-04-18 15:48:16,37.08165,-121.59958,359.0,0.0,61.1,-12.6,,,,,15:48:16,10.9,-0.5,5.8,0.0,167.0,0.1,-0.01,1.0,99.0,47.0,15.0,0.0,30.08,156.0,,,317.0,,,,,0.0,0.0,,,,,,,0.0,,,-1.0,,,,,1.0,0.0,0.0,1200.0,67.0,12.0,1027.0,1027.0,13.7,2.8,,2.8,26.2,,,36.1,0.0,0.0,-0.4,11.1,9.1,,,,,19.0,431.0,19.0,433.0,18.0,458.0,20.0,451.0,,,15.0,0.0,,26.2,5.0,0.0,,,0.654,0.842,+66.5,12.2,,,,,,1027.0,2026-04-18 08:46:35-07:00
108.06,1.0,10.0,2026-04-18 15:48:17,37.08165,-121.59958,357.0,0.0,61.1,-12.6,,,,,15:48:17,10.9,-0.5,5.8,0.0,167.0,0.1,-0.01,1.0,99.0,21.0,15.0,0.0,30.08,158.0,,,317.0,,,,,0.0,0.0,,,,,,,0.0,,,-1.0,,,,,,,,,70.0,12.0,1023.0,1023.0,13.8,2.8,,2.8,26.1,,,36.1,0.0,0.0,-0.4,11.1,9.1,,,,,19.0,439.0,20.0,442.0,19.0,466.0,20.0,462.0,,,15.0,0.0,,26.1,5.0,0.0,,,0.654,0.842,+69.6,12.2,,,,,,1023.0,2026-04-18 08:46:35-07:00
109.06,1.0,10.0,2026-04-18 15:48:18,37.08166,-121.59959,352.0,0.0,61.1,-12.6,,,,,15:48:18,10.9,-0.5,5.8,0.0,167.0,0.1,-0.01,1.0,99.0,-7.0,15.0,0.0,30.08,158.0,,,317.0,,,,,0.0,0.0,,,,,,,0.0,,,-1.0,,,,,,,,,72.0,12.0,1022.0,1022.0,13.7,2.8,,2.8,26.2,,,36.1,0.0,0.0,-0.4,11.1,9.1,,,,,19.0,445.0,20.0,451.0,19.0,472.0,21.0,471.0,,,15.0,0.0,,26.2,5.0,0.0,,,0.654,0.846,+71.6,12.3,,,,,,1022.0,2026-04-18 08:46:35-07:00
110.06,1.0,10.0,2026-04-18 15:48:19,37.08166,-121.59959,350.0,0.1,61.1,-12.6,,,,,15:48:19,10.9,-0.5,5.8,0.0,167.0,0.1,-0.01,0.9,99.0,15.0,15.0,0.0,30.08,158.0,,,317.0,,,,,0.0,0.0,,,,,,,0.0,,,-1.0,,,,,,,,,73.0,12.0,1015.0,1015.0,13.7,2.8,,2.8,26.2,,,36.1,0.0,0.0,-0.4,11.1,9.1,,,,,20.0,453.0,21.0,458.0,19.0,478.0,22.0,478.0,,,15.0,0.0,,26.2,5.0,0.0,,,0.654,0.845,+72.9,12.3,,,,,,1015.0,2026-04-18 08:46:35-07:00
111.06,1.0,10.0,2026-04-18 15:48:20,37.08166,-121.59959,349.0,0.1,61.1,-12.6,,,,,15:48:20,10.8,-0.5,5.8,0.0,167.0,0.1,-0.01,1.0,99.0,27.0,15.0,0.0,30.08,167.0,,,317.0,,,,,0.0,0.0,,,,,,,0.0,,,-1.0,,,,,,,,,74.0,12.0,1017.0,1017.0,13.8,2.8,,2.8,26.2,,,36.1,0.0,0.0,-0.4,11.1,9.1,,,,,20.0,458.0,21.0,466.0,20.0,483.0,22.0,486.0,,,15.0,0.0,,26.2,5.0,0.0,,,0.654,0.84,+73.7,12.3,,,,,,1017.0,2026-04-18 08:46:35-07:00
112.06,1.0,10.0,2026-04-18 15:48:21,37.08166,-121.59959,348.0,0.1,61.1,-12.6,,,,,15:48:21,10.8,-0.5,5.8,0.0,167.0,0.1,-0.01,1.0,99.0,58.0,15.0,0.0,30.08,167.0,,,317.0,,,,,0.0,0.0,,,,,,,-10.0,,,-1.0,,,,,,,,,74.0,12.0,1006.0,1006.0,13.8,2.8,,2.8,26.2,,,36.1,0.0,0.0,-0.4,11.1,9.1,,,,,21.0,464.0,22.0,472.0,20.0,489.0,23.0,493.0,,,15.0,0.0,,26.2,5.0,0.0,,,0.654,0.84,+74.0,12.3,,,,,,1006.0,2026-04-18 08:46:35-07:00
113.06,1.0,10.0,2026-04-18 15:48:22,37.08166,-121.59959,347.0,0.0,61.1,-12.6,,,,,15:48:22,10.8,-0.5,5.8,0.0,168.0,0.1,-0.01,1.0,99.0,54.0,15.0,0.0,30.08,167.0,,,317.0,,,,,0.0,0.0,,,,,,,0.0,,,-7.0,,,,,,,,,74.0,12.0,1014.0,1014.0,13.8,2.8,,2.8,26.2,,,36.1,0.0,0.0,-0.4,11.1,9.1,,,,,21.0,469.0,22.0,478.0,21.0,493.0,23.0,499.0,,,7.0,0.0,,26.2,5.0,0.0,,,0.654,0.84,+74.4,12.4,,,,,,1014.0,2026-04-18 08:46:35-07:00
114.06,1.0,10.0,2026-04-18 15:48:23,37.08166,-121.59959,346.0,0.0,61.1,-12.6,,,,,15:48:23,10.8,-0.5,5.9,0.0,169.0,0.1,-0.01,1.0,99.0,31.0,15.0,0.0,30.08,171.0,,,317.0,,,,,0.0,0.0,,,,,,,-2.0,,,-7.0,,,,,,,,,75.0,12.0,1021.0,1021.0,13.8,2.8,,2.8,26.2,,,36.1,0.0,0.0,-0.4,11.1,9.1,,,,,22.0,474.0,23.0,484.0,21.0,496.0,24.0,503.0,,,1.0,0.0,,26.2,5.0,0.0,,,0.654,0.84,+74.5,12.4,,,,,,1021.0,2026-04-18 08:46:35-07:00
115.06,1.0,10.0,2026-04-18 15:48:24,37.08165,-121.59959,344.0,0.0,61.1,-12.6,,,,,15:48:24,10.8,-0.5,5.8,0.0,169.0,0.0,-0.01,1.0,99.0,32.0,15.0,0.0,30.08,171.0,,,317.0,,,,,0.0,0.0,,,,,,,-2.0,,,-7.0,,,,,,,,,75.0,12.0,1016.0,1016.0,13.8,2.8,,2.8,26.2,,,36.1,0.0,0.0,-0.4,11.1,9.1,,,,,22.0,478.0,23.0,489.0,22.0,500.0,24.0,508.0,,,-1.0,0.0,,26.2,5.0,0.0,,,0.654,0.841,+74.7,12.4,,,,,,1016.0,2026-04-18 08:46:35-07:00
116.06,1.0,10.0,2026-04-18 15:48:25,37.08165,-121.59959,343.0,0.0,61.1,-12.6,,,,,15:48:25,10.8,-0.5,5.8,0.0,170.0,0.0,-0.01,1.0,99.0,45.0,15.0,0.0,30.08,172.0,,,317.0,,,,,0.0,0.0,,,,,,,-3.0,,,-7.0,,,,,,,,,75.0,12.0,1011.0,1011.0,13.9,2.8,,2.8,26.2,,,36.1,0.0,0.0,-0.4,11.1,9.1,,,,,23.0,482.0,24.0,494.0,22.0,503.0,25.0,513.0,,,-10.0,0.0,,26.2,5.0,0.0,,,0.654,0.84,+74.8,12.4,,,,,,1011.0,2026-04-18 08:46:35-07:00
117.06,1.0,10.0,2026-04-18 15:48:26,37.08165,-121.59959,342.0,0.0,61.1,-12.6,,,,,15:48:26,10.8,-0.6,5.8,0.0,170.0,0.0,-0.01,0.9,99.0,32.0,15.0,0.0,30.08,172.0,,,317.0,,,,,0.0,0.0,,,,,,,-3.0,,,-7.0,,,,,,,,,75.0,12.0,1012.0,1012.0,13.9,2.7,,2.7,26.2,,,36.0,0.0,0.0,-0.4,11.1,9.1,,,,,23.0,487.0,24.0,498.0,23.0,507.0,26.0,517.0,,,-20.0,0.0,,26.2,5.0,0.0,,,0.654,0.841,+74.8,12.4,,,,,,1012.0,2026-04-18 08:46:35-07:00
118.06,1.0,10.0,2026-04-18 15:48:27,37.08165,-121.59959,341.0,0.0,61.1,-12.6,,,,,15:48:27,10.8,-0.5,5.8,0.0,171.0,0.1,-0.01,1.0,99.0,58.0,15.0,0.0,30.08,174.0,,,317.0,,,,,0.0,0.0,,,,,,,-3.0,,,-7.0,,,,,,,,,75.0,13.0,983.0,983.0,13.8,2.7,,2.7,26.2,,,36.0,0.0,0.0,6.3,11.1,9.1,,,,,24.0,491.0,25.0,502.0,24.0,510.0,27.0,520.0,,,-20.0,0.0,,26.2,5.0,0.0,,,0.654,0.84,+74.9,13.2,,,,,,983.0,2026-04-18 08:46:35-07:00
119.06,1.0,10.0,2026-04-18 15:48:28,37.08165,-121.59958,339.0,0.0,61.1,-12.6,,,,,15:48:28,10.7,-0.5,5.8,0.0,172.0,0.1,-0.01,1.0,99.0,42.0,15.0,0.0,30.08,175.0,,,317.0,,,,,0.0,0.0,,,,,,,-3.0,,,-7.0,,,,,,,,,75.0,13.0,977.0,977.0,14.3,2.7,,2.7,26.2,,,36.0,0.0,0.0,27.1,11.1,9.1,,,,,25.0,494.0,26.0,504.0,24.0,511.0,27.0,523.0,,,-22.0,0.0,,26.2,5.0,0.0,,,0.654,0.84,+74.9,13.2,,,,,,977.0,2026-04-18 08:46:35-07:00
120.06,1.0,10.0,2026-04-18 15:48:29,37.08165,-121.59958,338.0,0.1,61.1,-12.6,,,,,15:48:29,10.7,-0.5,5.7,0.0,172.0,0.1,-0.01,1.0,99.0,39.0,15.0,0.0,30.08,175.0,,,317.0,,,,,0.0,0.0,,,,,,,-3.0,,,-7.0,,,,,,,,,75.0,13.0,966.0,966.0,14.4,2.7,,2.7,26.2,,,36.0,0.0,0.0,39.2,11.1,9.1,,,,,25.0,497.0,26.0,506.0,25.0,513.0,28.0,525.0,,,-25.0,0.0,,26.2,5.0,0.0,,,0.654,0.84,+74.9,13.2,,,,,,966.0,2026-04-18 08:46:35-07:00
121.06,1.0,10.0,2026-04-18 15:48:30,37.08165,-121.59958,337.0,0.0,61.1,-12.6,,,,,15:48:30,10.7,-0.5,5.7,0.0,173.0,0.1,-0.01,1.0,99.0,22.0,15.0,0.0,30.08,176.0,,,317.0,,,,,0.0,0.0,,,,,,,-4.0,,,-7.0,,,,,,,,,75.0,13.0,973.0,973.0,14.4,2.7,,2.7,26.2,,,36.0,0.0,0.0,46.2,11.1,9.1,,,,,25.0,499.0,27.0,507.0,25.0,514.0,28.0,526.0,,,-25.0,0.0,,26.2,5.0,0.0,,,0.654,0.84,+74.9,13.2,,,,,,973.0,2026-04-18 08:46:35-07:00
122.06,1.0,10.0,2026-04-18 15:48:31,37.08165,-121.59958,336.0,0.1,61.1,-12.6,,,,,15:48:31,10.8,-0.6,5.6,0.0,173.0,0.0,-0.01,0.9,99.0,19.0,15.0,0.0,30.08,176.0,,,317.0,,,,,0.0,0.0,,,,,,,-4.0,,,-7.0,,,,,,,,,75.0,13.0,978.0,978.0,14.5,2.7,,2.7,26.1,,,36.0,0.0,0.0,49.4,11.1,9.1,,,,,26.0,502.0,27.0,509.0,26.0,515.0,29.0,528.0,,,-25.0,0.0,,26.1,5.0,0.0,,,0.654,0.84,+75.0,13.2,,,,,,978.0,2026-04-18 08:46:35-07:00
123.06,1.0,10.0,2026-04-18 15:48:32,37.08162,-121.59959,317.0,0.1,61.1,-12.6,,,,,15:48:32,10.8,-0.6,5.5,0.0,173.0,-0.0,-0.01,1.0,99.0,-20.0,15.0,0.0,30.08,187.0,,,317.0,,,,,0.0,0.0,,,,,,,-4.0,,,-7.0,,,,,,,,,75.0,13.0,990.0,990.0,14.5,2.7,,2.7,26.2,,,36.0,0.0,0.0,48.1,11.1,9.1,,,,,26.0,504.0,28.0,511.0,26.0,516.0,30.0,530.0,,,-24.0,0.0,,26.2,5.0,0.0,,,0.654,0.84,+75.0,13.1,,,,,,990.0,2026-04-18 08:46:35-07:00
124.06,1.0,10.0,2026-04-18 15:48:33,37.08162,-121.59959,317.0,0.0,61.1,-12.6,,,,,15:48:33,10.7,-0.6,5.5,0.0,173.0,0.0,-0.01,1.0,99.0,-23.0,15.0,0.0,30.08,187.0,,,317.0,,,,,0.0,0.0,,,,,,,-3.0,,,-7.0,,,,,,,,,75.0,13.0,997.0,997.0,14.3,2.7,,2.7,26.2,,,36.0,0.0,0.0,45.2,11.1,9.1,,,,,27.0,506.0,29.0,513.0,27.0,517.0,30.0,532.0,,,-25.0,0.0,,26.2,5.0,0.0,,,0.654,0.84,+75.0,13.1,,,,,,997.0,2026-04-18 08:46:35-07:00
125.06,1.0,10.0,2026-04-18 15:48:34,37.08162,-121.59959,315.0,0.4,61.1,-12.6,,,,,15:48:34,10.8,-0.6,5.6,0.0,173.0,0.1,-0.01,1.0,99.0,-4.0,15.0,0.0,30.08,187.0,,,317.0,,,,,0.0,0.0,,,,,,,-3.0,,,-7.0,,,,,,,,,75.0,13.0,999.0,999.0,14.2,2.7,,2.7,26.2,,,36.0,0.0,0.0,42.1,11.1,9.1,,,,,27.0,509.0,29.0,514.0,27.0,518.0,31.0,533.0,,,-25.0,0.0,,26.2,5.0,0.0,,,0.656,0.84,+75.0,13.1,,,,,,999.0,2026-04-18 08:46:35-07:00
126.06,1.0,10.0,2026-04-18 15:48:35,37.08163,-121.59959,294.0,0.0,61.1,-12.6,,,,,15:48:35,10.8,-0.6,5.6,0.0,173.0,0.1,-0.01,1.0,99.0,-5.0,15.0,0.0,30.08,196.0,,,317.0,,,,,0.0,0.0,,,,,,,-3.0,,,-7.0,,,,,,,,,75.0,13.0,995.0,995.0,14.1,2.8,,2.8,26.2,,,36.0,0.0,0.0,38.5,11.1,9.1,,,,,28.0,512.0,29.0,515.0,28.0,520.0,31.0,534.0,,,-25.0,0.0,,26.2,5.0,0.0,,,0.656,0.84,+75.0,13.1,,,,,,995.0,2026-04-18 08:46:35-07:00
127.06,1.0,10.0,2026-04-18 15:48:36,37.08163,-121.59959,293.0,0.1,61.1,-12.6,,,,,15:48:36,10.7,-0.7,5.6,0.0,173.0,0.1,-0.01,1.0,99.0,3.0,15.0,0.0,30.08,195.0,,,317.0,,,,,0.0,0.0,,,,,,,-3.0,,,-7.0,,,,,,,,,75.0,13.0,1001.0,1001.0,14.1,2.8,,2.8,26.2,,,36.0,0.0,0.0,35.0,11.1,9.1,,,,,28.0,515.0,30.0,517.0,28.0,521.0,32.0,537.0,,,-24.0,0.0,,26.2,5.0,0.0,,,0.656,0.84,+75.0,13.0,,,,,,1001.0,2026-04-18 08:46:35-07:00
128.06,1.0,10.0,2026-04-18 15:48:37,37.08163,-121.59959,294.0,0.0,61.1,-12.6,,,,,15:48:37,10.7,-0.7,5.6,0.0,173.0,0.1,-0.01,1.0,99.0,0.0,15.0,0.0,30.08,195.0,,,317.0,,,,,0.0,0.0,,,,,,,-3.0,,,-7.0,,,,,,,,,75.0,13.0,998.0,998.0,14.0,2.8,,2.8,26.2,,,36.0,0.0,0.0,31.8,11.1,9.1,,,,,29.0,517.0,31.0,520.0,29.0,521.0,33.0,539.0,,,-24.0,0.0,,26.2,5.0,0.0,,,0.656,0.84,+75.0,13.0,,,,,,998.0,2026-04-18 08:46:35-07:00
129.06,1.0,10.0,2026-04-18 15:48:38,37.08163,-121.59959,295.0,0.0,61.1,-12.6,,,,,15:48:38,10.7,-0.7,5.6,0.0,173.0,0.1,-0.01,0.9,99.0,-52.0,15.0,0.0,30.08,195.0,,,317.0,,,,,0.0,0.0,,,,,,,-3.0,,,-7.0,,,,,,,,,75.0,13.0,1016.0,1016.0,14.1,2.8,,2.8,26.2,,,36.0,0.0,0.0,28.8,11.1,9.1,,,,,29.0,520.0,31.0,522.0,29.0,523.0,33.0,540.0,,,-25.0,0.0,,26.2,5.0,0.0,,,0.657,0.84,+75.0,13.0,,,,,,1016.0,2026-04-18 08:46:35-07:00
130.06,1.0,10.0,2026-04-18 15:48:39,37.08163,-121.59958,296.0,0.0,61.1,-12.6,,,,,15:48:39,10.7,-0.6,5.6,0.0,173.0,0.1,-0.01,1.0,99.0,-29.0,15.0,0.0,30.08,196.0,,,317.0,,,,,0.0,0.0,,,,,,,-3.0,,,-7.0,,,,,1.0,1.0,0.0,1200.0,75.0,13.0,1016.0,1016.0,13.9,2.8,,2.8,26.2,,,36.0,0.0,0.0,26.1,11.2,9.1,,,,,30.0,521.0,32.0,525.0,30.0,524.0,34.0,541.0,,,-25.0,0.0,,26.2,5.0,0.001,,,0.656,0.84,+75.0,13.0,,,,,,1016.0,2026-04-18 08:46:35-07:00
131.06,1.0,10.0,2026-04-18 15:48:40,37.08163,-121.59958,297.0,0.0,61.1,-12.6,,,,,15:48:40,10.7,-0.6,5.7,0.0,173.0,0.1,-0.01,1.0,99.0,-57.0,15.0,0.0,30.08,196.0,,,317.0,,,,,0.0,0.0,,,,,,,-3.0,,,-7.0,,,,,1.0,0.0,0.0,1200.0,75.0,13.0,1012.0,1012.0,13.9,2.8,,2.8,26.2,,,36.0,0.0,0.0,23.7,11.2,9.1,,,,,31.0,523.0,32.0,527.0,30.0,526.0,35.0,543.0,,,-25.0,0.0,,26.2,5.0,0.0,,,0.654,0.84,+75.0,13.0,,,,,,1012.0,2026-04-18 08:46:35-07:00
132.06,1.0,10.0,2026-04-18 15:48:41,37.08163,-121.59958,298.0,0.0,61.1,-12.6,,,,,15:48:41,10.7,-0.6,5.7,0.0,173.0,0.1,-0.01,1.0,99.0,-43.0,15.0,0.0,30.08,196.0,,,317.0,,,,,0.0,0.0,,,,,,,-3.0,,,-7.0,,,,,1.0,0.0,0.0,1200.0,75.0,13.0,1017.0,1017.0,13.9,2.7,,2.7,26.2,,,36.0,0.0,0.0,21.7,11.2,9.1,,,,,31.0,525.0,33.0,529.0,31.0,528.0,35.0,545.0,,,-25.0,0.0,,26.2,5.0,0.0,,,0.654,0.84,+75.0,13.0,,,,,,1017.0,2026-04-18 08:46:35-07:00
133.06,1.0,10.0,2026-04-18 15:48:42,37.08163,-121.59958,299.0,0.0,61.1,-12.6,,,,,15:48:42,10.8,-0.6,5.7,0.0,173.0,0.1,-0.01,1.0,99.0,-42.0,15.0,0.0,30.08,196.0,,,317.0,,,,,0.0,0.0,,,,,,,-3.0,,,-7.0,,,,,1.0,0.0,0.0,1200.0,75.0,13.0,1010.0,1010.0,13.8,2.7,,2.7,26.2,,,36.0,0.0,0.0,19.9,11.2,9.1,,,,,31.0,527.0,33.0,531.0,31.0,529.0,36.0,547.0,,,-25.0,0.0,,26.2,5.0,0.0,,,0.654,0.84,+75.0,13.0,,,,,,1010.0,2026-04-18 08:46:35-07:00
134.06,1.0,10.0,2026-04-18 15:48:43,37.08162,-121.59958,299.0,0.0,61.1,-12.6,,,,,15:48:43,10.8,-0.7,5.6,0.0,173.0,0.1,-0.01,1.0,99.0,-42.0,15.0,0.0,30.08,196.0,,,317.0,,,,,0.0,0.0,,,,,,,-3.0,,,-7.0,,,,,1.0,0.0,0.0,1200.0,75.0,13.0,1014.0,1014.0,13.8,2.7,,2.7,26.2,,,36.0,0.0,0.0,18.4,11.2,9.1,,,,,32.0,528.0,34.0,534.0,32.0,531.0,36.0,549.0,,,-25.0,0.0,,26.2,5.0,0.0,,,0.654,0.84,+75.0,13.0,,,,,,1014.0,2026-04-18 08:46:35-07:00
135.06,1.0,10.0,2026-04-18 15:48:44,37.08162,-121.59958,299.0,0.1,61.1,-12.6,,,,,15:48:44,10.8,-0.7,5.6,0.0,173.0,0.1,-0.01,1.0,99.0,-40.0,15.0,0.0,30.08,196.0,,,317.0,,,,,0.0,0.0,,,,,,,-3.0,,,-7.0,,,,,1.0,0.0,0.0,1200.0,75.0,13.0,1017.0,1017.0,13.8,2.7,,2.7,26.2,,,36.0,0.0,0.0,17.0,11.2,9.1,,,,,32.0,530.0,34.0,536.0,32.0,533.0,37.0,551.0,,,-25.0,0.0,,26.2,5.0,0.0,,,0.654,0.844,+75.0,13.0,,,,,,1017.0,2026-04-18 08:46:35-07:00
136.06,1.0,10.0,2026-04-18 15:48:45,37.08162,-121.59958,300.0,0.0,61.1,-12.6,,,,,15:48:45,10.8,-0.6,5.6,0.0,173.0,0.0,-0.01,1.0,99.0,-38.0,15.0,0.0,30.08,196.0,,,317.0,,,,,0.0,0.0,,,,,,,-3.0,,,-7.0,,,,,1.0,0.0,0.0,1200.0,75.0,13.0,1020.0,1020.0,13.8,2.7,,2.7,26.2,,,36.0,0.0,0.0,15.8,11.2,9.1,,,,,33.0,532.0,35.0,538.0,33.0,534.0,38.0,553.0,,,-25.0,0.0,,26.2,5.0,0.0,,,0.654,0.842,+74.9,13.0,,,,,,1020.0,2026-04-18 08:46:35-07:00
137.06,1.0,10.0,2026-04-18 15:48:46,37.08162,-121.59958,303.0,0.0,61.1,-12.6,,,,,15:48:46,10.8,-0.6,5.6,0.0,173.0,0.1,-0.01,1.0,99.0,-29.0,15.0,0.0,30.08,196.0,,,317.0,,,,,0.0,0.0,,,,,,,-3.0,,,-7.0,,,,,1.0,0.0,0.0,1200.0,75.0,13.0,1020.0,1020.0,13.7,2.7,,2.7,26.2,,,36.0,0.0,0.0,14.7,11.2,9.1,,,,,34.0,535.0,36.0,540.0,34.0,537.0,38.0,554.0,,,-25.0,0.0,,26.2,5.0,0.0,,,0.654,0.842,+75.0,13.0,,,,,,1020.0,2026-04-18 08:46:35-07:00
138.06,1.0,10.0,2026-04-18 15:48:47,37.08162,-121.59958,304.0,0.0,61.1,-12.6,,,,,15:48:47,10.8,-0.7,5.7,0.0,173.0,0.1,-0.01,1.0,99.0,-39.0,15.0,0.0,30.08,196.0,,,317.0,,,,,0.0,0.0,,,,,,,-3.0,,,-7.0,,,,,1.0,0.0,0.0,1200.0,75.0,13.0,1031.0,1031.0,13.7,2.7,,2.7,26.2,,,36.0,0.0,0.0,13.8,11.2,9.1,,,,,34.0,536.0,36.0,542.0,34.0,538.0,39.0,556.0,,,-25.0,0.0,,26.2,5.0,0.0,,,0.654,0.847,+75.0,13.0,,,,,,1031.0,2026-04-18 08:46:35-07:00
139.06,1.0,10.0,2026-04-18 15:48:48,37.08162,-121.59958,304.0,0.0,61.1,-12.6,,,,,15:48:48,10.8,-0.7,5.7,0.0,173.0,0.1,-0.01,1.0,99.0,-35.0,15.0,0.0,30.08,196.0,,,317.0,,,,,0.0,0.0,,,,,,,-3.0,,,-7.0,,,,,1.0,1.0,0.0,1200.0,75.0,13.0,1033.0,1033.0,13.6,2.7,,2.7,26.2,,,36.0,0.0,0.0,13.0,11.2,9.1,,,,,35.0,538.0,37.0,543.0,35.0,540.0,40.0,557.0,,,-25.0,0.0,,26.2,5.0,0.0,,,0.654,0.847,+74.9,13.1,,,,,,1033.0,2026-04-18 08:46:35-07:00
140.06,1.0,10.0,2026-04-18 15:48:49,37.08162,-121.59958,305.0,0.0,61.1,-12.6,,,,,15:48:49,10.8,-0.7,5.7,0.0,173.0,0.1,-0.01,1.0,99.0,-16.0,15.0,0.0,30.08,196.0,,,317.0,,,,,0.0,0.0,,,,,,,-3.0,,,-7.0,,,,,1.0,0.0,0.0,1200.0,75.0,13.0,1030.0,1030.0,13.6,2.8,,2.8,26.2,,,36.0,0.0,0.0,12.2,11.2,9.1,,,,,35.0,540.0,37.0,545.0,35.0,541.0,40.0,559.0,,,-25.0,0.0,,26.2,5.0,0.0,,,0.654,0.845,+75.0,13.1,,,,,,1030.0,2026-04-18 08:46:35-07:00
141.06,1.0,10.0,2026-04-18 15:48:50,37.08161,-121.59958,306.0,0.0,61.1,-12.6,,,,,15:48:50,10.8,-0.7,5.6,0.0,173.0,0.1,-0.01,1.0,99.0,-15.0,15.0,0.0,30.08,196.0,,,317.0,,,,,0.0,0.0,,,,,,,-3.0,,,-7.0,,,,,1.0,0.0,0.0,1200.0,75.0,13.0,1038.0,1038.0,13.6,2.8,,2.8,26.2,,,36.0,0.0,0.0,11.6,11.2,9.1,,,,,36.0,542.0,38.0,547.0,36.0,542.0,41.0,561.0,,,-25.0,0.0,,26.2,5.0,0.0,,,0.654,0.844,+74.9,13.1,,,,,,1038.0,2026-04-18 08:46:35-07:00
142.06,1.0,10.0,2026-04-18 15:48:51,37.08161,-121.59957,306.0,0.0,61.1,-12.6,,,,,15:48:51,10.8,-0.7,5.6,0.0,173.0,0.1,-0.01,0.9,99.0,-22.0,15.0,0.0,30.08,196.0,,,317.0,,,,,0.0,0.0,,,,,,,-3.0,,,-7.0,,,,,1.0,0.0,0.0,1200.0,75.0,13.0,1041.0,1041.0,13.5,2.8,,2.8,26.3,,,36.0,0.0,0.0,11.1,11.2,9.1,,,,,36.0,542.0,38.0,549.0,37.0,543.0,41.0,562.0,,,-25.0,0.0,,26.3,5.0,0.0,,,0.653,0.842,+75.0,13.1,,,,,,1041.0,2026-04-18 08:46:35-07:00
143.06,1.0,10.0,2026-04-18 15:48:52,37.08161,-121.59957,306.0,0.0,61.1,-12.6,,,,,15:48:52,10.8,-0.6,5.6,0.0,173.0,0.1,-0.01,1.0,99.0,-13.0,15.0,0.0,30.08,196.0,,,317.0,,,,,0.0,0.0,,,,,,,-3.0,,,-8.0,,,,,1.0,0.0,0.0,1200.0,75.0,13.0,1037.0,1037.0,13.5,2.7,,2.7,26.2,,,36.0,0.0,0.0,10.6,11.2,9.1,,,,,37.0,544.0,39.0,551.0,37.0,546.0,42.0,563.0,,,-25.0,0.0,,26.2,5.0,0.0,,,0.654,0.842,+74.9,13.1,,,,,,1037.0,2026-04-18 08:46:35-07:00
144.06,1.0,10.0,2026-04-18 15:48:53,37.08161,-121.59957,306.0,0.1,61.1,-12.6,,,,,15:48:53,10.8,-0.7,5.6,0.0,173.0,0.1,-0.01,1.0,99.0,-7.0,15.0,0.0,30.08,198.0,,,317.0,,,,,0.0,0.0,,,,,,,-3.0,,,-7.0,,,,,1.0,0.0,0.0,1200.0,75.0,13.0,1026.0,1026.0,13.5,2.7,,2.7,26.2,,,36.0,0.0,0.0,10.2,11.2,9.1,,,,,37.0,546.0,39.0,552.0,38.0,548.0,43.0,565.0,,,-25.0,0.0,,26.2,5.0,0.0,,,0.654,0.842,+75.0,13.1,,,,,,1026.0,2026-04-18 08:46:35-07:00
145.06,1.0,10.0,2026-04-18 15:48:54,37.08161,-121.59957,306.0,0.0,61.1,-12.6,,,,,15:48:54,10.8,-0.7,5.6,0.0,173.0,0.1,-0.01,1.0,99.0,28.0,15.0,0.0,30.08,198.0,,,317.0,,,,,0.0,0.0,,,,,,,-3.0,,,-8.0,,,,,1.0,0.0,0.0,1200.0,75.0,13.0,1042.0,1042.0,13.6,2.7,,2.7,26.3,,,36.0,0.0,0.0,9.8,11.2,9.1,,,,,38.0,548.0,40.0,553.0,38.0,549.0,43.0,566.0,,,-25.0,0.0,,26.3,5.0,0.0,,,0.653,0.844,+75.0,13.2,,,,,,1042.0,2026-04-18 08:46:35-07:00
146.06,1.0,10.0,2026-04-18 15:48:55,37.08161,-121.59957,306.0,0.0,61.1,-12.6,,,,,15:48:55,10.8,-0.7,5.5,0.0,173.0,0.1,-0.01,1.0,99.0,46.0,15.0,0.0,30.08,198.0,,,317.0,,,,,0.0,0.0,,,,,,,-3.0,,,-8.0,,,,,1.0,0.0,0.0,1200.0,75.0,13.0,1034.0,1034.0,13.5,2.7,,2.7,26.2,,,36.0,0.0,0.0,9.5,11.2,9.1,,,,,38.0,548.0,40.0,556.0,39.0,551.0,44.0,568.0,,,-25.0,0.0,,26.2,5.0,0.0,,,0.653,0.84,+74.9,13.2,,,,,,1034.0,2026-04-18 08:46:35-07:00
147.06,1.0,10.0,2026-04-18 15:48:56,37.08161,-121.59957,306.0,0.0,61.1,-12.6,,,,,15:48:56,10.8,-0.7,5.6,0.0,173.0,0.1,-0.01,1.0,99.0,38.0,15.0,0.0,30.08,198.0,,,317.0,,,,,0.0,0.0,,,,,,,-3.0,,,-8.0,,,,,1.0,0.0,0.0,1200.0,75.0,13.0,1051.0,1051.0,13.5,2.7,,2.7,26.2,,,36.0,0.0,0.0,9.2,11.2,9.1,,,,,39.0,550.0,41.0,557.0,39.0,552.0,44.0,569.0,,,-25.0,0.0,,26.2,5.0,0.0,,,0.654,0.84,+75.0,13.2,,,,,,1051.0,2026-04-18 08:46:35-07:00
148.06,1.0,10.0,2026-04-18 15:48:57,37.08162,-121.59958,306.0,0.1,61.1,-12.6,,,,,15:48:57,10.7,-0.6,5.7,0.0,173.0,0.1,-0.01,1.0,99.0,22.0,15.0,0.0,30.08,198.0,,,317.0,,,,,0.0,0.0,,,,,,,-3.0,,,-8.0,,,,,1.0,0.0,0.0,1200.0,75.0,13.0,1052.0,1052.0,13.4,2.7,,2.7,26.2,,,36.0,0.0,0.0,8.9,11.2,9.1,,,,,39.0,550.0,42.0,559.0,40.0,554.0,45.0,570.0,,,-25.0,0.0,,26.2,5.0,0.0,,,0.654,0.84,+74.9,13.2,,,,,,1052.0,2026-04-18 08:46:35-07:00
149.06,1.0,10.0,2026-04-18 15:48:58,37.08162,-121.59958,306.0,0.1,61.1,-12.6,,,,,15:48:58,10.7,-0.7,5.7,0.0,173.0,0.1,-0.01,1.0,99.0,32.0,15.0,0.0,30.08,198.0,,,317.0,,,,,0.0,0.0,,,,,,,-3.0,,,-8.0,,,,,1.0,0.0,0.0,1200.0,75.0,13.0,1052.0,1052.0,13.3,2.7,,2.7,26.2,,,36.0,0.0,0.0,8.6,11.2,9.1,,,,,40.0,551.0,42.0,561.0,41.0,556.0,46.0,571.0,,,-25.0,0.0,,26.2,5.0,0.0,,,0.653,0.84,+74.9,13.3,,,,,,1052.0,2026-04-18 08:46:35-07:00
150.06,1.0,10.0,2026-04-18 15:48:59,37.08162,-121.59958,306.0,0.1,61.1,-12.6,,,,,15:48:59,10.7,-0.7,5.7,0.0,173.0,0.1,-0.01,0.9,99.0,32.0,15.0,0.0,30.08,206.0,,,317.0,,,,,0.0,0.0,,,,,,,-3.0,,,-8.0,,,,,1.0,0.0,0.0,1200.0,75.0,13.0,1051.0,1051.0,13.3,2.7,,2.7,26.2,,,36.0,0.0,0.0,8.4,11.2,9.1,,,,,41.0,552.0,43.0,563.0,41.0,557.0,46.0,573.0,,,-25.0,0.0,,26.2,5.0,0.0,,,0.654,0.84,+74.9,13.3,,,,,,1051.0,2026-04-18 08:46:35-07:00
