Session Time,GPS Fix Quality,Number of Satellites,GPS Date & Time,Latitude (deg),Longitude (deg),GPS Altitude (feet),Ground Speed (knots),Ground Track (deg),Mag Var (deg),Cross Track Error (NM),Destination Waypoint ID,Range to Destination (NM),Bearing to Destination (deg),System Time,Pitch (deg),Roll (deg),Magnetic Heading (deg),Indicated Airspeed (knots),Pressure Altitude (ft),Turn Rate (deg/s),Lateral Accel (g),Vertical Accel(g),Angle of Attack (%),Vertical Speed (ft/min),OAT (deg C),True Airspeed (knots),Barometer Setting (inHg),Density Altitude (ft),Wind Direction (deg),Wind Speed (knots),Heading Bug (deg),Altitude Bug (ft),Airspeed Bug (knots),Vertical Speed Bug (ft/min),Course (deg),CDI Source Type,CDI Source Port,CDI Scale (NM),CDI Deflection (%),Glideslope (%),AP Engaged,AP Roll Mode,AP Roll Force,AP Roll Position (steps),AP Roll Slip (bool),AP Pitch Force,AP Pitch Position (steps),AP Pitch Slip (bool),AP Yaw Force,AP Yaw Position,AP Yaw Slip (bool),Transponder Status,Transponder Reply (bool),Transponder Identing (bool),Transponder Code (octal),Oil Pressure (PSI),Oil Temp (deg C),RPM L,RPM R,Manifold Pressure (inHg),Fuel Flow 1 (gal/hr),Fuel Flow 2 (gal/hr),Total Fuel Flow (gal/hr),Fuel Pressure (PSI),Fuel Level L (gal),Fuel Level R (gal),Fuel Remaining (gal),Volts 1,Volts 2,Amps,Hobbs Time,Tach Time,Thermocouple 1 (deg C),Thermocouple 2 (deg C),Thermocouple 3 (deg C),Thermocouple 4 (deg C),CHT 4 (deg C),EGT 4 (deg C),CHT 3 (deg C),EGT 3 (deg C),CHT 2 (deg C),EGT 2 (deg C),CHT 1 (deg C),EGT 1 (deg C),Thermocouple 13 (deg C),Thermocouple 14 (deg C),ELEV POSITION (%),CO PPM PRESSURE (PSI),GP Input 3,FUEL PRESSURE (PSI),AILERN POSITION (%),CANOPY CONTACT (V),GP Input 7,GP Input 8,LEFT LEVEL (Sensor V),RIGHT LEVEL (Sensor V),OIL PRESSURE (PSI),OIL TEMPERATURE (deg C),GP Input 13,Contacts,Percent Power,EGT Leaning State,Unnamed: 103,RPM,Flight ID
5.06,0.0,0.0,2026-02-28 18:59:48,37.82929,-121.62609,,0.1,332.8,-17.4,,,,,18:59:48,10.3,-0.5,53.2,0.0,43.0,-0.0,-0.01,1.0,,-44.0,34.0,0.0,29.92,2287.0,,,334.0,,,,,0.0,0.0,,,,,,,,,,,,,,,,,,,0.0,80.0,0.0,0.0,30.3,0.0,,0.0,2.9,,,20.6,0.0,0.0,-0.4,3.5,2.2,,,,,94.0,58.0,95.0,62.0,95.0,64.0,94.0,63.0,,,13.0,254.1,,2.9,16.0,4.995,,,0.929,1.564,0.0,79.8,,,,,,0.0,2026-02-28 10:59:48-08:00
6.06,1.0,8.0,2026-02-28 18:59:49,37.82919,-121.62608,138.0,0.2,332.8,-12.8,,,,,18:59:48,10.3,-0.5,53.2,0.0,42.0,-0.0,-0.01,1.0,,-55.0,34.0,0.0,29.92,2283.0,,,334.0,,,,,0.0,0.0,,,,,,,,,,,,,,,,,,,0.0,80.0,0.0,0.0,30.3,0.0,,0.0,2.9,,,20.6,0.0,0.0,-0.4,3.5,2.2,,,,,94.0,58.0,95.0,62.0,94.0,64.0,94.0,63.0,,,13.0,254.1,,2.9,17.0,4.995,,,0.929,1.562,0.0,79.8,,,,,,0.0,2026-02-28 10:59:48-08:00
7.06,1.0,8.0,2026-02-28 18:59:50,37.82919,-121.62608,109.0,0.0,332.8,-12.8,,,,,18:59:49,10.3,-0.5,53.3,0.0,42.0,0.0,-0.01,1.0,,-37.0,34.0,0.0,29.92,2283.0,,,334.0,,,,,0.0,0.0,,,,,,,,,,,,,,,,,,,0.0,80.0,0.0,0.0,30.3,0.0,,0.0,2.9,,,20.6,0.0,0.0,-0.4,3.5,2.2,,,,,94.0,58.0,95.0,62.0,95.0,64.0,94.0,63.0,,,13.0,254.1,,2.9,17.0,4.995,,,0.929,1.564,0.0,79.8,,,,,,0.0,2026-02-28 10:59:48-08:00
8.06,1.0,8.0,2026-02-28 18:59:51,37.82919,-121.62608,107.0,0.0,332.8,-12.8,,,,,18:59:50,10.3,-0.5,53.3,0.0,41.0,0.0,-0.01,1.0,,-35.0,34.0,0.0,29.92,2282.0,,,334.0,,,,,0.0,0.0,,,,,,,,,,,,,,,,,,,0.0,80.0,0.0,0.0,30.3,0.0,,0.0,2.9,,,20.6,0.0,0.0,-0.4,3.5,2.2,,,,,94.0,58.0,95.0,62.0,94.0,64.0,94.0,63.0,,,13.0,254.1,,2.9,17.0,4.995,,,0.929,1.564,0.0,79.8,,,,,,0.0,2026-02-28 10:59:48-08:00
9.06,1.0,8.0,2026-02-28 18:59:52,37.82919,-121.62608,107.0,0.0,332.8,-12.8,,,,,18:59:51,10.3,-0.5,53.3,0.0,39.0,-0.0,-0.01,1.0,,-62.0,34.0,0.0,29.92,2280.0,,,334.0,,,,,0.0,0.0,,,,,,,,,,,,,,,,,,,0.0,80.0,0.0,0.0,30.3,0.0,,0.0,2.9,,,20.6,0.0,0.0,-0.4,3.5,2.2,,,,,94.0,58.0,95.0,62.0,95.0,64.0,94.0,63.0,,,13.0,254.1,,2.9,17.0,4.995,,,0.929,1.565,0.0,79.8,,,,,,0.0,2026-02-28 10:59:48-08:00
10.06,1.0,8.0,2026-02-28 18:59:53,37.82919,-121.62608,106.0,0.0,332.8,-12.8,,,,,18:59:52,10.4,-0.5,53.3,0.0,39.0,-0.0,-0.01,1.0,,-34.0,34.0,0.0,29.92,2280.0,,,334.0,,,,,0.0,0.0,,,,,,,,,,,,,,,,,,,0.0,80.0,0.0,0.0,30.3,0.0,,0.0,2.9,,,20.6,0.0,0.0,-0.4,3.5,2.2,,,,,94.0,58.0,95.0,62.0,95.0,64.0,94.0,63.0,,,13.0,254.1,,2.9,16.0,4.995,,,0.929,1.565,0.0,79.8,,,,,,0.0,2026-02-28 10:59:48-08:00
11.06,1.0,8.0,2026-02-28 18:59:54,37.82919,-121.62608,105.0,0.0,332.8,-12.8,,,,,18:59:53,10.4,-0.5,53.2,0.0,38.0,-0.0,-0.01,1.0,,-63.0,34.0,0.0,29.92,2278.0,,,334.0,,,,,0.0,0.0,,,,,,,,,,,,,,,,,,,0.0,80.0,0.0,0.0,30.3,0.0,,0.0,2.9,,,20.6,0.0,0.0,-0.4,3.5,2.2,,,,,94.0,58.0,95.0,62.0,95.0,64.0,94.0,63.0,,,13.0,254.0,,2.9,16.0,4.995,,,0.929,1.565,0.0,79.8,,,,,,0.0,2026-02-28 10:59:48-08:00
12.06,1.0,8.0,2026-02-28 18:59:55,37.82919,-121.62608,105.0,0.0,332.8,-12.8,,,,,18:59:54,10.4,-0.5,53.2,0.0,37.0,-0.0,-0.01,1.0,,-48.0,34.0,0.0,29.92,2277.0,,,334.0,,,,,0.0,0.0,,,,,,,,,,,,,,,,,,,0.0,80.0,0.0,0.0,30.3,0.0,,0.0,2.9,,,20.6,0.0,0.0,-0.4,3.5,2.2,,,,,94.0,58.0,95.0,62.0,94.0,64.0,94.0,63.0,,,13.0,254.0,,2.9,14.0,4.995,,,0.929,1.565,0.0,79.8,,,,,,0.0,2026-02-28 10:59:48-08:00
13.06,1.0,8.0,2026-02-28 18:59:56,37.82919,-121.62608,104.0,0.0,332.8,-12.8,,,,,18:59:55,10.4,-0.5,53.2,0.0,37.0,0.0,-0.01,1.0,,-27.0,34.0,0.0,29.92,2277.0,,,334.0,,,,,0.0,0.0,,,,,,,,,,,,,,,,,,,0.0,80.0,0.0,0.0,30.3,0.0,,0.0,2.9,,,20.6,0.0,0.0,-0.4,3.5,2.2,,,,,94.0,58.0,95.0,62.0,94.0,64.0,94.0,63.0,,,13.0,254.0,,2.9,12.0,4.995,,,0.929,1.566,0.0,79.8,,,,,,0.0,2026-02-28 10:59:48-08:00
14.06,1.0,8.0,2026-02-28 18:59:57,37.82919,-121.62608,104.0,0.0,332.8,-12.8,,,,,18:59:56,10.5,-0.5,53.2,0.0,37.0,0.0,-0.01,1.0,,-49.0,34.0,0.0,29.92,2277.0,,,334.0,,,,,0.0,0.0,,,,,,,,,,,,,,,,,,,0.0,80.0,0.0,0.0,30.3,0.0,,0.0,2.9,,,20.6,0.0,0.0,-0.4,3.5,2.2,,,,,94.0,58.0,95.0,62.0,94.0,64.0,94.0,63.0,,,13.0,254.0,,2.9,6.0,4.995,,,0.929,1.566,0.0,79.8,,,,,,0.0,2026-02-28 10:59:48-08:00
15.06,1.0,8.0,2026-02-28 18:59:58,37.82919,-121.62608,104.0,0.0,332.8,-12.8,,,,,18:59:57,10.4,-0.5,53.1,0.0,36.0,0.0,-0.0,1.0,,-19.0,34.0,0.0,29.92,2276.0,,,334.0,,,,,0.0,0.0,,,,,,,,,,,,,,,,,,,0.0,80.0,0.0,0.0,30.3,0.0,,0.0,2.9,,,20.6,0.0,0.0,-0.4,3.5,2.2,,,,,94.0,58.0,95.0,62.0,95.0,64.0,94.0,63.0,,,13.0,254.0,,2.9,6.0,4.995,,,0.929,1.566,0.0,79.8,,,,,,0.0,2026-02-28 10:59:48-08:00
16.06,1.0,8.0,2026-02-28 18:59:59,37.82919,-121.62608,104.0,0.0,332.8,-12.8,,,,,18:59:58,10.4,-0.5,53.1,0.0,36.0,0.0,-0.01,1.0,,-27.0,34.0,0.0,29.92,2276.0,,,334.0,,,,,0.0,0.0,,,,,,,,,,,,,,,,,,,0.0,80.0,0.0,0.0,30.3,0.1,,0.1,2.9,,,20.6,0.0,0.0,-0.4,3.5,2.2,,,,,94.0,58.0,95.0,62.0,95.0,64.0,94.0,63.0,,,13.0,254.0,,2.9,7.0,4.995,,,0.929,1.567,0.0,79.8,,,,,,0.0,2026-02-28 10:59:48-08:00
17.06,1.0,8.0,2026-02-28 19:00:00,37.82919,-121.62608,104.0,0.1,332.8,-12.8,,,,,18:59:59,10.5,-0.5,53.1,0.0,35.0,-0.0,-0.01,1.0,,-33.0,34.0,0.0,29.92,2275.0,,,334.0,,,,,0.0,0.0,,,,,,,,,,,,,,,,,,,0.0,80.0,0.0,0.0,30.3,0.1,,0.1,2.9,,,20.6,0.0,0.0,-0.4,3.5,2.2,,,,,94.0,58.0,94.0,62.0,94.0,64.0,94.0,63.0,,,13.0,254.0,,2.9,7.0,4.995,,,0.929,1.567,0.0,79.8,,,,,,0.0,2026-02-28 10:59:48-08:00
18.06,1.0,8.0,2026-02-28 19:00:01,37.82919,-121.62608,103.0,0.1,332.8,-12.8,,,,,19:00:00,10.4,-0.5,53.1,0.0,35.0,-0.0,-0.01,1.0,,-9.0,34.0,0.0,29.92,2275.0,,,334.0,,,,,0.0,0.0,,,,,,,,,,,,,,,,,,,0.0,80.0,0.0,0.0,30.3,0.1,,0.1,2.9,,,20.6,0.0,0.0,-0.4,3.5,2.2,,,,,94.0,58.0,95.0,62.0,94.0,64.0,94.0,63.0,,,13.0,254.0,,2.9,6.0,4.995,,,0.929,1.567,0.0,79.8,,,,,,0.0,2026-02-28 10:59:48-08:00
19.06,1.0,8.0,2026-02-28 19:00:02,37.82919,-121.62608,103.0,0.1,332.8,-12.8,,,,,19:00:01,10.4,-0.4,53.1,0.0,35.0,0.0,-0.01,1.0,,-9.0,34.0,0.0,29.92,2275.0,,,334.0,,,,,0.0,0.0,,,,,,,,,,,,,,,,,,,0.0,80.0,0.0,0.0,30.3,0.1,,0.1,2.9,,,20.6,0.0,0.0,-0.4,3.5,2.2,,,,,94.0,58.0,94.0,62.0,94.0,64.0,94.0,63.0,,,13.0,254.0,,2.9,8.0,4.995,,,0.929,1.57,0.0,79.8,,,,,,0.0,2026-02-28 10:59:48-08:00
20.06,1.0,8.0,2026-02-28 19:00:03,37.82919,-121.62608,103.0,0.0,332.8,-12.8,,,,,19:00:02,10.4,-0.5,53.1,0.0,34.0,-0.0,-0.01,1.0,,-44.0,34.0,0.0,29.92,2263.0,,,334.0,,,,,0.0,0.0,,,,,,,,,,,,,,,,,,,0.0,80.0,0.0,0.0,30.3,0.1,,0.1,2.9,,,20.6,0.0,0.0,-0.4,3.5,2.2,,,,,94.0,58.0,94.0,62.0,94.0,64.0,94.0,63.0,,,13.0,254.0,,2.9,8.0,4.995,,,0.929,1.571,0.0,79.8,,,,,,0.0,2026-02-28 10:59:48-08:00
21.06,1.0,8.0,2026-02-28 19:00:04,37.82919,-121.62608,103.0,0.1,332.8,-12.8,,,,,19:00:03,10.4,-0.5,53.1,0.0,34.0,-0.0,-0.01,1.0,,-30.0,34.0,0.0,29.92,2261.0,,,334.0,,,,,0.0,0.0,,,,,,,,,,,,,,,,,,,0.0,80.0,0.0,0.0,30.3,0.1,,0.1,2.9,,,20.6,0.0,0.0,-0.4,3.5,2.2,,,,,94.0,58.0,94.0,62.0,94.0,64.0,94.0,63.0,,,13.0,254.0,,2.9,8.0,4.995,,,0.929,1.576,0.0,79.7,,,,,,0.0,2026-02-28 10:59:48-08:00
22.06,1.0,8.0,2026-02-28 19:00:05,37.82919,-121.62608,103.0,0.0,332.8,-12.8,,,,,19:00:04,10.4,-0.5,53.1,0.0,33.0,-0.0,-0.01,1.0,,-56.0,34.0,0.0,29.92,2260.0,,,334.0,,,,,0.0,0.0,,,,,,,,,,,,,,,,,,,0.0,80.0,0.0,0.0,30.3,0.1,,0.1,2.9,,,20.6,0.0,0.0,-0.4,3.5,2.2,,,,,94.0,58.0,94.0,62.0,94.0,64.0,94.0,63.0,,,13.0,254.0,,2.9,9.0,4.995,,,0.929,1.586,0.0,79.7,,,,,,0.0,2026-02-28 10:59:48-08:00
23.06,1.0,8.0,2026-02-28 19:00:06,37.82919,-121.62608,102.0,0.1,332.8,-12.8,,,,,19:00:05,10.4,-0.5,53.1,0.0,32.0,0.0,-0.01,1.0,,-32.0,34.0,0.0,29.92,2259.0,,,334.0,,,,,0.0,0.0,,,,,,,,,,,,,,,,,,,0.0,80.0,0.0,0.0,30.3,0.1,,0.1,2.9,,,20.6,0.0,0.0,-0.4,3.5,2.2,,,,,94.0,58.0,94.0,62.0,94.0,64.0,94.0,63.0,,,13.0,254.0,,2.9,10.0,4.995,,,0.929,1.626,0.0,79.7,,,,,,0.0,2026-02-28 10:59:48-08:00
24.06,1.0,8.0,2026-02-28 19:00:07,37.82919,-121.62608,102.0,0.0,332.8,-12.8,,,,,19:00:06,10.4,-0.5,53.0,0.0,32.0,-0.0,-0.01,1.0,,-23.0,34.0,0.0,29.92,2259.0,,,334.0,,,,,0.0,0.0,,,,,,,,,,,,,,,,,,,0.0,80.0,0.0,0.0,30.3,0.1,,0.1,2.9,,,20.6,0.0,0.0,-0.4,3.5,2.2,,,,,94.0,58.0,94.0,62.0,94.0,64.0,94.0,63.0,,,13.0,254.0,,2.9,10.0,4.995,,,0.929,1.636,0.0,79.7,,,,,,0.0,2026-02-28 10:59:48-08:00
25.06,1.0,8.0,2026-02-28 19:00:08,37.82919,-121.62608,102.0,0.0,332.8,-12.8,,,,,19:00:07,10.5,-0.6,53.0,0.0,32.0,0.0,-0.01,1.0,,-31.0,34.0,0.0,29.92,2259.0,,,334.0,,,,,0.0,0.0,,,,,,,,,,,,,,,,,,,0.0,70.0,0.0,0.0,30.3,0.1,,0.1,2.8,,,20.6,0.0,0.0,-0.4,3.5,2.2,,,,,91.0,54.0,91.0,57.0,91.0,59.0,90.0,59.0,,,13.0,254.0,,2.8,10.0,4.995,,,0.935,1.578,0.0,70.0,,,,,,0.0,2026-02-28 10:59:48-08:00
26.06,1.0,8.0,2026-02-28 19:00:09,37.82918,-121.62608,102.0,0.0,332.8,-12.8,,,,,19:00:08,10.5,-0.5,52.9,0.0,31.0,-0.0,-0.01,1.0,,-11.0,34.0,0.0,29.92,2251.0,,,334.0,,,,,0.0,0.0,,,,,,,,,,,,,,,,,,,0.0,75.0,196.0,196.0,29.6,0.1,,0.1,4.8,,,20.6,0.0,0.0,-0.5,3.5,2.2,,,,,93.0,57.0,93.0,60.0,93.0,62.0,92.0,62.0,,,14.0,254.0,,4.8,8.0,4.995,,,0.929,1.603,0.1,75.3,,,,,,196.0,2026-02-28 10:59:48-08:00
27.06,1.0,8.0,2026-02-28 19:00:10,37.82918,-121.62608,102.0,0.0,332.8,-12.8,,,,,19:00:09,10.5,-0.5,53.0,0.0,31.0,-0.0,-0.01,1.0,,-5.0,34.0,0.0,29.92,2251.0,,,334.0,,,,,0.0,0.0,,,,,,,,,,,,,,,,,,,7.0,75.0,207.0,207.0,29.3,0.5,,0.5,4.1,,,20.6,0.0,0.0,-0.5,3.5,2.2,,,,,93.0,58.0,93.0,60.0,93.0,63.0,92.0,62.0,,,14.0,254.0,,4.1,8.0,4.995,,,0.931,1.573,7.3,75.3,,,,,,207.0,2026-02-28 10:59:48-08:00
28.06,1.0,8.0,2026-02-28 19:00:11,37.82918,-121.62608,103.0,0.0,332.8,-12.8,,,,,19:00:10,10.5,-0.5,53.0,0.0,31.0,-0.0,-0.0,1.0,,-44.0,34.0,0.0,29.92,2251.0,,,334.0,,,,,0.0,0.0,,,,,,,,,,,,,,,,,,,28.0,75.0,253.0,253.0,29.2,0.7,,0.7,4.3,,,20.6,0.0,0.0,-0.6,3.5,2.2,,,,,93.0,58.0,93.0,61.0,93.0,63.0,92.0,63.0,,,14.0,254.0,,4.3,8.0,4.995,,,0.929,1.569,28.3,75.4,,,,,,253.0,2026-02-28 10:59:48-08:00
29.06,1.0,8.0,2026-02-28 19:00:12,37.82918,-121.62608,103.0,0.0,332.8,-12.8,,,,,19:00:11,10.5,-0.5,53.0,0.0,30.0,-0.0,-0.01,1.0,,-38.0,34.0,0.0,29.92,2248.0,,,334.0,,,,,0.0,0.0,,,,,,,,,,,,,,,,,,,39.0,80.0,343.0,343.0,27.7,1.2,,1.2,4.1,,,20.6,0.0,0.0,-0.5,3.5,2.2,,,,,94.0,61.0,94.0,74.0,94.0,84.0,94.0,82.0,,,14.0,254.0,,4.1,-3.0,4.995,,,0.981,1.578,39.0,79.8,,,,,,343.0,2026-02-28 10:59:48-08:00
30.06,1.0,8.0,2026-02-28 19:00:13,37.82918,-121.62608,103.0,0.0,332.8,-12.8,,,,,19:00:12,10.5,-0.6,53.0,0.0,30.0,-0.0,-0.0,1.0,,-41.0,34.0,0.0,29.92,2248.0,,,334.0,,,,,0.0,0.0,,,,,,,,,,,,,,,,,,,39.0,80.0,413.0,413.0,27.8,1.5,,1.5,4.4,,,20.6,0.0,0.0,-0.4,3.5,2.2,,,,,94.0,62.0,94.0,74.0,94.0,101.0,94.0,94.0,,,14.0,254.0,,4.4,-2.0,4.995,,,0.955,1.567,39.2,79.7,,,9.0,L,,413.0,2026-02-28 10:59:48-08:00
31.06,1.0,8.0,2026-02-28 19:00:14,37.82918,-121.62608,103.0,0.0,332.8,-12.8,,,,,19:00:13,10.5,-0.5,53.0,0.0,29.0,-0.0,-0.01,1.0,,-47.0,34.0,0.0,29.92,2248.0,,,334.0,,,,,0.0,0.0,,,,,,,,,,,,,,,,,,,43.0,80.0,567.0,567.0,24.2,1.7,,1.7,5.3,,,20.6,0.0,0.0,-0.4,3.5,2.2,,,,,94.0,63.0,94.0,74.0,94.0,133.0,94.0,119.0,,,13.0,254.0,,5.3,-1.0,4.995,,,0.934,1.565,43.0,79.7,,,11.0,P,,567.0,2026-02-28 10:59:48-08:00
32.06,1.0,8.0,2026-02-28 19:00:15,37.82918,-121.62608,103.0,0.1,332.8,-12.8,,,,,19:00:14,10.4,-0.6,53.1,0.0,28.0,-0.0,-0.01,0.8,,-45.0,34.0,0.0,29.92,2246.0,,,334.0,,,,,0.0,0.0,,,,,,,,,,,,,,,,,,,40.0,80.0,359.0,359.0,26.9,2.1,,2.1,8.3,,,20.6,0.0,0.0,-0.4,3.5,2.2,,,,,94.0,64.0,94.0,74.0,95.0,133.0,94.0,116.0,,,13.0,254.0,,8.3,-1.0,4.995,,,0.929,1.564,40.1,79.6,,,13.0,L,,359.0,2026-02-28 10:59:48-08:00
33.06,1.0,8.0,2026-02-28 19:00:16,37.82918,-121.62608,103.0,0.0,332.8,-12.8,,,,,19:00:15,10.4,-0.5,53.1,0.0,27.0,0.0,-0.01,1.0,,-28.0,34.0,0.0,29.92,2246.0,,,334.0,,,,,0.0,0.0,,,,,,,,,,,,,,,,,,,52.0,80.0,835.0,835.0,22.9,2.4,,2.4,19.4,,,20.6,0.0,0.0,-0.4,3.5,2.2,,,,,94.0,76.0,94.0,74.0,95.0,162.0,94.0,141.0,,,14.0,254.0,,19.4,25.0,4.995,,,0.935,1.564,51.6,79.6,,,16.0,R,,835.0,2026-02-28 10:59:48-08:00
34.06,1.0,8.0,2026-02-28 19:00:17,37.82918,-121.62607,103.0,0.1,332.8,-12.8,,,,,19:00:16,10.4,-0.6,53.0,0.0,27.0,-0.0,-0.01,0.9,,8.0,34.0,0.0,29.92,2246.0,,,334.0,,,,,0.0,0.0,,,,,,,,,,,,,,,,,,,52.0,80.0,860.0,860.0,19.7,2.6,,2.6,22.6,,,20.6,0.0,0.0,-0.4,3.5,2.2,,,,,94.0,90.0,95.0,81.0,95.0,201.0,94.0,174.0,,,14.0,254.0,,22.6,25.0,4.995,,,0.935,1.564,52.3,79.5,,,,,,860.0,2026-02-28 10:59:48-08:00
35.06,1.0,8.0,2026-02-28 19:00:18,37.82918,-121.62607,102.0,0.0,332.8,-12.8,,,,,19:00:17,10.4,-0.5,53.1,0.0,27.0,-0.0,-0.01,1.0,,-8.0,34.0,0.0,29.92,2244.0,,,334.0,,,,,0.0,0.0,,,,,,,,,,,,,,,,,,,57.0,79.0,1050.0,1050.0,15.8,2.5,,2.5,23.3,,,20.6,0.0,0.0,-0.4,3.5,2.2,,,,,94.0,124.0,95.0,102.0,95.0,241.0,95.0,215.0,,,14.0,254.0,,23.3,25.0,4.995,,,1.036,1.564,57.1,79.5,,,,,,1050.0,2026-02-28 10:59:48-08:00
36.06,1.0,8.0,2026-02-28 19:00:19,37.82918,-121.62607,102.0,0.0,332.8,-12.8,,,,,19:00:18,10.4,-0.6,53.1,0.0,26.0,-0.0,-0.01,1.0,,-29.0,34.0,0.0,29.92,2244.0,,,334.0,,,,,0.0,0.0,,,,,,,,,,,,,,,,,,,57.0,79.0,1031.0,1031.0,14.4,2.5,,2.5,23.2,,,20.6,0.0,0.0,-0.4,3.5,2.2,,,,,94.0,160.0,95.0,144.0,95.0,276.0,95.0,253.0,,,14.0,254.0,,23.2,25.0,4.995,,,0.985,1.566,56.6,79.4,,,,,,1031.0,2026-02-28 10:59:48-08:00
37.06,1.0,8.0,2026-02-28 19:00:20,37.82918,-121.62607,102.0,0.0,332.8,-12.8,,,,,19:00:19,10.4,-0.5,53.1,0.0,26.0,-0.0,-0.01,0.9,,-22.0,34.0,0.0,29.92,2244.0,,,334.0,,,,,0.0,0.0,,,,,,,,,,,,,,,,,,,58.0,79.0,1058.0,1058.0,14.4,2.5,,2.5,22.9,,,20.6,0.0,0.0,-0.4,3.5,2.2,,,,,94.0,186.0,95.0,177.0,96.0,308.0,95.0,275.0,,,14.0,254.0,,22.9,25.0,4.995,,,0.969,1.566,57.5,79.4,,,,,,1058.0,2026-02-28 10:59:48-08:00
38.06,1.0,8.0,2026-02-28 19:00:21,37.82918,-121.62607,102.0,0.0,332.8,-12.8,,,,,19:00:20,10.4,-0.5,53.0,0.0,25.0,-0.0,-0.0,1.0,,-1.0,34.0,0.0,29.92,2241.0,,,334.0,,,,,0.0,0.0,,,,,,,,,,,,,,,,,,,56.0,79.0,938.0,938.0,14.6,2.5,,2.5,23.0,,,20.6,0.0,0.0,-0.4,3.5,2.2,,,,,94.0,205.0,95.0,197.0,96.0,326.0,96.0,303.0,,,14.0,254.0,,23.0,25.0,4.995,,,0.929,1.566,55.6,79.3,,,,,,938.0,2026-02-28 10:59:48-08:00
39.06,1.0,8.0,2026-02-28 19:00:22,37.82918,-121.62607,102.0,0.0,332.8,-12.8,,,,,19:00:21,10.4,-0.6,53.0,0.0,25.0,-0.0,-0.0,1.0,,-52.0,34.0,0.0,29.92,2241.0,,,334.0,,,,,0.0,0.0,,,,,,,,,,,,,,,,,,,58.0,79.0,1067.0,1067.0,14.6,2.5,,2.5,23.2,,,20.6,0.0,0.0,-0.4,3.5,2.3,,,,,95.0,233.0,96.0,224.0,96.0,337.0,96.0,330.0,,,14.0,254.0,,23.2,25.0,4.995,,,0.942,1.567,57.7,79.3,,,,,,1067.0,2026-02-28 10:59:48-08:00
40.06,1.0,8.0,2026-02-28 19:00:23,37.82918,-121.62607,102.0,0.0,332.8,-12.8,,,,,19:00:22,10.4,-0.5,53.1,0.0,23.0,0.0,-0.01,1.0,,-64.0,34.0,0.0,29.92,2241.0,,,334.0,,,,,0.0,0.0,,,,,,,,,,,,,,,,,,,56.0,79.0,1014.0,1014.0,15.3,2.5,,2.5,23.3,,,20.6,0.0,0.0,-0.4,3.5,2.3,,,,,95.0,251.0,96.0,242.0,96.0,349.0,96.0,342.0,,,14.0,220.9,,23.3,25.0,4.995,,,0.928,1.567,55.9,79.3,,,,,,1014.0,2026-02-28 10:59:48-08:00
41.06,1.0,8.0,2026-02-28 19:00:24,37.82918,-121.62607,101.0,0.0,332.8,-12.8,,,,,19:00:23,10.4,-0.5,53.1,0.0,22.0,-0.0,-0.01,1.0,,-72.0,34.0,0.0,29.92,2239.0,,,334.0,,,,,0.0,0.0,,,,,,,,,,,,,,,,,,,58.0,79.0,1073.0,1073.0,14.6,2.6,,2.6,23.6,,,20.6,0.0,0.0,-0.4,3.5,2.3,,,,,95.0,270.0,96.0,257.0,97.0,365.0,97.0,367.0,,,14.0,171.9,,23.6,25.0,4.995,,,0.927,1.566,57.7,79.3,,,,,,1073.0,2026-02-28 10:59:48-08:00
42.06,1.0,8.0,2026-02-28 19:00:25,37.82918,-121.62607,101.0,0.0,332.8,-12.8,,,,,19:00:24,10.4,-0.6,53.1,0.0,21.0,-0.0,-0.01,1.0,,-75.0,34.0,0.0,29.92,2235.0,,,334.0,,,,,0.0,0.0,,,,,,,,,,,,,,,,,,,59.0,79.0,1070.0,1070.0,13.9,2.5,,2.5,23.7,,,20.6,0.0,0.0,-0.4,3.5,2.3,,,,,95.0,294.0,97.0,275.0,97.0,382.0,97.0,385.0,,,14.0,133.9,,23.7,25.0,4.995,,,0.934,1.565,58.7,79.3,,,,,,1070.0,2026-02-28 10:59:48-08:00
43.06,1.0,8.0,2026-02-28 19:00:26,37.82918,-121.62607,101.0,0.0,332.8,-12.8,,,,,19:00:25,10.4,-0.4,53.0,0.0,21.0,-0.0,-0.0,1.0,,-36.0,34.0,0.0,29.92,2234.0,,,334.0,,,,,0.0,0.0,,,,,,,,,,,,,,,,,,,58.0,79.0,1084.0,1084.0,13.9,2.5,,2.5,23.9,,,20.6,0.0,0.0,-0.4,3.5,2.3,,,,,96.0,308.0,97.0,302.0,97.0,388.0,97.0,406.0,,,14.0,104.3,,23.9,25.0,4.995,,,1.002,1.566,58.2,79.3,,,,,,1084.0,2026-02-28 10:59:48-08:00
44.06,1.0,8.0,2026-02-28 19:00:27,37.82918,-121.62607,101.0,0.1,332.8,-12.8,,,,,19:00:26,10.4,-0.5,53.0,0.0,20.0,-0.0,-0.01,1.1,,-53.0,34.0,0.0,29.92,2226.0,,,334.0,,,,,0.0,0.0,,,,,,,,,,,,,,,,,,,57.0,79.0,1043.0,1043.0,13.7,2.5,,2.5,32.3,,,20.5,0.0,0.0,-0.4,3.5,2.3,,,,,96.0,324.0,97.0,316.0,97.0,400.0,98.0,416.0,,,14.0,81.3,,32.3,25.0,4.995,,,1.008,1.565,57.2,79.3,,,,,,1043.0,2026-02-28 10:59:48-08:00
45.06,1.0,8.0,2026-02-28 19:00:28,37.82918,-121.62607,101.0,0.0,332.8,-12.8,,,,,19:00:27,10.5,-0.5,53.0,0.0,17.0,0.0,-0.01,0.9,,-69.0,34.0,0.0,29.92,2226.0,,,334.0,,,,,0.0,0.0,,,,,,,,,,,,,,,,,,,59.0,79.0,1085.0,1085.0,14.0,2.5,,2.5,34.4,,,20.5,0.0,0.0,-0.3,3.5,2.3,,,,,96.0,332.0,97.0,341.0,98.0,409.0,98.0,428.0,,,14.0,63.4,,34.4,25.0,4.995,,,1.097,1.566,58.6,79.3,,,,,,1085.0,2026-02-28 10:59:48-08:00
46.06,1.0,8.0,2026-02-28 19:00:29,37.82918,-121.62607,101.0,0.0,332.8,-12.8,,,,,19:00:28,10.5,-0.5,53.1,0.0,17.0,0.0,-0.0,1.0,,-44.0,34.0,0.0,29.92,2226.0,,,334.0,,,,,0.0,0.0,,,,,,,,,,,,,,,,,,,57.0,79.0,1048.0,1048.0,13.9,2.5,,2.5,34.3,,,20.5,0.0,0.0,-0.3,3.5,2.3,,,,,96.0,351.0,98.0,348.0,98.0,427.0,98.0,437.0,,,14.0,49.5,,34.3,25.0,4.995,,,1.027,1.566,56.5,79.3,,,,,,1048.0,2026-02-28 10:59:48-08:00
47.06,1.0,8.0,2026-02-28 19:00:30,37.82918,-121.62607,101.0,0.0,332.8,-12.8,,,,,19:00:29,10.4,-0.4,53.1,0.0,16.0,0.0,-0.01,1.0,,-50.0,34.0,0.0,29.92,2220.0,,,334.0,,,,,0.0,0.0,,,,,,,,,,,,,,,,,,,59.0,79.0,1104.0,1104.0,13.5,2.5,,2.5,34.5,,,20.5,0.0,0.0,-0.3,3.5,2.3,,,,,97.0,373.0,98.0,369.0,98.0,439.0,99.0,453.0,,,14.0,38.7,,34.5,25.0,4.995,,,0.985,1.567,58.6,79.2,,,,,,1104.0,2026-02-28 10:59:48-08:00
48.06,1.0,8.0,2026-02-28 19:00:31,37.82918,-121.62607,100.0,0.1,332.8,-12.8,,,,,19:00:30,10.4,-0.5,53.1,0.0,16.0,-0.0,-0.01,1.0,,-32.0,34.0,0.0,29.92,2220.0,,,334.0,,,,,0.0,0.0,,,,,,,,,,,,,,,,,,,58.0,79.0,1113.0,1113.0,13.6,2.5,,2.5,34.4,,,20.5,0.0,0.0,-0.3,3.5,2.3,,,,,97.0,380.0,98.0,383.0,99.0,445.0,99.0,463.0,,,14.0,30.3,,34.4,25.0,4.995,,,0.928,1.565,58.4,79.2,,,,,,1113.0,2026-02-28 10:59:48-08:00
49.06,1.0,8.0,2026-02-28 19:00:32,37.82918,-121.62607,100.0,0.0,332.8,-12.8,,,,,19:00:31,10.4,-0.4,53.1,0.0,16.0,-0.0,-0.01,1.0,,-7.0,33.0,0.0,29.92,2218.0,,,334.0,,,,,0.0,0.0,,,,,,,0.0,,,0.0,,,,,,,,,58.0,79.0,1083.0,1083.0,13.4,2.5,,2.5,33.9,,,20.5,0.0,0.0,-0.3,3.5,2.3,,,,,97.0,390.0,99.0,400.0,99.0,458.0,99.0,475.0,,,14.0,23.8,,33.9,25.0,4.995,,,0.924,1.565,58.4,79.2,,,,,,1083.0,2026-02-28 10:59:48-08:00
50.06,1.0,8.0,2026-02-28 19:00:33,37.82918,-121.62607,100.0,0.0,332.8,-12.8,,,,,19:00:32,10.4,-0.5,53.1,0.0,16.0,-0.0,-0.0,1.0,,-15.0,33.0,0.0,29.92,2218.0,,,334.0,,,,,0.0,0.0,,,,,,,0.0,,,0.0,,,,,,,,,61.0,79.0,1210.0,1210.0,14.0,2.5,,2.5,33.7,,,20.5,0.0,0.0,-0.2,3.5,2.3,,,,,97.0,409.0,99.0,419.0,99.0,460.0,99.0,487.0,,,13.0,18.7,,33.7,25.0,4.995,,,0.968,1.565,61.4,79.2,,,,,,1210.0,2026-02-28 10:59:48-08:00
51.06,1.0,8.0,2026-02-28 19:00:34,37.82918,-121.62607,100.0,0.1,332.8,-12.8,,,,,19:00:33,10.4,-0.5,53.1,0.0,16.0,-0.0,-0.01,1.0,,-18.0,33.0,0.0,29.92,2218.0,,,334.0,,,,,0.0,0.0,,,,,,,1.0,,,-1.0,,,,,,,,,61.0,79.0,1183.0,1183.0,13.9,2.5,,2.5,33.7,,,20.5,0.0,0.0,-0.2,3.5,2.3,,,,,98.0,433.0,99.0,433.0,99.0,472.0,100.0,495.0,,,13.0,14.7,,33.7,25.0,4.995,,,0.934,1.565,60.9,79.2,,,,,,1183.0,2026-02-28 10:59:48-08:00
52.06,1.0,8.0,2026-02-28 19:00:35,37.82918,-121.62607,100.0,0.1,332.8,-12.8,,,,,19:00:34,10.4,-0.4,53.1,0.0,15.0,0.0,-0.01,0.9,,-35.0,33.0,0.0,29.92,2216.0,,,334.0,,,,,0.0,0.0,,,,,,,1.0,,,-2.0,,,,,,,,,63.0,79.0,1258.0,1258.0,13.8,2.6,,2.6,33.7,,,20.5,0.0,0.0,-0.2,3.5,2.3,,,,,98.0,454.0,99.0,440.0,100.0,482.0,100.0,509.0,,,13.0,11.7,,33.7,25.0,4.995,,,0.928,1.564,63.3,79.2,,,,,,1258.0,2026-02-28 10:59:48-08:00
53.06,1.0,8.0,2026-02-28 19:00:36,37.82918,-121.62607,100.0,0.1,332.8,-12.8,,,,,19:00:35,10.4,-0.4,53.1,0.0,14.0,-0.0,-0.0,1.0,,-52.0,33.0,0.0,29.92,2215.0,,,334.0,,,,,0.0,0.0,,,,,,,1.0,,,-3.0,,,,,3.0,0.0,0.0,1200.0,62.0,79.0,1179.0,1179.0,13.7,2.6,,2.6,33.7,,,20.5,0.0,0.0,-0.2,3.5,2.3,,,,,98.0,463.0,100.0,459.0,100.0,492.0,100.0,511.0,,,13.0,9.3,,33.7,25.0,4.995,,,0.929,1.564,61.5,79.1,,,,,,1179.0,2026-02-28 10:59:48-08:00
54.06,1.0,8.0,2026-02-28 19:00:37,37.82918,-121.62607,100.0,0.0,332.8,-12.8,,,,,19:00:36,10.4,-0.5,53.1,0.0,13.0,-0.0,-0.01,1.0,,-45.0,33.0,0.0,29.92,2214.0,,,334.0,,,,,0.0,0.0,,,,,,,1.0,,,-3.0,,,,,1.0,0.0,0.0,1200.0,62.0,79.0,1223.0,1223.0,13.8,2.6,,2.6,33.7,,,20.5,0.0,0.0,-0.2,3.5,2.3,,,,,99.0,467.0,100.0,471.0,100.0,503.0,101.0,522.0,,,13.0,7.4,,33.7,25.0,4.995,,,0.94,1.564,62.3,79.1,,,,,,1223.0,2026-02-28 10:59:48-08:00
55.06,1.0,8.0,2026-02-28 19:00:38,37.82918,-121.62607,100.0,0.0,332.8,-12.8,,,,,19:00:37,10.4,-0.5,53.1,0.0,13.0,0.0,-0.01,1.0,,-20.0,33.0,0.0,29.92,2202.0,,,334.0,,,,,0.0,0.0,,,,,,,1.0,,,-3.0,,,,,1.0,0.0,0.0,1200.0,64.0,79.0,1256.0,1256.0,13.5,2.6,,2.6,33.7,,,20.5,0.0,0.0,-0.2,3.5,2.3,,,,,99.0,479.0,101.0,481.0,101.0,517.0,101.0,536.0,,,13.0,6.0,,33.7,25.0,4.995,,,0.929,1.565,63.7,79.1,,,,,,1256.0,2026-02-28 10:59:48-08:00
56.06,1.0,8.0,2026-02-28 19:00:39,37.82918,-121.62607,100.0,0.0,332.8,-12.8,,,,,19:00:38,10.4,-0.4,53.1,0.0,13.0,0.0,-0.01,0.9,,-18.0,33.0,0.0,29.92,2202.0,,,334.0,,,,,0.0,0.0,,,,,,,1.0,,,-3.0,,,,,,,,,62.0,79.0,1221.0,1221.0,13.4,2.6,,2.6,33.4,,,20.5,0.0,0.0,-0.2,3.5,2.3,,,,,99.0,488.0,101.0,495.0,101.0,525.0,101.0,546.0,,,13.0,4.9,,33.4,25.0,4.995,,,0.927,1.564,61.9,79.1,,,,,,1221.0,2026-02-28 10:59:48-08:00
57.06,1.0,8.0,2026-02-28 19:00:40,37.82918,-121.62607,100.0,0.1,332.8,-12.8,,,,,19:00:39,10.5,-0.4,53.1,0.0,13.0,0.0,-0.01,1.0,,8.0,33.0,0.0,29.92,2202.0,,,334.0,,,,,0.0,0.0,,,,,,,1.0,,,-3.0,,,,,,,,,63.0,79.0,1225.0,1225.0,13.5,2.5,,2.5,29.1,,,20.5,0.0,0.0,-0.3,3.5,2.3,,,,,99.0,499.0,101.0,502.0,102.0,533.0,102.0,555.0,,,13.0,4.0,,29.1,25.0,4.995,,,0.928,1.564,62.8,79.0,,,,,,1225.0,2026-02-28 10:59:48-08:00
58.06,1.0,8.0,2026-02-28 19:00:41,37.82918,-121.62607,100.0,0.0,332.8,-12.8,,,,,19:00:40,10.5,-0.4,53.1,0.0,13.0,-0.0,-0.0,1.0,,18.0,33.0,0.0,29.92,2193.0,,,334.0,,,,,0.0,0.0,,,,,,,1.0,,,-3.0,,,,,,,,,64.0,79.0,1267.0,1267.0,13.3,2.5,,2.5,26.5,,,20.5,0.0,0.0,-0.3,3.5,2.3,,,,,100.0,512.0,102.0,506.0,102.0,536.0,102.0,565.0,,,13.0,3.4,,26.5,25.0,4.995,,,0.934,1.564,63.8,79.0,,,,,,1267.0,2026-02-28 10:59:48-08:00
59.06,1.0,8.0,2026-02-28 19:00:42,37.82917,-121.62607,100.0,0.1,332.8,-12.8,,,,,19:00:41,10.5,-0.4,53.1,0.0,13.0,-0.0,-0.01,0.9,,-16.0,33.0,0.0,29.92,2191.0,,,334.0,,,,,0.0,0.0,,,,,,,2.0,,,-3.0,,,,,,,,,62.0,79.0,1153.0,1153.0,12.3,2.5,,2.5,24.5,,,20.5,0.0,0.0,-0.3,3.5,2.3,,,,,100.0,522.0,102.0,520.0,102.0,547.0,102.0,572.0,,,13.0,2.8,,24.5,25.0,4.995,,,0.945,1.564,61.5,79.0,,,,,,1153.0,2026-02-28 10:59:48-08:00
60.06,1.0,8.0,2026-02-28 19:00:43,37.82917,-121.62607,100.0,0.0,332.8,-12.8,,,,,19:00:42,10.5,-0.4,53.1,0.0,12.0,-0.0,-0.0,1.0,,-29.0,33.0,0.0,29.92,2190.0,,,334.0,,,,,0.0,0.0,,,,,,,2.0,,,-3.0,,,,,,,,,56.0,79.0,1004.0,1004.0,12.2,2.3,,2.3,24.4,,,20.5,0.0,0.0,-0.3,3.5,2.3,,,,,100.0,516.0,102.0,518.0,103.0,547.0,103.0,570.0,,,13.0,2.4,,24.4,25.0,4.995,,,0.929,1.562,56.5,78.9,,,,,,1004.0,2026-02-28 10:59:48-08:00
61.06,1.0,8.0,2026-02-28 19:00:44,37.82917,-121.62607,100.0,0.0,332.8,-12.8,,,,,19:00:43,10.5,-0.4,53.1,0.0,11.0,-0.0,-0.0,1.0,,-28.0,33.0,0.0,29.92,2189.0,,,334.0,,,,,0.0,0.0,,,,,,,2.0,,,-3.0,,,,,,,,,56.0,79.0,997.0,997.0,12.6,2.2,,2.2,24.5,,,20.5,0.0,0.0,-0.3,3.5,2.3,,,,,100.0,502.0,102.0,526.0,103.0,550.0,103.0,575.0,,,13.0,2.1,,24.5,25.0,4.995,,,1.05,1.562,55.6,78.9,,,,,,997.0,2026-02-28 10:59:48-08:00
62.06,1.0,8.0,2026-02-28 19:00:45,37.82917,-121.62607,100.0,0.0,332.8,-12.8,,,,,19:00:44,10.4,-0.5,53.0,0.0,11.0,-0.0,-0.01,1.0,,-18.0,33.0,0.0,29.92,2189.0,,,334.0,,,,,0.0,0.0,,,,,,,2.0,,,-3.0,,,,,,,,,56.0,79.0,984.0,984.0,12.9,2.2,,2.2,24.6,,,20.5,0.0,0.0,-0.3,3.5,2.3,,,,,101.0,491.0,103.0,529.0,103.0,548.0,104.0,577.0,,,13.0,1.8,,24.6,25.0,4.995,,,0.931,1.562,55.9,78.9,,,,,,984.0,2026-02-28 10:59:48-08:00
63.06,1.0,8.0,2026-02-28 19:00:46,37.82917,-121.62607,100.0,0.0,332.8,-12.8,,,,,19:00:45,10.4,-0.5,53.1,0.0,11.0,-0.0,-0.01,1.0,,-8.0,33.0,0.0,29.92,2178.0,,,334.0,,,,,0.0,0.0,,,,,,,2.0,,,-3.0,,,,,,,,,55.0,79.0,962.0,962.0,13.6,2.1,,2.1,24.7,,,20.5,0.0,0.0,-0.3,3.5,2.3,,,,,101.0,483.0,103.0,526.0,104.0,553.0,104.0,576.0,,,13.0,1.7,,24.7,25.0,4.995,,,0.934,1.562,54.7,78.8,,,,,,962.0,2026-02-28 10:59:48-08:00
64.06,1.0,8.0,2026-02-28 19:00:47,37.82917,-121.62607,100.0,0.1,332.8,-12.8,,,,,19:00:46,10.5,-0.5,53.1,0.0,11.0,0.0,-0.01,1.0,,5.0,33.0,0.0,29.92,2178.0,,,334.0,,,,,0.0,0.0,,,,,,,2.0,,,-3.0,,,,,,,,,55.0,79.0,950.0,950.0,13.6,2.0,,2.0,24.8,,,20.5,0.0,0.0,-0.3,3.5,2.3,,,,,101.0,475.0,103.0,531.0,104.0,553.0,104.0,576.0,,,13.0,1.5,,24.8,25.0,4.995,,,0.928,1.562,54.8,78.8,,,,,,950.0,2026-02-28 10:59:48-08:00
65.06,1.0,8.0,2026-02-28 19:00:48,37.82917,-121.62607,101.0,0.0,332.8,-12.8,,,,,19:00:47,10.5,-0.4,53.1,0.0,11.0,0.0,-0.01,0.9,,9.0,33.0,0.0,29.92,2178.0,,,334.0,,,,,0.0,0.0,,,,,,,2.0,,,-3.0,,,,,,,,,56.0,79.0,1015.0,1015.0,13.2,2.0,,2.0,24.8,,,20.5,0.0,0.0,-0.3,3.5,2.3,,,,,101.0,476.0,104.0,532.0,104.0,549.0,105.0,577.0,,,13.0,1.4,,24.8,25.0,4.995,,,0.929,1.562,56.2,78.7,,,,,,1015.0,2026-02-28 10:59:48-08:00
66.06,1.0,8.0,2026-02-28 19:00:49,37.82917,-121.62607,100.0,0.0,332.8,-12.8,,,,,19:00:48,10.5,-0.4,53.1,0.0,11.0,0.0,-0.01,1.0,,-44.0,33.0,0.0,29.92,2169.0,,,334.0,,,,,0.0,0.0,,,,,,,2.0,,,-3.0,,,,,,,,,56.0,79.0,1009.0,1009.0,12.8,1.9,,1.9,24.9,,,20.5,0.0,0.0,-0.3,3.5,2.3,,,,,102.0,478.0,104.0,534.0,104.0,543.0,105.0,579.0,,,13.0,1.3,,24.9,25.0,4.995,,,0.929,1.562,56.4,78.7,,,,,,1009.0,2026-02-28 10:59:48-08:00
67.06,1.0,8.0,2026-02-28 19:00:50,37.82917,-121.62607,100.0,0.0,332.8,-12.8,,,,,19:00:49,10.5,-0.4,53.1,0.0,11.0,0.0,-0.01,1.0,,-11.0,33.0,0.0,29.92,2169.0,,,334.0,,,,,0.0,0.0,,,,,,,2.0,,,-3.0,,,,,,,,,56.0,79.0,1019.0,1019.0,12.8,1.9,,1.9,25.0,,,20.5,0.0,0.0,-0.3,3.5,2.3,,,,,102.0,480.0,104.0,530.0,105.0,544.0,105.0,581.0,,,13.0,1.2,,25.0,25.0,4.995,,,0.929,1.562,56.1,78.6,,,,,,1019.0,2026-02-28 10:59:48-08:00
68.06,1.0,8.0,2026-02-28 19:00:51,37.82917,-121.62607,100.0,0.0,332.8,-12.8,,,,,19:00:50,10.5,-0.4,53.0,0.0,10.0,0.0,-0.01,1.0,,-32.0,33.0,0.0,29.92,2165.0,,,334.0,,,,,0.0,0.0,,,,,,,2.0,,,-3.0,,,,,,,,,57.0,79.0,1040.0,1040.0,12.7,1.9,,1.9,25.1,,,20.5,0.0,0.0,-0.4,3.5,2.3,,,,,102.0,487.0,104.0,535.0,105.0,547.0,106.0,585.0,,,13.0,1.2,,25.1,25.0,4.995,,,0.929,1.562,57.1,78.6,,,,,,1040.0,2026-02-28 10:59:48-08:00
69.06,1.0,8.0,2026-02-28 19:00:52,37.82917,-121.62607,100.0,0.0,332.8,-12.8,,,,,19:00:51,10.5,-0.4,52.9,0.0,10.0,-0.0,-0.01,1.0,,18.0,33.0,0.0,29.92,2165.0,,,334.0,,,,,0.0,0.0,,,,,,,2.0,,,-3.0,,,,,,,,,56.0,79.0,976.0,976.0,12.6,1.8,,1.8,25.2,,,20.5,0.0,0.0,-0.4,3.5,2.3,,,,,102.0,498.0,105.0,539.0,106.0,552.0,106.0,580.0,,,13.0,1.2,,25.2,25.0,4.995,,,0.962,1.562,55.9,78.5,,,,,,976.0,2026-02-28 10:59:48-08:00
70.06,1.0,8.0,2026-02-28 19:00:53,37.82917,-121.62607,101.0,0.1,332.8,-12.8,,,,,19:00:52,10.5,-0.5,52.9,0.0,10.0,-0.0,-0.01,1.0,,10.0,33.0,0.0,29.92,2165.0,,,334.0,,,,,0.0,0.0,,,,,,,2.0,,,-3.0,,,,,,,,,56.0,79.0,991.0,991.0,12.9,1.9,,1.9,25.2,,,20.5,0.0,0.0,-0.4,3.5,2.3,,,,,102.0,506.0,105.0,539.0,106.0,554.0,106.0,575.0,,,13.0,1.2,,25.2,25.0,4.995,,,1.01,1.564,56.1,78.5,,,,,,991.0,2026-02-28 10:59:48-08:00
71.06,1.0,8.0,2026-02-28 19:00:54,37.82917,-121.62607,101.0,0.0,332.8,-12.8,,,,,19:00:53,10.5,-0.5,52.9,0.0,10.0,-0.0,-0.01,1.0,,8.0,33.0,0.0,29.92,2156.0,,,334.0,,,,,0.0,0.0,,,,,,,2.0,,,-3.0,,,,,,,,,55.0,78.0,965.0,965.0,13.1,1.9,,1.9,25.3,,,20.5,0.0,0.0,-0.4,3.5,2.3,,,,,103.0,505.0,105.0,540.0,106.0,549.0,107.0,566.0,,,13.0,1.2,,25.3,25.0,4.995,,,1.088,1.564,54.7,78.5,,,,,,965.0,2026-02-28 10:59:48-08:00
72.06,1.0,8.0,2026-02-28 19:00:55,37.82917,-121.62606,101.0,0.0,332.8,-12.8,,,,,19:00:54,10.5,-0.5,52.9,0.0,10.0,0.0,-0.01,1.0,,15.0,33.0,0.0,29.92,2154.0,,,334.0,,,,,0.0,0.0,,,,,,,2.0,,,-3.0,,,,,,,,,57.0,78.0,1017.0,1017.0,13.0,1.8,,1.8,25.3,,,20.5,0.0,0.0,-0.4,3.5,2.3,,,,,103.0,513.0,106.0,541.0,107.0,550.0,107.0,570.0,,,13.0,1.2,,25.3,25.0,4.995,,,1.093,1.562,56.5,78.4,,,,,,1017.0,2026-02-28 10:59:48-08:00
73.06,1.0,8.0,2026-02-28 19:00:56,37.82917,-121.62606,101.0,0.1,332.8,-12.8,,,,,19:00:55,10.5,-0.5,52.9,0.0,10.0,-0.0,-0.01,1.0,,19.0,33.0,0.0,29.92,2154.0,,,334.0,,,,,0.0,0.0,,,,,,,2.0,,,-3.0,,,,,,,,,56.0,78.0,997.0,997.0,12.7,1.8,,1.8,25.4,,,20.5,0.0,0.0,-0.3,3.5,2.3,,,,,103.0,520.0,106.0,544.0,107.0,562.0,107.0,567.0,,,13.0,1.2,,25.4,25.0,4.995,,,1.09,1.564,55.9,78.4,,,,,,997.0,2026-02-28 10:59:48-08:00
74.06,1.0,8.0,2026-02-28 19:00:57,37.82917,-121.62606,102.0,0.1,332.8,-12.8,,,,,19:00:56,10.5,-0.5,52.9,0.0,10.0,0.0,-0.0,1.0,,-2.0,33.0,0.0,29.92,2154.0,,,334.0,,,,,0.0,0.0,,,,,,,2.0,,,-3.0,,,,,,,,,55.0,78.0,953.0,953.0,13.4,1.8,,1.8,25.5,,,20.5,0.0,0.0,-0.3,3.5,2.3,,,,,103.0,526.0,106.0,540.0,107.0,557.0,108.0,570.0,,,13.0,1.3,,25.5,25.0,4.995,,,0.984,1.564,54.7,78.3,,,,,,953.0,2026-02-28 10:59:48-08:00
75.06,1.0,8.0,2026-02-28 19:00:58,37.82916,-121.62606,102.0,0.0,332.8,-12.8,,,,,19:00:57,10.5,-0.5,52.9,0.0,10.0,-0.0,-0.01,1.0,,-8.0,33.0,0.0,29.92,2143.0,,,334.0,,,,,0.0,0.0,,,,,,,2.0,,,-3.0,,,,,3.0,0.0,0.0,1200.0,54.0,78.0,988.0,988.0,14.1,1.8,,1.8,25.4,,,20.5,0.0,0.0,-0.3,3.5,2.3,,,,,104.0,532.0,106.0,534.0,107.0,549.0,108.0,566.0,,,13.0,1.4,,25.4,25.0,4.995,,,0.964,1.564,54.4,78.3,,,,,,988.0,2026-02-28 10:59:48-08:00
76.06,1.0,8.0,2026-02-28 19:00:59,37.82916,-121.62606,102.0,0.1,332.8,-12.8,,,,,19:00:58,10.5,-0.4,52.9,0.0,10.0,-0.0,-0.01,1.0,,42.0,33.0,0.0,29.92,2143.0,,,334.0,,,,,0.0,0.0,,,,,,,2.0,,,-3.0,,,,,1.0,0.0,0.0,1200.0,56.0,78.0,1002.0,1002.0,13.3,1.8,,1.8,25.5,,,20.5,0.0,0.0,-0.3,3.5,2.3,,,,,104.0,539.0,107.0,539.0,108.0,548.0,108.0,568.0,,,13.0,1.6,,25.5,25.0,4.995,,,0.933,1.564,55.9,78.2,,,,,,1002.0,2026-02-28 10:59:48-08:00
77.06,1.0,8.0,2026-02-28 19:01:00,37.82916,-121.62606,103.0,0.0,332.8,-12.8,,,,,19:00:59,10.5,-0.5,52.9,0.0,10.0,-0.0,-0.01,1.0,,35.0,33.0,0.0,29.92,2143.0,,,334.0,,,,,0.0,0.0,,,,,,,2.0,,,-3.0,,,,,1.0,0.0,0.0,1200.0,57.0,78.0,1043.0,1043.0,12.9,1.8,,1.8,25.5,,,20.5,0.0,0.0,-0.3,3.5,2.3,,,,,104.0,541.0,107.0,536.0,108.0,549.0,109.0,567.0,,,13.0,1.6,,25.5,25.0,4.995,,,1.041,1.562,56.9,78.2,,,,,,1043.0,2026-02-28 10:59:48-08:00
78.06,1.0,8.0,2026-02-28 19:01:01,37.82916,-121.62606,103.0,0.0,332.8,-12.8,,,,,19:01:00,10.5,-0.4,53.0,0.0,10.0,0.0,-0.01,1.0,,-10.0,33.0,0.0,29.92,2133.0,,,334.0,,,,,0.0,0.0,,,,,,,2.0,,,-3.0,,,,,1.0,0.0,0.0,1200.0,55.0,78.0,950.0,950.0,12.7,1.8,,1.8,25.5,,,20.5,0.0,0.0,-0.3,3.5,2.3,,,,,104.0,543.0,107.0,537.0,108.0,557.0,109.0,571.0,,,13.0,1.7,,25.5,25.0,4.995,,,0.925,1.562,54.7,78.2,,,,,,950.0,2026-02-28 10:59:48-08:00
79.06,1.0,8.0,2026-02-28 19:01:02,37.82916,-121.62606,103.0,0.1,332.8,-12.8,,,,,19:01:01,10.5,-0.5,53.0,0.0,10.0,0.0,-0.01,1.0,,24.0,33.0,0.0,29.92,2132.0,,,334.0,,,,,0.0,0.0,,,,,,,2.0,,,-3.0,,,,,1.0,0.0,0.0,1200.0,56.0,78.0,1030.0,1030.0,13.6,1.8,,1.8,25.6,,,20.5,0.0,0.0,-0.2,3.5,2.3,,,,,105.0,544.0,108.0,526.0,109.0,547.0,109.0,564.0,,,13.0,1.8,,25.6,25.0,4.995,,,0.985,1.562,56.5,78.1,,,,,,1030.0,2026-02-28 10:59:48-08:00
80.06,1.0,8.0,2026-02-28 19:01:03,37.82916,-121.62606,104.0,0.1,332.8,-12.8,,,,,19:01:02,10.5,-0.4,53.0,0.0,10.0,0.0,-0.01,1.0,,38.0,33.0,0.0,29.92,2132.0,,,334.0,,,,,0.0,0.0,,,,,,,2.0,,,-3.0,,,,,1.0,0.0,0.0,1200.0,56.0,78.0,1002.0,1002.0,12.7,1.8,,1.8,25.6,,,20.5,0.0,0.0,-0.2,3.5,2.3,,,,,105.0,549.0,108.0,527.0,109.0,557.0,110.0,569.0,,,13.0,1.8,,25.6,25.0,4.995,,,1.014,1.564,56.3,78.1,,,,,,1002.0,2026-02-28 10:59:48-08:00
81.06,1.0,8.0,2026-02-28 19:01:04,37.82916,-121.62606,104.0,0.1,332.8,-12.8,,,,,19:01:03,10.5,-0.5,53.0,0.0,10.0,0.0,-0.01,1.0,,35.0,33.0,0.0,29.92,2132.0,,,334.0,,,,,0.0,0.0,,,,,,,2.0,,,-3.0,,,,,1.0,0.0,0.0,1200.0,55.0,78.0,939.0,939.0,13.2,1.9,,1.9,25.6,,,20.5,0.0,0.0,-0.2,3.5,2.3,,,,,105.0,546.0,108.0,516.0,109.0,557.0,110.0,573.0,,,13.0,1.8,,25.6,25.0,4.995,,,1.074,1.562,54.9,78.0,,,,,,939.0,2026-02-28 10:59:48-08:00
82.06,1.0,8.0,2026-02-28 19:01:05,37.82916,-121.62606,104.0,0.0,332.8,-12.8,,,,,19:01:04,10.4,-0.5,53.0,0.0,10.0,0.0,-0.01,1.0,,40.0,33.0,0.0,29.92,2121.0,,,334.0,,,,,0.0,0.0,,,,,,,2.0,,,-3.0,,,,,1.0,0.0,0.0,1200.0,56.0,78.0,1026.0,1026.0,13.5,1.8,,1.8,25.6,,,20.5,0.0,0.0,-0.2,3.5,2.3,,,,,106.0,549.0,108.0,524.0,110.0,555.0,110.0,569.0,,,13.0,1.8,,25.6,25.0,4.995,,,1.097,1.564,56.4,78.0,,,,,,1026.0,2026-02-28 10:59:48-08:00
83.06,1.0,8.0,2026-02-28 19:01:06,37.82916,-121.62606,105.0,0.1,332.8,-12.8,,,,,19:01:05,10.4,-0.5,53.0,0.0,10.0,0.0,-0.01,1.0,,42.0,33.0,0.0,29.92,2121.0,,,334.0,,,,,0.0,0.0,,,,,,,2.0,,,-3.0,,,,,1.0,0.0,0.0,1200.0,58.0,78.0,1060.0,1060.0,13.3,1.8,,1.8,25.6,,,20.5,0.0,0.0,-0.2,3.5,2.3,,,,,106.0,554.0,109.0,530.0,110.0,554.0,111.0,566.0,,,13.0,1.9,,25.6,25.0,4.995,,,1.096,1.562,57.7,78.0,,,,,,1060.0,2026-02-28 10:59:48-08:00
84.06,1.0,8.0,2026-02-28 19:01:07,37.82916,-121.62606,105.0,0.1,332.8,-12.8,,,,,19:01:06,10.4,-0.5,53.0,0.0,10.0,0.0,-0.01,1.0,,42.0,33.0,0.0,29.92,2121.0,,,334.0,,,,,0.0,0.0,,,,,,,2.0,,,-3.0,,,,,1.0,0.0,0.0,1200.0,59.0,78.0,1120.0,1120.0,13.3,1.9,,1.9,25.6,,,20.5,0.0,0.0,-0.2,3.5,2.3,,,,,106.0,557.0,109.0,539.0,110.0,564.0,111.0,564.0,,,13.0,1.9,,25.6,25.0,4.995,,,1.091,1.564,59.4,77.9,,,,,,1120.0,2026-02-28 10:59:48-08:00
85.06,1.0,8.0,2026-02-28 19:01:08,37.82916,-121.62606,105.0,0.0,332.8,-12.8,,,,,19:01:07,10.5,-0.4,53.1,0.0,10.0,0.0,-0.01,1.0,,42.0,33.0,0.0,29.92,2110.0,,,334.0,,,,,0.0,0.0,,,,,,,2.0,,,-3.0,,,,,1.0,0.0,0.0,1200.0,60.0,78.0,1150.0,1150.0,13.3,2.0,,2.0,25.6,,,20.5,0.0,0.0,-0.2,3.5,2.3,,,,,106.0,565.0,109.0,535.0,111.0,564.0,112.0,558.0,,,13.0,1.9,,25.6,25.0,4.995,,,1.096,1.562,60.0,77.8,,,,,,1150.0,2026-02-28 10:59:48-08:00
86.06,1.0,8.0,2026-02-28 19:01:09,37.82916,-121.62606,105.0,0.1,332.8,-12.8,,,,,19:01:08,10.4,-0.4,53.0,0.0,10.0,0.0,-0.01,0.9,,54.0,33.0,0.0,29.92,2110.0,,,334.0,,,,,0.0,0.0,,,,,,,2.0,,,-3.0,,,,,1.0,0.0,0.0,1200.0,59.0,78.0,1084.0,1084.0,13.2,2.0,,2.0,25.6,,,20.5,0.0,0.0,-0.2,3.5,2.3,,,,,107.0,568.0,110.0,544.0,111.0,565.0,112.0,562.0,,,13.0,1.9,,25.6,25.0,4.995,,,1.09,1.564,59.3,77.8,,,,,,1084.0,2026-02-28 10:59:48-08:00
87.06,1.0,8.0,2026-02-28 19:01:10,37.82916,-121.62606,106.0,0.1,332.8,-12.8,,,,,19:01:09,10.4,-0.3,53.0,0.0,10.0,-0.0,-0.0,1.0,,31.0,33.0,0.0,29.92,2110.0,,,334.0,,,,,0.0,0.0,,,,,,,2.0,,,-3.0,,,,,1.0,0.0,0.0,1200.0,62.0,78.0,1215.0,1215.0,13.1,2.0,,2.0,32.3,,,20.5,0.0,0.0,-0.2,3.5,2.3,,,,,107.0,564.0,110.0,546.0,111.0,560.0,112.0,561.0,,,13.0,1.9,,32.3,25.0,4.995,,,1.09,1.552,62.0,77.7,,,,,,1215.0,2026-02-28 10:59:48-08:00
88.06,1.0,8.0,2026-02-28 19:01:11,37.82916,-121.62606,106.0,0.0,332.8,-12.8,,,,,19:01:10,10.5,-0.4,53.0,0.0,10.0,-0.0,-0.0,1.0,,33.0,33.0,0.0,29.92,2099.0,,,334.0,,,,,0.0,0.0,,,,,,,2.0,,,-3.0,,,,,1.0,0.0,0.0,1200.0,61.0,78.0,1143.0,1143.0,12.4,2.1,,2.1,34.0,,,20.5,0.0,0.0,-0.1,3.5,2.3,,,,,108.0,569.0,110.0,549.0,112.0,574.0,112.0,571.0,,,13.0,2.0,,34.0,25.0,4.995,,,1.091,1.564,61.2,77.7,,,,,,1143.0,2026-02-28 10:59:48-08:00
89.06,1.0,8.0,2026-02-28 19:01:12,37.82916,-121.62606,106.0,0.0,332.8,-12.8,,,,,19:01:11,10.5,-0.5,52.9,0.0,12.0,-0.0,-0.0,0.9,,66.0,33.0,0.0,29.92,2099.0,,,334.0,,,,,0.0,0.0,,,,,,,2.0,,,-3.0,,,,,1.0,0.0,0.0,1200.0,61.0,78.0,1168.0,1168.0,12.5,2.1,,2.1,34.1,,,20.5,0.0,0.0,-0.1,3.5,2.3,,,,,108.0,573.0,111.0,549.0,112.0,584.0,113.0,577.0,,,13.0,2.0,,34.1,25.0,4.995,,,1.091,1.564,60.5,77.6,,,,,,1168.0,2026-02-28 10:59:48-08:00
90.06,1.0,8.0,2026-02-28 19:01:13,37.82916,-121.62606,106.0,0.0,332.8,-12.8,,,,,19:01:12,10.5,-0.5,53.0,0.0,12.0,0.0,-0.0,1.0,,38.0,32.0,0.0,29.92,2091.0,,,334.0,,,,,0.0,0.0,,,,,,,2.0,,,-3.0,,,,,1.0,0.0,0.0,1200.0,60.0,78.0,1160.0,1160.0,13.0,2.1,,2.1,34.0,,,20.5,0.0,0.0,-0.1,3.5,2.3,,,,,108.0,577.0,111.0,552.0,113.0,579.0,113.0,571.0,,,13.0,2.0,,34.0,25.0,4.995,,,1.091,1.562,59.7,77.6,,,,,,1160.0,2026-02-28 10:59:48-08:00
91.06,1.0,8.0,2026-02-28 19:01:14,37.82916,-121.62606,106.0,0.1,332.8,-12.8,,,,,19:01:13,10.4,-0.4,52.9,0.0,12.0,0.0,-0.01,0.9,,18.0,32.0,0.0,29.92,2091.0,,,334.0,,,,,0.0,0.0,,,,,,,2.0,,,-3.0,,,,,1.0,0.0,0.0,1200.0,62.0,78.0,1201.0,1201.0,12.5,2.1,,2.1,33.9,,,20.5,0.0,0.0,-0.1,3.5,2.3,,,,,109.0,579.0,112.0,559.0,113.0,583.0,114.0,580.0,,,13.0,2.0,,33.9,25.0,4.995,,,1.095,1.562,61.8,77.5,,,,,,1201.0,2026-02-28 10:59:48-08:00
92.06,1.0,8.0,2026-02-28 19:01:15,37.82916,-121.62606,107.0,0.1,332.8,-12.8,,,,,19:01:14,10.5,-0.4,53.0,0.0,12.0,0.0,-0.0,1.0,,8.0,32.0,0.0,29.92,2091.0,,,334.0,,,,,0.0,0.0,,,,,,,2.0,,,-3.0,,,,,1.0,0.0,0.0,1200.0,60.0,77.0,1158.0,1158.0,12.7,2.1,,2.1,33.9,,,20.5,0.0,0.0,-0.1,3.5,2.3,,,,,109.0,582.0,112.0,563.0,113.0,579.0,114.0,584.0,,,13.0,2.0,,33.9,25.0,4.995,,,1.09,1.562,60.3,77.5,,,,,,1158.0,2026-02-28 10:59:48-08:00
93.06,1.0,8.0,2026-02-28 19:01:16,37.82916,-121.62606,107.0,0.0,332.8,-12.8,,,,,19:01:15,10.4,-0.4,53.0,0.0,13.0,0.0,-0.01,0.9,,28.0,32.0,0.0,29.92,2080.0,,,334.0,,,,,0.0,0.0,,,,,,,2.0,,,-3.0,,,,,1.0,0.0,0.0,1200.0,61.0,77.0,1123.0,1123.0,12.6,2.2,,2.2,33.9,,,20.5,0.0,0.0,-0.1,3.5,2.3,,,,,109.0,586.0,112.0,571.0,114.0,585.0,114.0,590.0,,,13.0,2.0,,33.9,25.0,4.995,,,1.091,1.562,60.9,77.4,,,,,,1123.0,2026-02-28 10:59:48-08:00
94.06,1.0,8.0,2026-02-28 19:01:17,37.82916,-121.62606,107.0,0.0,332.8,-12.8,,,,,19:01:16,10.5,-0.4,53.1,0.0,13.0,-0.0,-0.0,1.0,,19.0,32.0,0.0,29.92,2080.0,,,334.0,,,,,0.0,0.0,,,,,,,2.0,,,-3.0,,,,,1.0,0.0,0.0,1200.0,62.0,77.0,1234.0,1234.0,12.8,2.2,,2.2,33.7,,,20.5,0.0,0.0,-0.1,3.5,2.3,,,,,110.0,584.0,113.0,580.0,114.0,581.0,115.0,586.0,,,14.0,2.0,,33.7,25.0,4.995,,,1.091,1.564,62.1,77.4,,,,,,1234.0,2026-02-28 10:59:48-08:00
95.06,1.0,8.0,2026-02-28 19:01:18,37.82916,-121.62606,107.0,0.0,332.8,-12.8,,,,,19:01:17,10.5,-0.4,53.1,0.0,14.0,-0.0,-0.01,1.0,,28.0,32.0,0.0,29.92,2071.0,,,334.0,,,,,0.0,0.0,,,,,,,2.0,,,-3.0,,,,,1.0,0.0,0.0,1200.0,64.0,77.0,1309.0,1309.0,13.3,2.3,,2.3,33.5,,,20.5,0.0,0.0,-0.1,3.5,2.3,,,,,110.0,589.0,113.0,587.0,115.0,591.0,115.0,600.0,,,13.0,2.0,,33.5,25.0,4.995,,,1.091,1.562,64.3,77.3,,,,,,1309.0,2026-02-28 10:59:48-08:00
96.06,1.0,8.0,2026-02-28 19:01:19,37.82915,-121.62606,115.0,0.1,332.8,-12.8,,,,,19:01:18,10.5,-0.4,53.0,0.0,15.0,-0.0,-0.0,1.0,,34.0,32.0,0.0,29.92,2071.0,,,334.0,,,,,0.0,0.0,,,,,,,2.0,,,-3.0,,,,,1.0,0.0,0.0,1200.0,64.0,77.0,1249.0,1249.0,13.5,2.4,,2.4,33.5,,,20.5,0.0,0.0,-0.1,3.5,2.3,,,,,110.0,596.0,113.0,596.0,115.0,600.0,115.0,605.0,,,14.0,2.0,,33.5,25.0,4.995,,,1.091,1.564,63.8,77.3,,,,,,1249.0,2026-02-28 10:59:48-08:00
97.06,2.0,8.0,2026-02-28 19:01:20,37.82915,-121.62605,118.0,0.1,332.8,-12.8,,,,,19:01:19,10.4,-0.5,53.0,0.0,15.0,-0.0,-0.0,0.9,,2.0,32.0,0.0,29.92,2071.0,,,334.0,,,,,0.0,0.0,,,,,,,2.0,,,-3.0,,,,,1.0,0.0,0.0,1200.0,64.0,77.0,1296.0,1296.0,13.7,2.5,,2.5,33.5,,,20.5,0.0,0.0,-0.1,3.5,2.3,,,,,111.0,601.0,114.0,600.0,115.0,607.0,116.0,608.0,,,14.0,2.0,,33.5,25.0,4.995,,,1.091,1.565,64.1,77.3,,,,,,1296.0,2026-02-28 10:59:48-08:00
98.06,2.0,8.0,2026-02-28 19:01:21,37.82915,-121.62605,118.0,0.0,332.8,-12.8,,,,,19:01:20,10.5,-0.4,53.0,0.0,15.0,-0.0,-0.01,1.0,,15.0,32.0,0.0,29.92,2061.0,,,334.0,,,,,0.0,0.0,,,,,,,3.0,,,48.0,,,,,1.0,0.0,0.0,1200.0,64.0,77.0,1280.0,1280.0,13.7,2.6,,2.6,33.6,,,20.5,0.0,0.0,-0.1,3.5,2.3,,,,,111.0,605.0,114.0,606.0,116.0,611.0,116.0,609.0,,,14.0,2.1,,33.6,25.0,4.995,,,1.169,1.569,64.2,77.3,,,,,,1280.0,2026-02-28 10:59:48-08:00
99.06,2.0,8.0,2026-02-28 19:01:22,37.82915,-121.62605,118.0,0.1,332.8,-12.8,,,,,19:01:21,10.5,-0.5,52.9,0.0,15.0,-0.0,-0.01,1.0,,-7.0,32.0,0.0,29.92,2061.0,,,334.0,,,,,0.0,0.0,,,,,,,3.0,,,74.0,,,,,1.0,0.0,0.0,1200.0,63.0,77.0,1250.0,1250.0,13.6,2.6,,2.6,33.7,,,20.5,0.0,0.0,-0.1,3.5,2.3,,,,,112.0,606.0,115.0,603.0,116.0,604.0,117.0,599.0,,,13.0,2.3,,33.7,25.0,4.995,,,1.094,1.567,62.7,77.2,,,,,,1250.0,2026-02-28 10:59:48-08:00
100.06,2.0,8.0,2026-02-28 19:01:23,37.82915,-121.62605,117.0,0.0,332.8,-12.8,,,,,19:01:22,10.5,-0.5,52.8,0.0,15.0,-0.0,-0.01,0.9,,-10.0,32.0,0.0,29.92,2050.0,,,334.0,,,,,0.0,0.0,,,,,,,3.0,,,73.0,,,,,1.0,0.0,0.0,1200.0,63.0,77.0,1221.0,1221.0,12.8,2.6,,2.6,33.6,,,20.5,0.0,0.0,-0.1,3.5,2.3,,,,,112.0,606.0,115.0,606.0,116.0,609.0,117.0,607.0,,,13.0,2.5,,33.6,25.0,4.995,,,1.084,1.567,62.6,77.2,,,,,,1221.0,2026-02-28 10:59:48-08:00
101.06,2.0,8.0,2026-02-28 19:01:24,37.82915,-121.62605,117.0,0.1,332.8,-12.8,,,,,19:01:23,10.5,-0.4,52.8,0.0,15.0,-0.0,-0.0,1.0,,0.0,32.0,0.0,29.92,2050.0,,,334.0,,,,,0.0,0.0,,,,,,,3.0,,,73.0,,,,,1.0,0.0,0.0,1200.0,62.0,77.0,1173.0,1173.0,12.9,2.6,,2.6,33.7,,,20.5,0.0,0.0,-0.1,3.5,2.3,,,,,112.0,607.0,115.0,601.0,117.0,615.0,117.0,600.0,,,13.0,2.6,,33.7,25.0,4.995,,,1.091,1.567,61.9,77.2,,,,,,1173.0,2026-02-28 10:59:48-08:00
102.06,2.0,8.0,2026-02-28 19:01:25,37.82915,-121.62605,116.0,0.1,332.8,-12.8,,,,,19:01:24,10.5,-0.3,52.8,0.0,15.0,-0.0,-0.0,1.0,,-29.0,32.0,0.0,29.92,2040.0,,,334.0,,,,,0.0,0.0,,,,,,,3.0,,,73.0,,,,,1.0,0.0,0.0,1200.0,61.0,77.0,1202.0,1202.0,12.9,2.6,,2.6,33.7,,,20.5,0.0,0.0,-0.1,3.5,2.3,,,,,112.0,607.0,116.0,604.0,117.0,612.0,118.0,600.0,,,13.0,2.7,,33.7,25.0,4.995,,,1.176,1.565,61.4,77.1,,,,,,1202.0,2026-02-28 10:59:48-08:00
103.06,2.0,8.0,2026-02-28 19:01:26,37.82915,-121.62606,116.0,0.1,332.8,-12.8,,,,,19:01:25,10.5,-0.4,52.8,0.0,15.0,-0.0,-0.01,1.0,,-1.0,32.0,0.0,29.92,2040.0,,,334.0,,,,,0.0,0.0,,,,,,,3.0,,,73.0,,,,,1.0,0.0,0.0,1200.0,62.0,77.0,1232.0,1232.0,12.6,2.5,,2.5,33.8,,,20.5,0.0,0.0,-0.1,3.5,2.3,,,,,113.0,609.0,116.0,608.0,117.0,615.0,118.0,608.0,,,13.0,2.8,,33.8,25.0,4.995,,,1.096,1.565,62.3,77.1,,,,,,1232.0,2026-02-28 10:59:48-08:00
104.06,2.0,8.0,2026-02-28 19:01:27,37.82915,-121.62606,115.0,0.1,332.8,-12.8,,,,,19:01:26,10.5,-0.4,52.8,0.0,15.0,-0.0,-0.01,1.0,,-17.0,32.0,0.0,29.92,2040.0,,,334.0,,,,,0.0,0.0,,,,,,,3.0,,,73.0,,,,,1.0,0.0,0.0,1200.0,60.0,77.0,1179.0,1179.0,12.8,2.5,,2.5,33.8,,,20.5,0.0,0.0,-0.1,3.5,2.3,,,,,113.0,608.0,116.0,612.0,118.0,608.0,118.0,606.0,,,13.0,2.8,,33.8,25.0,4.995,,,1.091,1.566,60.2,77.0,,,,,,1179.0,2026-02-28 10:59:48-08:00
105.06,2.0,8.0,2026-02-28 19:01:28,37.82916,-121.62606,114.0,0.1,332.8,-12.8,,,,,19:01:27,10.5,-0.4,52.8,0.0,15.0,-0.0,-0.01,1.0,,19.0,32.0,0.0,29.92,2029.0,,,334.0,,,,,0.0,0.0,,,,,,,3.0,,,73.0,,,,,1.0,0.0,0.0,1200.0,62.0,77.0,1203.0,1203.0,12.7,2.5,,2.5,33.8,,,20.5,0.0,0.0,-0.1,3.5,2.3,,,,,113.0,608.0,117.0,613.0,118.0,609.0,118.0,611.0,,,13.0,2.8,,33.8,25.0,4.995,,,1.091,1.566,62.4,77.0,,,,,,1203.0,2026-02-28 10:59:48-08:00
106.06,2.0,8.0,2026-02-28 19:01:29,37.82915,-121.62606,115.0,0.0,332.8,-12.8,,,,,19:01:28,10.5,-0.4,52.8,0.0,15.0,-0.0,-0.01,1.0,,31.0,32.0,0.0,29.92,2029.0,,,334.0,,,,,0.0,0.0,,,,,,,3.0,,,73.0,,,,,1.0,0.0,0.0,1200.0,61.0,77.0,1196.0,1196.0,12.9,2.4,,2.4,33.8,,,20.5,0.0,0.0,-0.1,3.5,2.3,,,,,114.0,604.0,117.0,615.0,118.0,602.0,119.0,607.0,,,13.0,2.9,,33.8,25.0,4.995,,,1.091,1.566,61.4,76.9,,,,,,1196.0,2026-02-28 10:59:48-08:00
107.06,2.0,8.0,2026-02-28 19:01:30,37.82915,-121.62606,113.0,0.0,332.8,-12.8,,,,,19:01:29,10.5,-0.5,52.7,0.0,15.0,-0.1,-0.0,1.0,,24.0,32.0,0.0,29.92,2018.0,,,334.0,,,,,0.0,0.0,,,,,,,3.0,,,73.0,,,,,1.0,0.0,0.0,1200.0,61.0,77.0,1152.0,1152.0,12.7,2.4,,2.4,33.8,,,20.5,0.0,0.0,-0.1,3.5,2.3,,,,,114.0,607.0,118.0,618.0,119.0,610.0,119.0,609.0,,,13.0,2.9,,33.8,25.0,4.995,,,1.091,1.566,60.7,76.9,,,,,,1152.0,2026-02-28 10:59:48-08:00
108.06,2.0,8.0,2026-02-28 19:01:31,37.82915,-121.62606,112.0,0.1,332.8,-12.8,,,,,19:01:30,10.5,-0.5,52.8,0.0,15.0,-0.0,-0.01,0.9,,4.0,32.0,0.0,29.92,2018.0,,,334.0,,,,,0.0,0.0,,,,,,,3.0,,,67.0,,,,,1.0,0.0,0.0,1200.0,62.0,77.0,1217.0,1217.0,12.6,2.4,,2.4,33.8,,,20.5,0.0,0.0,-0.1,3.5,2.3,,,,,114.0,607.0,118.0,619.0,119.0,617.0,120.0,612.0,,,13.0,2.9,,33.8,25.0,4.995,,,1.091,1.566,61.8,76.8,,,,,,1217.0,2026-02-28 10:59:48-08:00
109.06,2.0,8.0,2026-02-28 19:01:32,37.82915,-121.62606,112.0,0.1,332.8,-12.8,,,,,19:01:31,10.5,-0.5,52.7,0.0,15.0,-0.0,-0.01,1.0,,11.0,32.0,0.0,29.92,2007.0,,,334.0,,,,,0.0,0.0,,,,,,,4.0,,,67.0,,,,,1.0,0.0,0.0,1200.0,60.0,77.0,1156.0,1156.0,12.8,2.3,,2.3,33.8,,,20.5,0.0,0.0,-0.1,3.5,2.3,,,,,115.0,608.0,118.0,619.0,120.0,614.0,120.0,611.0,,,14.0,2.9,,33.8,25.0,4.995,,,1.091,1.565,60.4,76.8,,,,,,1156.0,2026-02-28 10:59:48-08:00
110.06,2.0,8.0,2026-02-28 19:01:33,37.82916,-121.62606,111.0,0.0,332.8,-12.8,,,,,19:01:32,10.6,-0.4,52.6,0.0,15.0,-0.0,-0.0,0.9,,9.0,32.0,0.0,29.92,2007.0,,,334.0,,,,,0.0,0.0,,,,,,,4.0,,,64.0,,,,,1.0,0.0,0.0,1200.0,61.0,77.0,1146.0,1146.0,12.8,2.3,,2.3,33.8,,,20.5,0.0,0.0,-0.1,3.5,2.3,,,,,115.0,610.0,119.0,619.0,120.0,617.0,120.0,612.0,,,14.0,3.0,,33.8,25.0,4.995,,,1.091,1.565,61.0,76.8,,,,,,1146.0,2026-02-28 10:59:48-08:00
111.06,2.0,8.0,2026-02-28 19:01:34,37.82916,-121.62606,110.0,0.0,332.8,-12.8,,,,,19:01:33,10.6,-0.3,52.7,0.0,15.0,-0.0,-0.0,1.0,,-5.0,32.0,0.0,29.92,2007.0,,,334.0,,,,,0.0,0.0,,,,,,,5.0,,,64.0,,,,,1.0,0.0,0.0,1200.0,62.0,77.0,1217.0,1217.0,13.0,2.3,,2.3,33.8,,,20.5,0.0,0.0,-0.1,3.5,2.3,,,,,115.0,610.0,119.0,619.0,120.0,608.0,120.0,612.0,,,14.0,3.0,,33.8,25.0,4.995,,,1.091,1.565,61.8,76.7,,,,,,1217.0,2026-02-28 10:59:48-08:00
112.06,2.0,8.0,2026-02-28 19:01:35,37.82916,-121.62606,108.0,0.1,332.8,-12.8,,,,,19:01:34,10.6,-0.3,52.7,0.0,17.0,-0.0,-0.0,1.0,,41.0,32.0,0.0,29.92,1996.0,,,334.0,,,,,0.0,0.0,,,,,,,1.0,,,65.0,,,,,1.0,0.0,0.0,1200.0,60.0,77.0,1166.0,1166.0,12.8,2.3,,2.3,33.8,,,20.5,0.0,0.0,-0.1,3.5,2.3,,,,,116.0,611.0,119.0,619.0,120.0,614.0,121.0,608.0,,,14.0,3.0,,33.8,25.0,4.995,,,1.091,1.565,60.3,76.7,,,,,,1166.0,2026-02-28 10:59:48-08:00
113.06,2.0,8.0,2026-02-28 19:01:36,37.82916,-121.62606,108.0,0.1,332.8,-12.8,,,,,19:01:35,10.5,-0.3,52.8,0.0,17.0,-0.0,-0.01,1.0,,12.0,32.0,0.0,29.92,1996.0,,,334.0,,,,,0.0,0.0,,,,,,,7.0,,,65.0,,,,,1.0,0.0,0.0,1200.0,61.0,77.0,1211.0,1211.0,12.9,2.3,,2.3,33.8,,,20.5,0.0,0.0,-0.1,3.5,2.3,,,,,116.0,611.0,120.0,622.0,121.0,608.0,121.0,603.0,,,14.0,3.0,,33.8,25.0,4.995,,,1.091,1.565,61.5,76.6,,,,,,1211.0,2026-02-28 10:59:48-08:00
114.06,2.0,8.0,2026-02-28 19:01:37,37.82916,-121.62606,107.0,0.1,332.8,-12.8,,,,,19:01:36,10.5,-0.2,52.8,0.0,17.0,-0.0,-0.01,0.9,,19.0,32.0,0.0,29.92,1988.0,,,334.0,,,,,0.0,0.0,,,,,,,15.0,,,52.0,,,,,1.0,0.0,0.0,1200.0,62.0,77.0,1216.0,1216.0,12.5,2.3,,2.3,33.9,,,20.5,0.0,0.0,-0.1,3.5,2.3,,,,,116.0,612.0,120.0,623.0,121.0,612.0,121.0,609.0,,,13.0,3.0,,33.9,25.0,4.995,,,1.091,1.564,61.9,76.6,,,,,,1216.0,2026-02-28 10:59:48-08:00
115.06,2.0,8.0,2026-02-28 19:01:38,37.82916,-121.62607,107.0,0.1,332.8,-12.8,,,,,19:01:37,10.5,-0.2,52.8,0.0,17.0,-0.0,-0.0,1.0,,35.0,32.0,0.0,29.92,1988.0,,,334.0,,,,,0.0,0.0,,,,,,,21.0,,,31.0,,,,,1.0,0.0,0.0,1200.0,61.0,77.0,1156.0,1156.0,12.4,2.3,,2.3,33.9,,,20.5,0.0,0.0,-0.1,3.5,2.3,,,,,117.0,613.0,120.0,623.0,121.0,615.0,122.0,613.0,,,13.0,3.0,,33.9,25.0,4.995,,,1.091,1.565,61.2,76.6,,,,,,1156.0,2026-02-28 10:59:48-08:00
116.06,2.0,8.0,2026-02-28 19:01:39,37.82916,-121.62607,106.0,0.1,332.8,-12.8,,,,,19:01:38,10.5,-0.3,52.8,0.0,17.0,-0.0,-0.0,1.0,,8.0,31.0,0.0,29.92,1978.0,,,334.0,,,,,0.0,0.0,,,,,,,19.0,,,29.0,,,,,1.0,0.0,0.0,1200.0,61.0,77.0,1187.0,1187.0,12.3,2.3,,2.3,33.9,,,20.5,0.0,0.0,-0.1,3.5,2.3,,,,,117.0,613.0,121.0,624.0,122.0,616.0,122.0,609.0,,,13.0,3.0,,33.9,25.0,4.995,,,1.091,1.564,61.3,76.6,,,,,,1187.0,2026-02-28 10:59:48-08:00
117.06,2.0,8.0,2026-02-28 19:01:40,37.82916,-121.62606,108.0,0.0,332.8,-12.8,,,,,19:01:39,10.5,-0.3,52.8,0.0,18.0,0.0,-0.01,0.9,,31.0,31.0,0.0,29.92,1978.0,,,334.0,,,,,0.0,0.0,,,,,,,19.0,,,29.0,,,,,1.0,0.0,0.0,1200.0,61.0,77.0,1160.0,1160.0,12.3,2.2,,2.2,33.9,,,20.5,0.0,0.0,-0.1,3.5,2.3,,,,,117.0,616.0,121.0,623.0,122.0,616.0,122.0,612.0,,,13.0,3.0,,33.9,25.0,4.995,,,1.091,1.564,60.5,76.5,,,,,,1160.0,2026-02-28 10:59:48-08:00
118.06,2.0,8.0,2026-02-28 19:01:41,37.82916,-121.62606,109.0,0.1,332.8,-12.8,,,,,19:01:40,10.5,-0.4,52.8,0.0,18.0,-0.0,-0.01,1.0,,16.0,31.0,0.0,29.92,1978.0,,,334.0,,,,,0.0,0.0,,,,,,,12.0,,,26.0,,,,,1.0,0.0,0.0,1200.0,60.0,77.0,1136.0,1136.0,12.3,2.2,,2.2,33.8,,,20.5,0.0,0.0,-0.1,3.5,2.3,,,,,117.0,617.0,121.0,623.0,122.0,616.0,123.0,618.0,,,13.0,3.0,,33.8,25.0,4.995,,,1.091,1.564,60.3,76.5,,,,,,1136.0,2026-02-28 10:59:48-08:00
119.06,2.0,8.0,2026-02-28 19:01:42,37.82916,-121.62607,109.0,0.1,332.8,-12.8,,,,,19:01:41,10.5,-0.3,52.8,0.0,18.0,-0.0,-0.01,1.0,,36.0,31.0,0.0,29.92,1968.0,,,334.0,,,,,0.0,0.0,,,,,,,13.0,,,26.0,,,,,1.0,0.0,0.0,1200.0,61.0,76.0,1187.0,1187.0,12.4,2.2,,2.2,33.9,,,20.5,0.0,0.0,-0.1,3.5,2.3,,,,,118.0,617.0,122.0,621.0,123.0,618.0,123.0,615.0,,,13.0,3.0,,33.9,25.0,4.995,,,1.091,1.564,61.1,76.5,,,,,,1187.0,2026-02-28 10:59:48-08:00
120.06,2.0,8.0,2026-02-28 19:01:43,37.82916,-121.62607,109.0,0.0,332.8,-12.8,,,,,19:01:42,10.5,-0.4,52.7,0.0,20.0,-0.0,-0.01,1.0,,22.0,31.0,0.0,29.92,1968.0,,,334.0,,,,,0.0,0.0,,,,,,,13.0,,,24.0,,,,,1.0,0.0,0.0,1200.0,61.0,76.0,1165.0,1165.0,12.3,2.2,,2.2,33.9,,,20.5,0.0,0.0,-0.1,3.5,2.3,,,,,118.0,618.0,122.0,621.0,123.0,617.0,123.0,618.0,,,13.0,3.1,,33.9,25.0,4.995,,,1.091,1.565,60.7,76.4,,,,,,1165.0,2026-02-28 10:59:48-08:00
121.06,2.0,8.0,2026-02-28 19:01:44,37.82916,-121.62607,109.0,0.0,332.8,-12.8,,,,,19:01:43,10.5,-0.4,52.8,0.0,20.0,-0.0,-0.01,1.0,,18.0,31.0,0.0,29.92,1959.0,,,334.0,,,,,0.0,0.0,,,,,,,16.0,,,23.0,,,,,1.0,0.0,0.0,1200.0,60.0,76.0,1172.0,1172.0,12.4,2.2,,2.2,33.9,,,20.5,0.0,0.0,-0.1,3.5,2.3,,,,,118.0,618.0,122.0,622.0,124.0,612.0,124.0,610.0,,,14.0,3.1,,33.9,25.0,4.995,,,1.091,1.566,60.3,76.4,,,,,,1172.0,2026-02-28 10:59:48-08:00
122.06,2.0,8.0,2026-02-28 19:01:45,37.82916,-121.62607,109.0,0.0,332.8,-12.8,,,,,19:01:44,10.5,-0.3,52.8,0.0,20.0,0.0,-0.01,1.0,,8.0,31.0,0.0,29.92,1959.0,,,334.0,,,,,0.0,0.0,,,,,,,13.0,,,19.0,,,,,1.0,0.0,0.0,1200.0,61.0,76.0,1179.0,1179.0,12.5,2.2,,2.2,33.9,,,20.5,0.0,0.0,-0.1,3.5,2.3,,,,,119.0,618.0,123.0,622.0,124.0,613.0,124.0,614.0,,,13.0,3.1,,33.9,25.0,4.995,,,1.091,1.565,60.9,76.3,,,,,,1179.0,2026-02-28 10:59:48-08:00
123.06,2.0,8.0,2026-02-28 19:01:46,37.82916,-121.62607,107.0,0.1,332.8,-12.8,,,,,19:01:45,10.5,-0.3,52.9,0.0,20.0,0.0,-0.0,0.9,,2.0,31.0,0.0,29.92,1959.0,,,334.0,,,,,0.0,0.0,,,,,,,13.0,,,18.0,,,,,1.0,0.0,0.0,1200.0,60.0,76.0,1166.0,1166.0,12.4,2.1,,2.1,33.9,,,20.5,0.0,0.0,-0.1,3.5,2.3,,,,,119.0,620.0,123.0,623.0,124.0,613.0,124.0,616.0,,,13.0,3.1,,33.9,25.0,4.995,,,1.091,1.566,60.5,76.3,,,,,,1166.0,2026-02-28 10:59:48-08:00
124.06,2.0,8.0,2026-02-28 19:01:47,37.82917,-121.62607,106.0,0.1,332.8,-12.8,,,,,19:01:46,10.6,-0.3,52.9,0.0,20.0,0.0,-0.0,1.0,,5.0,31.0,0.0,29.92,1948.0,,,334.0,,,,,0.0,0.0,,,,,,,13.0,,,41.0,,,,,1.0,0.0,0.0,1200.0,61.0,76.0,1179.0,1179.0,12.4,2.1,,2.1,33.9,,,20.5,0.0,0.0,-0.1,3.5,2.3,,,,,119.0,621.0,123.0,623.0,125.0,610.0,125.0,616.0,,,13.0,3.1,,33.9,25.0,4.995,,,1.091,1.566,60.5,76.3,,,,,,1179.0,2026-02-28 10:59:48-08:00
125.06,2.0,8.0,2026-02-28 19:01:48,37.82917,-121.62607,110.0,0.1,332.8,-12.8,,,,,19:01:47,10.5,-0.4,52.9,0.0,20.0,-0.0,0.0,1.0,,-1.0,31.0,0.0,29.92,1948.0,,,334.0,,,,,0.0,0.0,,,,,,,12.0,,,41.0,,,,,1.0,0.0,0.0,1200.0,61.0,76.0,1179.0,1179.0,12.3,2.1,,2.1,33.9,,,20.5,0.0,0.0,-0.1,3.5,2.3,,,,,119.0,623.0,124.0,623.0,125.0,610.0,125.0,620.0,,,13.0,3.1,,33.9,25.0,4.995,,,1.091,1.567,60.8,76.2,,,,,,1179.0,2026-02-28 10:59:48-08:00
126.06,2.0,8.0,2026-02-28 19:01:49,37.82918,-121.62608,101.0,0.1,332.8,-12.8,,,,,19:01:48,10.6,-0.3,53.0,0.0,20.0,0.0,0.0,1.0,,-2.0,31.0,0.0,29.92,1938.0,,,334.0,,,,,0.0,0.0,,,,,,,9.0,,,38.0,,,,,1.0,0.0,0.0,1200.0,61.0,76.0,1191.0,1191.0,12.2,2.1,,2.1,33.8,,,20.5,0.0,0.0,-0.1,3.5,2.3,,,,,120.0,622.0,124.0,624.0,125.0,612.0,125.0,622.0,,,13.0,3.1,,33.8,25.0,4.995,,,1.091,1.566,61.1,76.2,,,,,,1191.0,2026-02-28 10:59:48-08:00
127.06,2.0,8.0,2026-02-28 19:01:50,37.82918,-121.62608,101.0,0.7,332.8,-12.8,,,,,19:01:49,10.8,-0.3,53.9,0.0,20.0,0.5,-0.0,0.9,,6.0,31.0,0.0,29.92,1938.0,,,334.0,,,,,0.0,0.0,,,,,,,9.0,,,38.0,,,,,1.0,0.0,0.0,1200.0,61.0,76.0,1141.0,1141.0,12.2,2.1,,2.1,33.9,,,20.5,0.0,0.0,-0.1,3.5,2.3,,,,,120.0,622.0,124.0,625.0,125.0,613.0,126.0,625.0,,,13.0,3.1,,33.9,25.0,4.995,,,1.016,1.517,60.6,76.2,,,,,,1141.0,2026-02-28 10:59:48-08:00
128.06,2.0,8.0,2026-02-28 19:01:51,37.82918,-121.62607,101.0,1.1,248.1,-12.8,,,,,19:01:50,11.0,-0.4,54.1,0.0,20.0,0.5,-0.01,1.0,,2.0,31.0,0.0,29.92,1938.0,,,334.0,,,,,0.0,0.0,,,,,,,10.0,,,38.0,,,,,1.0,0.0,0.0,1200.0,60.0,76.0,1139.0,1139.0,12.4,2.1,,2.1,33.9,,,20.5,0.0,0.0,-0.1,3.5,2.3,,,,,120.0,623.0,124.0,624.0,126.0,610.0,126.0,621.0,,,13.0,3.1,,33.9,25.0,4.995,,,0.929,1.52,60.1,76.1,,,,,,1139.0,2026-02-28 10:59:48-08:00
129.06,2.0,8.0,2026-02-28 19:01:52,37.82918,-121.62606,104.0,1.7,83.5,-12.8,,,,,19:01:51,11.2,-0.4,54.0,0.0,20.0,0.2,-0.01,1.0,,-31.0,31.0,0.0,29.92,1927.0,,,334.0,,,,,0.0,0.0,,,,,,,5.0,,,67.0,,,,,1.0,0.0,0.0,1200.0,57.0,76.0,999.0,999.0,12.3,2.1,,2.1,34.1,,,20.5,0.0,0.0,-0.1,3.5,2.3,,,,,120.0,622.0,125.0,623.0,126.0,609.0,126.0,621.0,,,13.0,2.6,,34.1,25.0,4.995,,,1.055,1.521,56.5,76.1,,,,,,999.0,2026-02-28 10:59:48-08:00
130.06,2.0,8.0,2026-02-28 19:01:53,37.82919,-121.62605,105.0,1.9,65.5,-12.8,,,,,19:01:52,11.3,-0.5,53.7,0.0,20.0,0.1,-0.01,1.0,,-16.0,31.0,0.0,29.92,1927.0,,,334.0,,,,,0.0,0.0,,,,,,,6.0,,,63.0,,,,,1.0,0.0,0.0,1200.0,53.0,76.0,857.0,857.0,12.9,1.9,,1.9,34.2,,,20.5,0.0,0.0,-0.1,3.5,2.3,,,,,121.0,605.0,125.0,620.0,126.0,606.0,126.0,611.0,,,13.0,2.2,,34.2,25.0,4.995,,,1.302,1.621,52.9,76.0,,,,,,857.0,2026-02-28 10:59:48-08:00
131.06,2.0,8.0,2026-02-28 19:01:54,37.82919,-121.62604,106.0,2.2,66.2,-12.8,,,,,19:01:53,10.5,-0.5,53.8,0.0,20.0,0.0,-0.01,1.0,,-3.0,31.0,0.0,29.92,1916.0,,,334.0,,,,,0.0,0.0,,,,,,,6.0,,,62.0,,,,,1.0,0.0,0.0,1200.0,54.0,76.0,896.0,896.0,13.2,1.8,,1.8,34.2,,,20.5,0.0,0.0,-0.1,3.5,2.3,,,,,121.0,606.0,125.0,615.0,127.0,604.0,127.0,615.0,,,13.0,2.0,,34.2,25.0,4.995,,,1.306,1.624,53.9,76.0,,,,,,896.0,2026-02-28 10:59:48-08:00
132.06,2.0,8.0,2026-02-28 19:01:55,37.82919,-121.62603,106.0,2.7,64.8,-12.8,,,,,19:01:54,10.1,-0.5,54.5,0.0,20.0,0.2,-0.01,0.9,,-16.0,31.0,0.0,29.92,1916.0,,,334.0,,,,,0.0,0.0,,,,,,,6.0,,,60.0,,,,,1.0,0.0,0.0,1200.0,54.0,76.0,917.0,917.0,13.2,1.7,,1.7,34.1,,,20.5,0.0,0.0,-0.1,3.5,2.3,,,,,121.0,608.0,126.0,612.0,127.0,604.0,127.0,614.0,,,13.0,1.8,,34.1,25.0,4.995,,,1.15,1.62,54.2,76.1,,,,,,917.0,2026-02-28 10:59:48-08:00
133.06,2.0,8.0,2026-02-28 19:01:56,37.8292,-121.62601,107.0,3.2,65.1,-12.8,,,,,19:01:55,10.1,-0.5,55.0,0.0,20.0,0.3,-0.01,0.9,,-5.0,31.0,0.0,29.92,1916.0,,,334.0,,,,,0.0,0.0,,,,,,,6.0,,,60.0,,,,,1.0,0.0,0.0,1200.0,54.0,76.0,897.0,897.0,13.1,1.6,,1.6,34.1,,,20.5,0.0,0.0,-0.1,3.5,2.3,,,,,121.0,608.0,126.0,611.0,127.0,602.0,127.0,612.0,,,13.0,1.6,,34.1,25.0,4.995,,,1.141,1.622,53.7,76.1,,,,,,897.0,2026-02-28 10:59:48-08:00
134.06,2.0,8.0,2026-02-28 19:01:57,37.8292,-121.62599,107.0,3.7,65.5,-12.8,,,,,19:01:56,10.1,-0.6,55.4,0.0,20.0,0.3,-0.02,1.0,,8.0,31.0,0.0,29.92,1906.0,,,334.0,,,,,0.0,0.0,,,,,,,6.0,,,60.0,,,,,1.0,0.0,0.0,1200.0,54.0,76.0,901.0,901.0,13.0,1.6,,1.6,34.1,,,20.5,0.0,0.0,-0.1,3.5,2.3,,,,,121.0,607.0,126.0,611.0,127.0,600.0,127.0,611.0,,,13.0,1.4,,34.1,25.0,4.995,,,1.101,1.564,53.8,76.1,,,,,,901.0,2026-02-28 10:59:48-08:00
135.06,2.0,8.0,2026-02-28 19:01:58,37.82922,-121.62598,105.0,4.1,65.1,-12.8,,,,,19:01:57,10.1,-0.7,55.6,0.0,20.0,0.2,-0.02,0.9,,-22.0,31.0,0.0,29.92,1906.0,,,334.0,,,,,0.0,0.0,,,,,,,6.0,,,60.0,,,,,1.0,0.0,0.0,1200.0,54.0,76.0,917.0,917.0,13.0,1.5,,1.5,31.5,,,20.5,0.0,0.0,-0.2,3.5,2.3,,,,,122.0,607.0,126.0,611.0,128.0,599.0,128.0,610.0,,,13.0,1.3,,31.5,25.0,4.995,,,1.094,1.523,54.0,76.1,,,,,,917.0,2026-02-28 10:59:48-08:00
136.06,2.0,8.0,2026-02-28 19:01:59,37.82922,-121.62595,103.0,4.5,63.6,-12.8,,,,,19:01:58,10.2,-0.6,56.4,0.0,20.0,0.5,-0.01,1.1,,-14.0,31.0,0.0,29.92,1906.0,,,334.0,,,,,0.0,0.0,,,,,,,6.0,,,59.0,,,,,1.0,0.0,0.0,1200.0,54.0,76.0,904.0,904.0,12.8,1.4,,1.4,29.3,,,20.5,0.0,0.0,-0.2,3.5,2.3,,,,,122.0,606.0,127.0,610.0,128.0,597.0,128.0,610.0,,,13.0,1.3,,29.3,25.0,4.995,,,0.956,1.519,53.8,76.2,,,,,,904.0,2026-02-28 10:59:48-08:00
137.06,2.0,8.0,2026-02-28 19:02:00,37.82923,-121.62592,103.0,4.5,69.2,-12.8,,,,,19:01:59,10.2,-1.0,53.8,0.0,20.0,-1.1,-0.01,0.9,,3.0,31.0,0.0,29.92,1895.0,,,334.0,,,,,0.0,0.0,,,,,,,6.0,,,58.0,,,,,1.0,0.0,0.0,1200.0,54.0,76.0,934.0,934.0,12.6,1.4,,1.4,27.6,,,20.5,0.0,0.0,-0.2,3.5,2.3,,,,,122.0,605.0,127.0,609.0,128.0,596.0,128.0,609.0,,,13.0,1.2,,27.6,25.0,4.995,,,1.073,1.519,54.5,76.2,,,,,,934.0,2026-02-28 10:59:48-08:00
138.06,2.0,8.0,2026-02-28 19:02:01,37.82924,-121.6259,103.0,4.9,65.0,-12.8,,,,,19:02:00,10.0,-1.1,49.5,0.0,20.0,-3.1,-0.0,1.0,,-12.0,31.0,0.0,29.92,1895.0,,,334.0,,,,,0.0,0.0,,,,,,,6.0,,,58.0,,,,,1.0,0.0,0.0,1200.0,54.0,76.0,917.0,917.0,12.6,1.3,,1.3,26.1,,,20.5,0.0,0.0,-0.2,3.5,2.3,,,,,122.0,604.0,127.0,607.0,128.0,595.0,128.0,609.0,,,13.0,1.1,,26.1,25.0,4.995,,,1.094,1.531,54.0,76.2,,,,,,917.0,2026-02-28 10:59:48-08:00
139.06,2.0,8.0,2026-02-28 19:02:02,37.82925,-121.62588,103.0,5.2,60.5,-12.8,,,,,19:02:01,9.8,-1.0,45.1,0.0,20.0,-4.0,0.01,1.0,,26.0,31.0,0.0,29.92,1895.0,,,334.0,,,,,0.0,0.0,,,,,,,6.0,,,58.0,,,,,1.0,0.0,0.0,1200.0,54.0,76.0,922.0,922.0,12.4,1.3,,1.3,25.0,,,20.5,0.0,0.0,-0.2,3.5,2.3,,,,,123.0,603.0,127.0,605.0,129.0,594.0,129.0,609.0,,,13.0,1.1,,25.0,25.0,4.995,,,1.091,1.533,54.1,76.2,,,,,,922.0,2026-02-28 10:59:48-08:00
140.06,2.0,8.0,2026-02-28 19:02:03,37.82927,-121.62585,102.0,5.5,54.1,-12.8,,,,,19:02:02,10.0,-0.8,42.4,0.0,20.0,-3.6,0.04,0.9,,-10.0,31.0,0.0,29.92,1884.0,,,334.0,,,,,0.0,0.0,,,,,,,5.0,,,56.0,,,,,1.0,0.0,0.0,1200.0,54.0,76.0,896.0,896.0,12.4,1.3,,1.3,25.2,,,20.5,0.0,0.0,-0.2,3.5,2.3,,,,,123.0,602.0,127.0,602.0,129.0,592.0,129.0,609.0,,,13.0,1.1,,25.2,25.0,4.995,,,0.953,1.569,53.6,76.3,,,,,,896.0,2026-02-28 10:59:48-08:00
141.06,2.0,8.0,2026-02-28 19:02:04,37.82928,-121.62582,105.0,5.6,52.8,-12.8,,,,,19:02:03,9.9,-1.0,43.7,0.0,20.0,-0.8,-0.02,1.0,,-16.0,31.0,0.0,29.92,1884.0,,,334.0,,,,,0.0,0.0,,,,,,,5.0,,,55.0,,,,,1.0,0.0,0.0,1200.0,54.0,76.0,918.0,918.0,12.4,1.3,,1.3,25.3,,,20.5,0.0,0.0,-0.2,3.5,2.3,,,,,123.0,601.0,127.0,600.0,129.0,591.0,129.0,608.0,,,14.0,1.1,,25.3,25.0,4.995,,,1.09,1.455,53.9,76.3,,,,,,918.0,2026-02-28 10:59:48-08:00
142.06,2.0,8.0,2026-02-28 19:02:05,37.82929,-121.62579,106.0,5.6,53.8,-12.8,,,,,19:02:04,9.8,-0.9,42.6,0.0,20.0,-0.8,-0.01,1.1,,-15.0,31.0,0.0,29.92,1874.0,,,334.0,,,,,0.0,0.0,,,,,,,5.0,,,55.0,,,,,1.0,0.0,0.0,1200.0,54.0,76.0,897.0,897.0,12.4,1.2,,1.2,25.2,,,20.5,0.0,0.0,-0.2,3.5,2.3,,,,,123.0,601.0,128.0,601.0,129.0,590.0,129.0,607.0,,,14.0,1.1,,25.2,25.0,4.995,,,1.108,1.569,53.8,76.3,,,,,,897.0,2026-02-28 10:59:48-08:00
143.06,2.0,8.0,2026-02-28 19:02:06,37.82931,-121.62577,106.0,5.1,55.8,-12.8,,,,,19:02:05,9.8,-1.0,39.7,0.0,20.0,-1.9,-0.02,1.0,,-22.0,31.0,0.0,29.92,1874.0,,,334.0,,,,,0.0,0.0,,,,,,,5.0,,,55.0,,,,,1.0,0.0,0.0,1200.0,54.0,76.0,916.0,916.0,12.5,1.2,,1.2,25.3,,,20.5,0.0,0.0,-0.2,3.5,2.3,,,,,124.0,602.0,128.0,601.0,130.0,590.0,130.0,607.0,,,14.0,1.0,,25.3,25.0,4.995,,,1.332,1.58,54.2,76.3,,,,,,916.0,2026-02-28 10:59:48-08:00
144.06,2.0,8.0,2026-02-28 19:02:07,37.82932,-121.62575,106.0,4.1,52.8,-12.8,,,,,19:02:06,9.8,-0.7,34.7,0.0,20.0,-3.9,0.0,1.1,,36.0,31.0,0.0,29.92,1874.0,,,334.0,,,,,0.0,0.0,,,,,,,4.0,,,54.0,,,,,1.0,0.0,0.0,1200.0,54.0,76.0,917.0,917.0,12.3,1.2,,1.2,25.3,,,20.5,0.0,0.0,-0.2,3.5,2.3,,,,,124.0,600.0,128.0,602.0,130.0,589.0,130.0,607.0,,,14.0,1.0,,25.3,25.0,4.995,,,1.304,1.659,54.2,76.3,,,,,,917.0,2026-02-28 10:59:48-08:00
