Session Time,GPS Fix Quality,Number of Satellites,GPS Date & Time,Latitude (deg),Longitude (deg),GPS Altitude (feet),Ground Speed (knots),Ground Track (deg),Mag Var (deg),Cross Track Error (NM),Destination Waypoint ID,Range to Destination (NM),Bearing to Destination (deg),System Time,Pitch (deg),Roll (deg),Magnetic Heading (deg),Indicated Airspeed (knots),Pressure Altitude (ft),Turn Rate (deg/s),Lateral Accel (g),Vertical Accel(g),Angle of Attack (%),Vertical Speed (ft/min),OAT (deg C),True Airspeed (knots),Barometer Setting (inHg),Density Altitude (ft),Wind Direction (deg),Wind Speed (knots),Heading Bug (deg),Altitude Bug (ft),Airspeed Bug (knots),Vertical Speed Bug (ft/min),Course (deg),CDI Source Type,CDI Source Port,CDI Scale (NM),CDI Deflection (%),Glideslope (%),AP Engaged,AP Roll Mode,AP Roll Force,AP Roll Position (steps),AP Roll Slip (bool),AP Pitch Force,AP Pitch Position (steps),AP Pitch Slip (bool),AP Yaw Force,AP Yaw Position,AP Yaw Slip (bool),Transponder Status,Transponder Reply (bool),Transponder Identing (bool),Transponder Code (octal),Oil Pressure (PSI),Oil Temp (deg C),RPM L,RPM R,Manifold Pressure (inHg),Fuel Flow 1 (gal/hr),Fuel Flow 2 (gal/hr),Total Fuel Flow (gal/hr),Fuel Pressure (PSI),Fuel Level L (gal),Fuel Level R (gal),Fuel Remaining (gal),Volts 1,Volts 2,Amps,Hobbs Time,Tach Time,Thermocouple 1 (deg C),Thermocouple 2 (deg C),Thermocouple 3 (deg C),Thermocouple 4 (deg C),CHT 4 (deg C),EGT 4 (deg C),CHT 3 (deg C),EGT 3 (deg C),CHT 2 (deg C),EGT 2 (deg C),CHT 1 (deg C),EGT 1 (deg C),Thermocouple 13 (deg C),Thermocouple 14 (deg C),ELEV POSITION (%),CO PPM PRESSURE (PSI),GP Input 3,FUEL PRESSURE (PSI),AILERN POSITION (%),CANOPY CONTACT (V),GP Input 7,GP Input 8,LEFT LEVEL (Sensor V),RIGHT LEVEL (Sensor V),OIL PRESSURE (PSI),OIL TEMPERATURE (deg C),GP Input 13,Contacts,Percent Power,EGT Leaning State,Unnamed: 103,RPM,Flight ID
6.06,1.0,7.0,2026-04-30 00:54:35,37.08156,-121.59962,345.0,0.0,336.1,-12.6,,,,,00:54:34,10.8,-0.7,16.6,0.0,241.0,0.1,-0.01,1.0,99.0,-29.0,27.0,0.0,29.89,1697.0,,,144.0,,,,,0.0,0.0,,,,,,,,,,,,,,,,,,,0.0,41.0,0.0,0.0,30.0,0.0,,0.0,0.9,,,21.6,0.0,0.0,0.1,13.0,10.7,,,,,88.0,50.0,90.0,52.0,89.0,55.0,89.0,51.0,,,1.0,254.2,,0.9,3.0,0.0,,,1.304,0.829,0.0,41.0,,,,,,0.0,2026-04-29 17:54:35-07:00
7.06,1.0,7.0,2026-04-30 00:54:36,37.08156,-121.59962,322.0,0.0,336.1,-12.6,,,,,00:54:35,10.8,-0.7,16.7,0.0,240.0,0.1,-0.01,1.0,99.0,-49.0,27.0,0.0,29.89,1696.0,,,144.0,,,,,0.0,0.0,,,,,,,,,,,,,,,,,,,0.0,41.0,0.0,0.0,30.0,0.0,,0.0,0.9,,,21.6,0.0,0.0,0.1,13.0,10.7,,,,,88.0,50.0,90.0,52.0,89.0,55.0,89.0,51.0,,,1.0,254.2,,0.9,3.0,0.0,,,1.304,0.83,0.0,41.0,,,,,,0.0,2026-04-29 17:54:35-07:00
8.06,1.0,7.0,2026-04-30 00:54:37,37.08156,-121.59962,322.0,0.0,336.1,-12.6,,,,,00:54:36,10.8,-0.8,16.6,0.0,239.0,0.1,-0.01,1.0,99.0,-65.0,27.0,0.0,29.89,1696.0,,,144.0,,,,,0.0,0.0,,,,,,,,,,,,,,,,,,,0.0,41.0,0.0,0.0,30.0,0.0,,0.0,0.9,,,21.6,0.0,0.0,0.1,13.0,10.7,,,,,88.0,50.0,90.0,52.0,89.0,55.0,89.0,51.0,,,1.0,254.2,,0.9,3.0,0.0,,,1.304,0.829,0.0,40.9,,,,,,0.0,2026-04-29 17:54:35-07:00
9.06,1.0,7.0,2026-04-30 00:54:38,37.08156,-121.59962,321.0,0.0,336.1,-12.6,,,,,00:54:37,10.7,-0.7,16.6,0.0,237.0,0.1,-0.01,1.0,99.0,-70.0,27.0,0.0,29.89,1696.0,,,144.0,,,,,0.0,0.0,,,,,,,,,,,,,,,,,,,0.0,41.0,0.0,0.0,30.0,0.0,,0.0,0.9,,,21.6,0.0,0.0,0.1,13.0,10.7,,,,,88.0,50.0,90.0,52.0,89.0,55.0,89.0,51.0,,,1.0,254.2,,0.9,3.0,0.0,,,1.304,0.829,0.0,40.9,,,,,,0.0,2026-04-29 17:54:35-07:00
10.06,1.0,7.0,2026-04-30 00:54:39,37.08156,-121.59962,321.0,0.0,336.1,-12.6,,,,,00:54:38,10.8,-0.7,16.7,0.0,235.0,0.1,-0.01,1.0,99.0,-71.0,27.0,0.0,29.89,1700.0,,,144.0,,,,,0.0,0.0,,,,,,,,,,,,,,,,,,,0.0,41.0,0.0,0.0,30.0,0.0,,0.0,0.9,,,21.6,0.0,0.0,0.1,13.0,10.7,,,,,88.0,50.0,90.0,52.0,89.0,55.0,89.0,51.0,,,1.0,254.2,,0.9,3.0,0.0,,,1.304,0.83,0.0,40.9,,,,,,0.0,2026-04-29 17:54:35-07:00
11.06,1.0,7.0,2026-04-30 00:54:40,37.08156,-121.59962,321.0,0.0,336.1,-12.6,,,,,00:54:39,10.8,-0.7,16.7,0.0,235.0,0.1,-0.01,1.0,99.0,-51.0,27.0,0.0,29.89,1700.0,,,144.0,,,,,0.0,0.0,,,,,,,,,,,,,,,,,,,0.0,41.0,0.0,0.0,30.0,0.0,,0.0,0.9,,,21.6,0.0,0.0,0.1,13.0,10.7,,,,,88.0,50.0,90.0,52.0,89.0,55.0,89.0,51.0,,,1.0,254.2,,0.9,3.0,0.0,,,1.304,0.829,0.0,40.9,,,,,,0.0,2026-04-29 17:54:35-07:00
12.06,1.0,7.0,2026-04-30 00:54:41,37.08156,-121.59962,321.0,0.0,336.1,-12.6,,,,,00:54:40,10.7,-0.7,16.7,0.0,235.0,0.1,-0.01,1.0,99.0,-31.0,27.0,0.0,29.89,1700.0,,,144.0,,,,,0.0,0.0,,,,,,,,,,,,,,,,,,,0.0,41.0,0.0,0.0,30.0,0.0,,0.0,0.9,,,21.6,0.0,0.0,0.1,13.0,10.7,,,,,88.0,50.0,90.0,52.0,89.0,55.0,89.0,51.0,,,1.0,254.2,,0.9,3.0,0.0,,,1.304,0.829,0.0,40.9,,,,,,0.0,2026-04-29 17:54:35-07:00
13.06,1.0,7.0,2026-04-30 00:54:42,37.08156,-121.59962,322.0,0.1,336.1,-12.6,,,,,00:54:41,10.7,-0.7,16.7,0.0,235.0,0.1,-0.01,1.0,99.0,-4.0,27.0,0.0,29.89,1701.0,,,144.0,,,,,0.0,0.0,,,,,,,,,,,,,,,,,,,0.0,41.0,0.0,0.0,30.0,0.0,,0.0,0.9,,,21.6,0.0,0.0,0.1,13.0,10.7,,,,,88.0,50.0,90.0,52.0,89.0,55.0,89.0,51.0,,,1.0,254.2,,0.9,3.0,0.0,,,1.304,0.831,0.0,40.9,,,,,,0.0,2026-04-29 17:54:35-07:00
14.06,1.0,7.0,2026-04-30 00:54:43,37.08156,-121.59962,322.0,0.0,336.1,-12.6,,,,,00:54:42,10.8,-0.7,16.7,0.0,235.0,0.1,-0.01,1.0,99.0,6.0,27.0,0.0,29.89,1701.0,,,144.0,,,,,0.0,0.0,,,,,,,,,,,,,,,,,,,0.0,41.0,0.0,0.0,30.0,0.0,,0.0,0.9,,,21.6,0.0,0.0,0.1,13.0,10.7,,,,,88.0,50.0,90.0,52.0,89.0,55.0,89.0,51.0,,,1.0,254.2,,0.9,3.0,0.0,,,1.304,0.829,0.0,40.9,,,,,,0.0,2026-04-29 17:54:35-07:00
15.06,1.0,7.0,2026-04-30 00:54:44,37.08156,-121.59962,321.0,0.0,336.1,-12.6,,,,,00:54:43,10.8,-0.7,16.7,0.0,235.0,0.1,-0.01,1.0,99.0,23.0,27.0,0.0,29.89,1701.0,,,144.0,,,,,0.0,0.0,,,,,,,,,,,,,,,,,,,0.0,41.0,0.0,0.0,30.0,0.0,,0.0,0.9,,,21.6,0.0,0.0,0.1,13.0,10.7,,,,,88.0,50.0,90.0,52.0,88.0,55.0,89.0,51.0,,,1.0,254.2,,0.9,3.0,0.0,,,1.304,0.829,0.0,40.9,,,,,,0.0,2026-04-29 17:54:35-07:00
16.06,1.0,7.0,2026-04-30 00:54:45,37.08156,-121.59962,321.0,0.0,336.1,-12.6,,,,,00:54:44,10.8,-0.7,16.7,0.0,235.0,0.1,-0.01,1.0,99.0,5.0,27.0,0.0,29.89,1701.0,,,144.0,,,,,0.0,0.0,,,,,,,,,,,,,,,,,,,0.0,41.0,0.0,0.0,30.0,0.0,,0.0,0.1,,,21.6,0.0,0.0,0.0,13.0,10.7,,,,,88.0,50.0,90.0,52.0,88.0,55.0,89.0,51.0,,,1.0,254.2,,0.1,3.0,0.0,,,1.304,0.831,0.0,40.9,,,,,,0.0,2026-04-29 17:54:35-07:00
17.06,1.0,7.0,2026-04-30 00:54:46,37.08156,-121.59961,320.0,0.1,336.1,-12.6,,,,,00:54:45,10.8,-0.7,16.7,0.0,235.0,0.1,-0.01,1.0,99.0,4.0,27.0,0.0,29.89,1702.0,,,144.0,,,,,0.0,0.0,,,,,,,,,,,,,,,,,,,0.0,41.0,0.0,0.0,30.0,0.0,,0.0,0.0,,,21.6,0.0,0.0,0.0,13.0,10.7,,,,,88.0,50.0,90.0,52.0,88.0,55.0,89.0,51.0,,,1.0,254.2,,0.0,3.0,0.0,,,1.304,0.83,0.0,40.9,,,,,,0.0,2026-04-29 17:54:35-07:00
18.06,1.0,7.0,2026-04-30 00:54:47,37.08156,-121.59961,320.0,0.0,336.1,-12.6,,,,,00:54:46,10.9,-0.7,16.8,0.0,235.0,0.1,-0.01,1.0,99.0,1.0,27.0,0.0,29.89,1702.0,,,144.0,,,,,0.0,0.0,,,,,,,,,,,,,,,,,,,0.0,41.0,0.0,0.0,30.0,0.1,,0.1,0.0,,,21.6,0.0,0.0,0.0,13.0,10.7,,,,,88.0,50.0,90.0,52.0,88.0,55.0,89.0,51.0,,,1.0,254.2,,0.0,3.0,0.0,,,1.304,0.829,0.0,41.0,,,,,,0.0,2026-04-29 17:54:35-07:00
19.06,1.0,7.0,2026-04-30 00:54:48,37.08156,-121.59961,319.0,0.0,336.1,-12.6,,,,,00:54:47,10.8,-0.7,16.7,0.0,235.0,0.1,-0.01,1.0,99.0,9.0,27.0,0.0,29.89,1702.0,,,144.0,,,,,0.0,0.0,,,,,,,,,,,,,,,,,,,0.0,41.0,0.0,0.0,30.0,0.1,,0.1,0.0,,,21.6,0.0,0.0,0.0,13.0,10.7,,,,,88.0,50.0,90.0,52.0,88.0,55.0,89.0,51.0,,,0.0,254.2,,0.0,3.0,0.0,,,1.304,0.829,0.0,40.9,,,,,,0.0,2026-04-29 17:54:35-07:00
20.06,1.0,7.0,2026-04-30 00:54:49,37.08156,-121.59961,318.0,0.0,336.1,-12.6,,,,,00:54:48,10.9,-0.7,16.8,0.0,235.0,0.1,-0.01,1.0,99.0,8.0,27.0,0.0,29.89,1711.0,,,144.0,,,,,0.0,0.0,,,,,,,,,,,,,,,,,,,0.0,41.0,0.0,0.0,30.0,0.0,,0.0,0.0,,,21.6,0.0,0.0,0.0,13.0,10.7,,,,,88.0,50.0,90.0,52.0,88.0,55.0,89.0,51.0,,,0.0,254.2,,0.0,3.0,0.0,,,1.304,0.829,0.0,41.0,,,,,,0.0,2026-04-29 17:54:35-07:00
21.06,1.0,7.0,2026-04-30 00:54:50,37.08156,-121.59961,317.0,0.0,336.1,-12.6,,,,,00:54:49,10.8,-0.8,16.8,0.0,235.0,0.1,-0.01,1.0,99.0,19.0,27.0,0.0,29.89,1711.0,,,144.0,,,,,0.0,0.0,,,,,,,,,,,,,,,,,,,0.0,41.0,0.0,0.0,30.0,0.0,,0.0,0.0,,,21.6,0.0,0.0,0.0,13.0,10.7,,,,,88.0,50.0,90.0,52.0,88.0,55.0,89.0,51.0,,,0.0,254.2,,0.0,3.0,0.0,,,1.304,0.829,0.0,41.0,,,,,,0.0,2026-04-29 17:54:35-07:00
22.06,1.0,7.0,2026-04-30 00:54:51,37.08156,-121.59961,315.0,0.0,336.1,-12.6,,,,,00:54:50,10.8,-0.8,16.7,0.0,235.0,0.1,-0.01,1.0,99.0,-22.0,27.0,0.0,29.89,1711.0,,,144.0,,,,,0.0,0.0,,,,,,,,,,,,,,,,,,,0.0,41.0,0.0,0.0,30.0,0.0,,0.0,0.0,,,21.6,0.0,0.0,0.0,13.0,10.7,,,,,88.0,50.0,90.0,52.0,88.0,55.0,89.0,51.0,,,0.0,254.2,,0.0,3.0,0.0,,,1.304,0.829,0.0,41.0,,,,,,0.0,2026-04-29 17:54:35-07:00
23.06,1.0,7.0,2026-04-30 00:54:52,37.08156,-121.59961,314.0,0.0,336.1,-12.6,,,,,00:54:51,10.8,-0.8,16.7,0.0,235.0,0.1,-0.01,1.0,99.0,-59.0,27.0,0.0,29.89,1711.0,,,144.0,,,,,0.0,0.0,,,,,,,,,,,,,,,,,,,0.0,41.0,0.0,0.0,30.0,0.0,,0.0,0.0,,,21.6,0.0,0.0,0.0,13.0,10.7,,,,,88.0,50.0,90.0,52.0,88.0,55.0,89.0,51.0,,,0.0,254.2,,0.0,3.0,0.0,,,1.304,0.829,0.0,41.0,,,,,,0.0,2026-04-29 17:54:35-07:00
24.06,1.0,7.0,2026-04-30 00:54:53,37.08156,-121.59961,313.0,0.0,336.1,-12.6,,,,,00:54:52,10.8,-0.8,16.7,0.0,235.0,0.1,-0.01,1.0,99.0,-69.0,27.0,0.0,29.89,1712.0,,,144.0,,,,,0.0,0.0,,,,,,,,,,,,,,,,,,,0.0,41.0,0.0,0.0,30.0,0.0,,0.0,0.0,,,21.6,0.0,0.0,0.0,13.0,10.7,,,,,88.0,50.0,90.0,52.0,88.0,55.0,89.0,51.0,,,0.0,254.2,,0.0,3.0,0.0,,,1.304,0.829,0.0,41.0,,,,,,0.0,2026-04-29 17:54:35-07:00
25.06,1.0,7.0,2026-04-30 00:54:54,37.08156,-121.59961,311.0,0.0,336.1,-12.6,,,,,00:54:53,10.8,-0.8,16.6,0.0,234.0,0.1,-0.01,1.0,99.0,-52.0,27.0,0.0,29.89,1712.0,,,144.0,,,,,0.0,0.0,,,,,,,,,,,,,,,,,,,0.0,41.0,0.0,0.0,30.0,0.0,,0.0,0.0,,,21.6,0.0,0.0,0.0,13.0,10.7,,,,,88.0,50.0,90.0,52.0,88.0,55.0,89.0,51.0,,,0.0,254.2,,0.0,3.0,0.0,,,1.304,0.829,0.0,41.0,,,,,,0.0,2026-04-29 17:54:35-07:00
26.06,1.0,7.0,2026-04-30 00:54:55,37.08156,-121.59961,310.0,0.0,336.1,-12.6,,,,,00:54:54,10.9,-0.8,16.6,0.0,234.0,0.1,-0.01,1.0,99.0,-44.0,27.0,0.0,29.89,1712.0,,,144.0,,,,,0.0,0.0,,,,,,,,,,,,,,,,,,,0.0,41.0,0.0,0.0,30.0,0.0,,0.0,0.0,,,21.6,0.0,0.0,0.0,13.0,10.7,,,,,88.0,50.0,90.0,52.0,88.0,55.0,89.0,51.0,,,0.0,254.2,,0.0,3.0,0.0,,,1.304,0.829,0.0,41.0,,,,,,0.0,2026-04-29 17:54:35-07:00
27.06,1.0,7.0,2026-04-30 00:54:56,37.08156,-121.59962,309.0,0.0,336.1,-12.6,,,,,00:54:55,10.9,-0.8,16.6,0.0,233.0,0.1,-0.01,1.0,99.0,-52.0,27.0,0.0,29.89,1720.0,,,144.0,,,,,0.0,0.0,,,,,,,,,,,,,,,,,,,0.0,41.0,0.0,0.0,30.0,0.0,,0.0,0.0,,,21.6,0.0,0.0,0.0,13.0,10.7,,,,,88.0,50.0,90.0,52.0,88.0,55.0,89.0,51.0,,,0.0,254.2,,0.0,3.0,0.0,,,1.304,0.829,0.0,41.0,,,,,,0.0,2026-04-29 17:54:35-07:00
28.06,1.0,7.0,2026-04-30 00:54:57,37.08156,-121.59962,308.0,0.0,336.1,-12.6,,,,,00:54:56,10.9,-0.8,16.6,0.0,232.0,0.1,-0.01,1.0,99.0,-50.0,27.0,0.0,29.89,1720.0,,,144.0,,,,,0.0,0.0,,,,,,,,,,,,,,,,,,,0.0,41.0,0.0,0.0,30.0,0.0,,0.0,0.0,,,21.6,0.0,0.0,0.0,13.0,10.7,,,,,88.0,50.0,90.0,52.0,88.0,55.0,89.0,51.0,,,0.0,254.2,,0.0,3.0,0.0,,,1.304,0.829,0.0,41.0,,,,,,0.0,2026-04-29 17:54:35-07:00
29.06,1.0,7.0,2026-04-30 00:54:58,37.08156,-121.59962,307.0,0.0,336.1,-12.6,,,,,00:54:57,10.9,-0.8,16.6,0.0,230.0,0.1,-0.01,1.0,99.0,-88.0,27.0,0.0,29.89,1720.0,,,144.0,,,,,0.0,0.0,,,,,,,,,,,,,,,,,,,0.0,41.0,0.0,0.0,30.0,0.0,,0.0,2.3,,,21.6,0.0,0.0,0.0,13.0,10.7,,,,,88.0,50.0,90.0,53.0,88.0,55.0,89.0,51.0,,,0.0,254.2,,2.3,3.0,0.0,,,1.304,0.829,0.0,41.0,,,,,,0.0,2026-04-29 17:54:35-07:00
30.06,1.0,7.0,2026-04-30 00:54:59,37.08156,-121.59962,306.0,0.0,336.1,-12.6,,,,,00:54:58,10.9,-0.7,16.6,0.0,229.0,0.1,-0.01,1.0,99.0,-92.0,27.0,0.0,29.89,1715.0,,,144.0,,,,,0.0,0.0,,,,,,,,,,,,,,,,,,,0.0,41.0,0.0,0.0,30.0,1.2,,1.2,31.0,,,21.6,0.0,0.0,-0.0,13.0,10.7,,,,,88.0,50.0,90.0,53.0,88.0,55.0,89.0,51.0,,,0.0,254.2,,31.0,3.0,0.0,,,1.304,0.829,0.0,41.0,,,,,,0.0,2026-04-29 17:54:35-07:00
31.06,1.0,7.0,2026-04-30 00:55:00,37.08156,-121.59962,306.0,0.0,336.1,-12.6,,,,,00:54:59,10.9,-0.7,16.6,0.0,226.0,0.1,-0.01,1.0,99.0,-110.0,27.0,0.0,29.89,1715.0,,,144.0,,,,,0.0,0.0,,,,,,,,,,,,,,,,,,,0.0,41.0,0.0,0.0,30.0,2.1,,2.1,32.2,,,21.6,0.0,0.0,-0.0,13.0,10.7,,,,,88.0,50.0,90.0,52.0,88.0,55.0,89.0,51.0,,,0.0,254.2,,32.2,3.0,0.0,,,1.304,0.829,0.0,41.0,,,,,,0.0,2026-04-29 17:54:35-07:00
32.06,1.0,7.0,2026-04-30 00:55:01,37.08156,-121.59962,305.0,0.0,336.1,-12.6,,,,,00:55:00,10.8,-0.7,16.6,0.0,224.0,0.0,-0.01,1.0,99.0,-129.0,27.0,0.0,29.89,1715.0,,,144.0,,,,,0.0,0.0,,,,,,,,,,,,,,,,,,,0.0,41.0,0.0,0.0,30.0,1.8,,1.8,32.6,,,21.6,0.0,0.0,-0.0,13.0,10.7,,,,,88.0,50.0,90.0,52.0,88.0,55.0,89.0,51.0,,,0.0,254.2,,32.6,3.0,0.0,,,1.304,0.829,0.0,41.0,,,,,,0.0,2026-04-29 17:54:35-07:00
33.06,1.0,7.0,2026-04-30 00:55:02,37.08156,-121.59962,304.0,0.0,336.1,-12.6,,,,,00:55:01,10.9,-0.7,16.7,0.0,224.0,0.1,-0.01,1.0,99.0,-78.0,27.0,0.0,29.89,1718.0,,,144.0,,,,,0.0,0.0,,,,,,,,,,,,,,,,,,,0.0,41.0,0.0,0.0,30.0,1.8,,1.8,32.3,,,21.6,0.0,0.0,-0.0,13.0,10.7,,,,,88.0,50.0,90.0,52.0,88.0,55.0,89.0,51.0,,,0.0,254.2,,32.3,3.0,0.0,,,1.304,0.829,0.0,41.0,,,,,,0.0,2026-04-29 17:54:35-07:00
34.06,1.0,7.0,2026-04-30 00:55:03,37.08156,-121.59962,303.0,0.0,336.1,-12.6,,,,,00:55:02,10.9,-0.7,16.7,0.0,222.0,0.1,-0.01,1.0,99.0,-83.0,27.0,0.0,29.89,1718.0,,,144.0,,,,,0.0,0.0,,,,,,,,,,,,,,,,,,,0.0,41.0,0.0,0.0,30.0,1.8,,1.8,32.0,,,21.6,0.0,0.0,-0.0,13.0,10.7,,,,,88.0,50.0,90.0,53.0,88.0,55.0,89.0,51.0,,,0.0,254.2,,32.0,3.0,0.0,,,1.304,0.829,0.0,41.0,,,,,,0.0,2026-04-29 17:54:35-07:00
35.06,1.0,7.0,2026-04-30 00:55:04,37.08156,-121.59962,302.0,0.0,336.1,-12.6,,,,,00:55:03,10.9,-0.7,16.7,0.0,221.0,0.1,-0.01,1.0,99.0,-107.0,27.0,0.0,29.89,1718.0,,,144.0,,,,,0.0,0.0,,,,,,,,,,,,,,,,,,,0.0,41.0,0.0,0.0,30.0,0.0,,0.0,31.8,,,21.6,0.0,0.0,-0.0,13.0,10.7,,,,,88.0,50.0,90.0,52.0,88.0,55.0,89.0,51.0,,,0.0,254.2,,31.8,3.0,0.0,,,1.304,0.829,0.0,41.0,,,,,,0.0,2026-04-29 17:54:35-07:00
36.06,1.0,7.0,2026-04-30 00:55:05,37.08156,-121.59962,301.0,0.1,336.1,-12.6,,,,,00:55:04,10.9,-0.7,16.8,0.0,219.0,0.1,-0.01,1.0,99.0,-100.0,27.0,0.0,29.89,1713.0,,,144.0,,,,,0.0,0.0,,,,,,,,,,,,,,,,,,,0.0,41.0,0.0,0.0,30.0,0.0,,0.0,31.6,,,21.6,0.0,0.0,-0.0,13.0,10.7,,,,,88.0,50.0,90.0,52.0,88.0,55.0,89.0,51.0,,,0.0,254.2,,31.6,3.0,0.0,,,1.304,0.829,0.0,41.0,,,,,,0.0,2026-04-29 17:54:35-07:00
37.06,1.0,7.0,2026-04-30 00:55:06,37.08156,-121.59962,301.0,0.0,336.1,-12.6,,,,,00:55:05,10.9,-0.7,16.8,0.0,217.0,0.1,-0.01,1.0,99.0,-95.0,27.0,0.0,29.89,1713.0,,,144.0,,,,,0.0,0.0,,,,,,,,,,,,,,,,,,,0.0,41.0,0.0,0.0,30.0,0.0,,0.0,31.4,,,21.6,0.0,0.0,-0.0,13.0,10.7,,,,,88.0,50.0,90.0,53.0,88.0,55.0,89.0,51.0,,,0.0,254.2,,31.4,3.0,0.0,,,1.304,0.829,0.0,41.0,,,,,,0.0,2026-04-29 17:54:35-07:00
38.06,1.0,7.0,2026-04-30 00:55:07,37.08156,-121.59962,300.0,0.0,336.1,-12.6,,,,,00:55:06,10.8,-0.7,16.8,0.0,216.0,0.1,-0.01,1.0,99.0,-86.0,27.0,0.0,29.89,1713.0,,,144.0,,,,,0.0,0.0,,,,,,,,,,,,,,,,,,,0.0,41.0,0.0,0.0,30.0,0.0,,0.0,31.2,,,21.6,0.0,0.0,-0.0,13.0,10.7,,,,,88.0,50.0,90.0,52.0,88.0,55.0,89.0,51.0,,,0.0,254.2,,31.2,3.0,0.0,,,1.304,0.829,0.0,41.0,,,,,,0.0,2026-04-29 17:54:35-07:00
39.06,1.0,7.0,2026-04-30 00:55:08,37.08156,-121.59961,299.0,0.0,336.1,-12.6,,,,,00:55:07,10.8,-0.7,16.7,0.0,216.0,0.0,-0.01,1.0,99.0,-32.0,27.0,0.0,29.89,1718.0,,,144.0,,,,,0.0,0.0,,,,,,,,,,,,,,,,,,,0.0,41.0,0.0,0.0,30.0,0.0,,0.0,31.0,,,21.6,0.0,0.0,-0.0,13.0,10.7,,,,,88.0,50.0,90.0,52.0,88.0,55.0,89.0,51.0,,,0.0,254.2,,31.0,3.0,0.0,,,1.304,0.829,0.0,41.1,,,,,,0.0,2026-04-29 17:54:35-07:00
40.06,1.0,7.0,2026-04-30 00:55:09,37.08156,-121.59961,298.0,0.0,336.1,-12.6,,,,,00:55:08,10.9,-0.7,16.8,0.0,216.0,0.1,-0.01,1.0,99.0,-48.0,27.0,0.0,29.89,1718.0,,,144.0,,,,,0.0,0.0,,,,,,,,,,,,,,,,,,,0.0,41.0,0.0,0.0,30.0,0.0,,0.0,30.9,,,21.6,0.0,0.0,-0.0,13.0,10.7,,,,,88.0,50.0,90.0,52.0,88.0,55.0,89.0,51.0,,,0.0,231.5,,30.9,3.0,0.0,,,1.304,0.829,0.0,41.1,,,,,,0.0,2026-04-29 17:54:35-07:00
41.06,1.0,7.0,2026-04-30 00:55:10,37.08156,-121.59961,298.0,0.0,336.1,-12.6,,,,,00:55:09,10.9,-0.7,16.8,0.0,216.0,0.1,-0.01,1.0,99.0,-14.0,27.0,0.0,29.89,1719.0,,,144.0,,,,,0.0,0.0,,,,,,,,,,,,,,,,,,,0.0,41.0,0.0,0.0,30.0,0.0,,0.0,30.7,,,21.6,0.0,0.0,-0.0,13.0,10.7,,,,,88.0,50.0,90.0,52.0,88.0,55.0,89.0,51.0,,,0.0,180.2,,30.7,3.0,0.0,,,1.304,0.828,0.0,41.1,,,,,,0.0,2026-04-29 17:54:35-07:00
42.06,1.0,7.0,2026-04-30 00:55:11,37.08156,-121.59961,297.0,0.0,336.1,-12.6,,,,,00:55:10,10.9,-0.7,16.8,0.0,215.0,0.1,-0.01,1.0,99.0,-59.0,27.0,0.0,29.89,1719.0,,,144.0,,,,,0.0,0.0,,,,,,,,,,,,,,,,,,,0.0,41.0,0.0,0.0,30.0,0.0,,0.0,30.6,,,21.6,0.0,0.0,-0.0,13.0,10.7,,,,,88.0,50.0,90.0,52.0,88.0,55.0,89.0,51.0,,,0.0,140.3,,30.6,3.0,0.0,,,1.304,0.828,0.0,41.1,,,,,,0.0,2026-04-29 17:54:35-07:00
43.06,1.0,7.0,2026-04-30 00:55:12,37.08156,-121.59961,296.0,0.0,336.1,-12.6,,,,,00:55:11,10.9,-0.6,16.9,0.0,214.0,0.1,-0.01,1.0,99.0,-65.0,27.0,0.0,29.89,1719.0,,,144.0,,,,,0.0,0.0,,,,,,,,,,,,,,,,,,,0.0,34.0,0.0,0.0,30.0,0.0,,0.0,30.5,,,21.6,0.0,0.0,-0.0,13.0,10.7,,,,,83.0,44.0,85.0,46.0,83.0,48.0,84.0,45.0,,,0.0,109.2,,30.5,3.0,0.0,,,1.302,0.828,0.0,34.2,,,,,,0.0,2026-04-29 17:54:35-07:00
44.06,1.0,7.0,2026-04-30 00:55:13,37.08156,-121.59961,296.0,0.0,336.1,-12.6,,,,,00:55:12,10.8,-0.6,16.9,0.0,213.0,0.1,-0.01,1.0,99.0,-52.0,27.0,0.0,29.89,1727.0,,,144.0,,,,,0.0,0.0,,,,,,,,,,,,,,,,,,,0.0,37.0,188.0,188.0,29.9,0.8,,0.8,25.6,,,21.6,0.0,0.0,-0.1,13.0,10.7,,,,,85.0,47.0,87.0,49.0,86.0,52.0,86.0,48.0,,,0.0,85.1,,25.6,3.0,0.0,,,1.304,0.829,0.4,37.1,,,,,,188.0,2026-04-29 17:54:35-07:00
45.06,1.0,7.0,2026-04-30 00:55:14,37.08156,-121.59961,295.0,0.0,336.1,-12.6,,,,,00:55:13,10.8,-0.6,16.9,0.0,212.0,0.1,-0.01,1.0,99.0,-52.0,27.0,0.0,29.89,1727.0,,,144.0,,,,,0.0,0.0,,,,,,,,,,,,,,,,,,,2.0,37.0,194.0,194.0,29.8,1.4,,1.4,20.1,,,21.6,0.0,0.0,-0.1,13.0,10.7,,,,,85.0,47.0,87.0,50.0,86.0,52.0,86.0,48.0,,,0.0,66.4,,20.1,3.0,0.0,,,1.302,0.83,1.7,37.2,,,,,,194.0,2026-04-29 17:54:35-07:00
46.06,1.0,7.0,2026-04-30 00:55:15,37.08156,-121.59961,295.0,0.1,336.1,-12.6,,,,,00:55:14,10.9,-0.7,17.0,0.0,212.0,0.1,-0.01,1.0,99.0,-59.0,27.0,0.0,29.89,1727.0,,,144.0,,,,,0.0,0.0,,,,,,,,,,,,,,,,,,,8.0,37.0,195.0,195.0,29.8,2.1,,2.1,21.3,,,21.6,0.0,0.0,-0.2,13.0,10.7,,,,,85.0,48.0,87.0,50.0,86.0,52.0,86.0,49.0,,,0.0,51.8,,21.3,3.0,0.0,,,1.302,0.829,8.4,37.2,,,,,,195.0,2026-04-29 17:54:35-07:00
47.06,1.0,7.0,2026-04-30 00:55:16,37.08155,-121.5996,295.0,0.0,336.1,-12.6,,,,,00:55:15,10.9,-0.7,17.0,0.0,212.0,0.1,-0.01,1.0,99.0,-39.0,27.0,0.0,29.89,1723.0,,,144.0,,,,,0.0,0.0,,,,,,,,,,,,,,,,,,,23.0,37.0,194.0,194.0,29.6,2.7,,2.7,18.0,,,21.6,0.0,0.0,-0.2,13.0,10.7,,,,,85.0,49.0,87.0,51.0,86.0,53.0,86.0,49.0,,,0.0,40.5,,18.0,3.0,0.0,,,1.302,0.828,23.4,37.1,,,9.0,L,,194.0,2026-04-29 17:54:35-07:00
48.06,1.0,7.0,2026-04-30 00:55:17,37.08155,-121.5996,294.0,0.0,336.1,-12.6,,,,,00:55:16,10.9,-0.7,16.9,0.0,212.0,0.1,-0.01,1.0,99.0,-8.0,27.0,0.0,29.89,1723.0,,,144.0,,,,,0.0,0.0,,,,,,,,,,,,,,,,,,,37.0,37.0,193.0,193.0,29.6,3.1,,3.1,20.5,,,21.6,0.0,0.0,-0.2,13.0,10.7,,,,,85.0,49.0,87.0,51.0,86.0,53.0,86.0,50.0,,,0.0,31.7,,20.5,3.0,0.0,,,1.302,0.826,37.1,37.2,,,18.0,L,,193.0,2026-04-29 17:54:35-07:00
49.06,1.0,7.0,2026-04-30 00:55:18,37.08155,-121.5996,295.0,0.0,336.1,-12.6,,,,,00:55:17,10.9,-0.8,16.9,0.0,212.0,0.1,-0.01,1.1,99.0,30.0,27.0,0.0,29.89,1723.0,,,144.0,,,,,0.0,0.0,,,,,,,,,,,,,,,,,,,42.0,37.0,192.0,192.0,29.6,3.5,,3.5,20.0,,,21.5,0.0,0.0,-0.2,13.0,10.7,,,,,85.0,50.0,87.0,52.0,85.0,53.0,86.0,50.0,,,0.0,24.8,,20.0,3.0,0.0,,,1.304,0.826,41.9,37.2,,,24.0,P,,192.0,2026-04-29 17:54:35-07:00
50.06,1.0,7.0,2026-04-30 00:55:19,37.08155,-121.5996,295.0,0.0,336.1,-12.6,,,,,00:55:18,10.9,-0.7,16.7,0.0,212.0,0.1,-0.01,1.0,99.0,32.0,27.0,0.0,29.89,1723.0,,,144.0,,,,,0.0,0.0,,,,,,,,,,,,,,,,,,,43.0,37.0,192.0,192.0,29.6,3.8,,3.8,17.6,,,21.5,0.0,0.0,-0.2,13.0,10.7,,,,,85.0,50.0,87.0,52.0,85.0,53.0,86.0,50.0,,,0.0,19.5,,17.6,3.0,0.0,,,1.304,0.826,42.8,37.2,,,28.0,P,,192.0,2026-04-29 17:54:35-07:00
51.06,1.0,7.0,2026-04-30 00:55:20,37.08155,-121.5996,295.0,0.0,336.1,-12.6,,,,,00:55:19,10.9,-0.7,16.7,0.0,212.0,0.1,-0.01,1.0,99.0,20.0,27.0,0.0,29.89,1724.0,,,144.0,,,,,0.0,0.0,,,,,,,,,,,,,,,,,,,42.0,41.0,107.0,107.0,29.6,3.3,,3.3,24.7,,,21.5,0.0,0.0,-0.2,13.0,10.7,,,,,88.0,54.0,90.0,56.0,88.0,57.0,89.0,54.0,,,0.0,15.4,,24.7,3.0,0.0,,,1.304,0.829,42.2,41.3,,,29.0,P,,107.0,2026-04-29 17:54:35-07:00
52.06,1.0,7.0,2026-04-30 00:55:21,37.08155,-121.5996,296.0,0.1,336.1,-12.6,,,,,00:55:20,10.9,-0.7,16.7,0.0,212.0,0.1,-0.0,1.0,99.0,36.0,27.0,0.0,29.89,1724.0,,,144.0,,,,,0.0,0.0,,,,,,,,,,,,,,,,,,,29.0,41.0,107.0,107.0,29.8,2.9,,2.9,24.3,,,21.5,0.0,0.0,-0.1,13.0,10.7,,,,,88.0,54.0,90.0,56.0,88.0,57.0,88.0,54.0,,,0.0,12.2,,24.3,3.0,0.0,,,1.304,0.828,28.6,41.2,,,26.0,L,,107.0,2026-04-29 17:54:35-07:00
53.06,1.0,7.0,2026-04-30 00:55:22,37.08155,-121.59959,296.0,0.0,336.1,-12.6,,,,,00:55:21,10.9,-0.6,16.8,0.0,212.0,0.1,-0.01,1.0,99.0,45.0,27.0,0.0,29.89,1724.0,,,144.0,,,,,0.0,0.0,,,,,,,,,,,,,,,,,,,21.0,41.0,0.0,0.0,29.8,2.9,,2.9,24.2,,,21.5,0.0,0.0,-0.1,13.0,10.7,,,,,88.0,54.0,90.0,56.0,88.0,57.0,88.0,54.0,,,0.0,9.7,,24.2,3.0,0.0,,,1.304,0.828,20.9,41.2,,,25.0,P,,0.0,2026-04-29 17:54:35-07:00
54.06,1.0,7.0,2026-04-30 00:55:23,37.08155,-121.59959,297.0,0.0,336.1,-12.6,,,,,00:55:22,10.9,-0.8,16.7,0.0,212.0,0.1,-0.01,1.0,99.0,60.0,27.0,0.0,29.89,1734.0,,,144.0,,,,,0.0,0.0,,,,,,,,,,,,,,,,,,,16.0,41.0,0.0,0.0,29.8,0.0,,0.0,24.0,,,21.5,0.0,0.0,-0.1,13.0,10.7,,,,,88.0,54.0,90.0,56.0,88.0,57.0,88.0,54.0,,,0.0,7.7,,24.0,3.0,0.0,,,1.304,0.828,16.1,41.2,,,,,,0.0,2026-04-29 17:54:35-07:00
55.06,1.0,7.0,2026-04-30 00:55:24,37.08155,-121.59959,297.0,0.1,336.1,-12.6,,,,,00:55:23,10.9,-0.7,16.8,0.0,212.0,0.1,-0.01,1.0,99.0,65.0,27.0,0.0,29.89,1734.0,,,144.0,,,,,0.0,0.0,,,,,,,,,,,,,,,,,,,13.0,41.0,0.0,0.0,30.0,0.0,,0.0,23.9,,,21.5,0.0,0.0,-0.1,13.0,10.7,,,,,88.0,54.0,89.0,56.0,88.0,57.0,88.0,54.0,,,0.0,6.2,,23.9,3.0,0.0,,,1.304,0.828,13.0,41.2,,,,,,0.0,2026-04-29 17:54:35-07:00
56.06,1.0,7.0,2026-04-30 00:55:25,37.08155,-121.59959,298.0,0.0,336.1,-12.6,,,,,00:55:24,10.9,-0.7,16.7,0.0,212.0,0.1,-0.01,1.0,99.0,26.0,27.0,0.0,29.89,1734.0,,,144.0,,,,,0.0,0.0,,,,,,,,,,,,,,,,,,,11.0,41.0,0.0,0.0,30.0,0.0,,0.0,23.9,,,21.5,0.0,0.0,-0.1,13.0,10.7,,,,,87.0,54.0,90.0,56.0,88.0,57.0,88.0,54.0,,,0.0,5.1,,23.9,3.0,0.0,,,1.304,0.828,10.7,41.2,,,,,,0.0,2026-04-29 17:54:35-07:00
57.06,1.0,7.0,2026-04-30 00:55:26,37.08155,-121.59959,299.0,0.0,336.1,-12.6,,,,,00:55:25,10.9,-0.7,16.7,0.0,212.0,0.1,-0.01,1.0,99.0,-18.0,27.0,0.0,29.89,1734.0,,,144.0,,,,,0.0,0.0,,,,,,,,,,,,,,,,,,,9.0,41.0,0.0,0.0,30.0,0.0,,0.0,23.8,,,21.5,0.0,0.0,-0.1,13.0,10.7,,,,,87.0,54.0,89.0,56.0,88.0,57.0,88.0,54.0,,,0.0,4.1,,23.8,3.0,0.0,,,1.304,0.826,9.0,41.2,,,,,,0.0,2026-04-29 17:54:35-07:00
58.06,1.0,7.0,2026-04-30 00:55:27,37.08155,-121.59959,300.0,0.0,336.1,-12.6,,,,,00:55:26,10.9,-0.7,16.8,0.0,212.0,0.1,-0.01,1.0,99.0,-33.0,27.0,0.0,29.89,1734.0,,,144.0,,,,,0.0,0.0,,,,,,,,,,,,,,,,,,,8.0,41.0,0.0,0.0,30.0,0.0,,0.0,23.7,,,21.5,0.0,0.0,-0.1,13.0,10.7,,,,,87.0,54.0,89.0,56.0,88.0,57.0,88.0,54.0,,,0.0,3.4,,23.7,3.0,0.0,,,1.304,0.828,7.7,41.2,,,,,,0.0,2026-04-29 17:54:35-07:00
59.06,1.0,7.0,2026-04-30 00:55:28,37.08155,-121.59959,300.0,0.0,336.1,-12.6,,,,,00:55:27,10.9,-0.7,16.8,0.0,212.0,0.1,-0.01,1.0,99.0,-20.0,28.0,0.0,29.89,1735.0,,,144.0,,,,,0.0,0.0,,,,,,,,,,,,,,,,,,,7.0,41.0,0.0,0.0,30.0,0.0,,0.0,23.6,,,21.5,0.0,0.0,-0.1,13.0,10.7,,,,,87.0,54.0,89.0,56.0,87.0,57.0,88.0,54.0,,,0.0,2.9,,23.6,3.0,0.0,,,1.304,0.828,6.6,41.2,,,,,,0.0,2026-04-29 17:54:35-07:00
60.06,1.0,7.0,2026-04-30 00:55:29,37.08155,-121.59959,301.0,0.0,336.1,-12.6,,,,,00:55:28,10.8,-0.7,16.8,0.0,212.0,0.1,-0.01,1.0,99.0,-28.0,28.0,0.0,29.89,1735.0,,,144.0,,,,,0.0,0.0,,,,,,,,,,,,,,,,,,,6.0,41.0,0.0,0.0,30.0,0.0,,0.0,23.5,,,21.5,0.0,0.0,-0.1,13.0,10.7,,,,,87.0,54.0,89.0,56.0,87.0,57.0,88.0,54.0,,,0.0,2.5,,23.5,3.0,0.0,,,1.304,0.826,5.7,41.2,,,,,,0.0,2026-04-29 17:54:35-07:00
61.06,1.0,7.0,2026-04-30 00:55:30,37.08155,-121.59959,302.0,0.0,336.1,-12.6,,,,,00:55:29,10.9,-0.7,16.8,0.0,212.0,0.1,-0.01,1.0,99.0,-27.0,28.0,0.0,29.89,1735.0,,,144.0,,,,,0.0,0.0,,,,,,,,,,,,,,,,,,,5.0,41.0,0.0,0.0,30.0,0.0,,0.0,23.5,,,21.5,0.0,0.0,-0.1,13.0,10.7,,,,,87.0,53.0,89.0,56.0,87.0,57.0,88.0,54.0,,,0.0,2.1,,23.5,3.0,0.0,,,1.304,0.826,5.0,41.2,,,,,,0.0,2026-04-29 17:54:35-07:00
62.06,1.0,7.0,2026-04-30 00:55:31,37.08155,-121.59959,303.0,0.0,336.1,-12.6,,,,,00:55:30,10.9,-0.7,16.7,0.0,212.0,0.1,-0.01,1.0,99.0,-16.0,28.0,0.0,29.89,1744.0,,,144.0,,,,,0.0,0.0,,,,,,,,,,,,,,,,,,,4.0,41.0,0.0,0.0,30.0,0.0,,0.0,23.4,,,21.5,0.0,0.0,-0.1,13.0,10.7,,,,,88.0,53.0,89.0,56.0,88.0,57.0,88.0,54.0,,,0.0,1.9,,23.4,3.0,0.0,,,1.304,0.826,4.4,41.1,,,,,,0.0,2026-04-29 17:54:35-07:00
63.06,1.0,7.0,2026-04-30 00:55:32,37.08155,-121.59959,303.0,0.0,336.1,-12.6,,,,,00:55:31,10.9,-0.7,16.7,0.0,212.0,0.1,-0.01,1.0,99.0,-3.0,28.0,0.0,29.89,1745.0,,,144.0,,,,,0.0,0.0,,,,,,,,,,,,,,,,,,,4.0,41.0,0.0,0.0,30.0,0.0,,0.0,23.3,,,21.5,0.0,0.0,-0.1,13.0,10.7,,,,,88.0,53.0,89.0,55.0,88.0,57.0,88.0,54.0,,,0.0,1.7,,23.3,3.0,0.0,,,1.304,0.826,3.8,41.1,,,,,,0.0,2026-04-29 17:54:35-07:00
64.06,1.0,7.0,2026-04-30 00:55:33,37.08155,-121.59959,304.0,0.0,336.1,-12.6,,,,,00:55:32,10.8,-0.7,16.7,0.0,212.0,0.1,-0.01,1.0,99.0,2.0,28.0,0.0,29.89,1745.0,,,144.0,,,,,0.0,0.0,,,,,,,,,,,,,,,,,,,3.0,41.0,0.0,0.0,30.0,0.0,,0.0,23.3,,,21.5,0.0,0.0,-0.1,13.0,10.7,,,,,87.0,53.0,89.0,55.0,88.0,57.0,88.0,53.0,,,0.0,1.5,,23.3,3.0,0.0,,,1.304,0.826,3.3,41.1,,,,,,0.0,2026-04-29 17:54:35-07:00
65.06,1.0,7.0,2026-04-30 00:55:34,37.08155,-121.59959,305.0,0.0,336.1,-12.6,,,,,00:55:33,10.9,-0.8,16.8,0.0,212.0,0.1,-0.01,1.0,99.0,11.0,28.0,0.0,29.89,1745.0,,,144.0,,,,,0.0,0.0,,,,,,,,,,,,,,,,,,,3.0,35.0,136.0,136.0,30.0,0.0,,0.0,23.4,,,21.5,0.0,0.0,-0.1,13.0,10.7,,,,,84.0,48.0,86.0,50.0,84.0,52.0,84.0,48.0,,,0.0,1.4,,23.4,3.0,0.0,,,1.302,0.825,3.1,35.3,,,,,,136.0,2026-04-29 17:54:35-07:00
66.06,1.0,7.0,2026-04-30 00:55:35,37.08154,-121.59956,310.0,0.0,336.1,-12.6,,,,,00:55:34,10.9,-0.8,16.7,0.0,212.0,0.0,-0.01,1.0,99.0,9.0,28.0,0.0,29.89,1755.0,,,144.0,,,,,0.0,0.0,,,,,,,,,,,,,,,,,,,5.0,37.0,257.0,257.0,29.9,0.1,,0.1,25.3,,,21.5,0.0,0.0,-0.2,13.0,10.7,,,,,85.0,51.0,87.0,52.0,85.0,55.0,86.0,51.0,,,0.0,1.3,,25.3,3.0,0.0,,,1.304,0.826,5.4,37.4,,,,,,257.0,2026-04-29 17:54:35-07:00
67.06,1.0,7.0,2026-04-30 00:55:36,37.08154,-121.59956,311.0,0.0,336.1,-12.6,,,,,00:55:35,10.8,-0.8,16.7,0.0,212.0,0.0,-0.01,1.0,99.0,-15.0,28.0,0.0,29.89,1755.0,,,144.0,,,,,0.0,0.0,,,,,,,,,,,,,,,,,,,24.0,39.0,951.0,951.0,26.1,1.4,,1.4,22.8,,,21.5,0.0,0.0,-0.1,13.0,10.7,,,,,86.0,70.0,88.0,63.0,86.0,96.0,87.0,96.0,,,0.0,1.3,,22.8,3.0,0.0,,,1.304,0.828,24.0,38.5,,,2.0,L,,951.0,2026-04-29 17:54:35-07:00
68.06,1.0,7.0,2026-04-30 00:55:37,37.08154,-121.59956,313.0,0.1,336.1,-12.6,,,,,00:55:36,10.9,-0.8,16.7,0.0,212.0,0.1,-0.01,1.0,99.0,-8.0,28.0,0.0,29.89,1755.0,,,144.0,,,,,0.0,0.0,,,,,,,,,,,,,,,,,,,50.0,41.0,801.0,801.0,25.9,2.3,,2.3,24.1,,,21.5,0.0,0.0,-0.1,13.0,10.7,,,,,87.0,72.0,89.0,65.0,88.0,129.0,88.0,122.0,,,0.0,1.2,,24.1,3.0,0.0,,,1.277,0.834,50.0,41.0,,,10.0,L,,801.0,2026-04-29 17:54:35-07:00
69.06,1.0,7.0,2026-04-30 00:55:38,37.08154,-121.59956,314.0,0.0,336.1,-12.6,,,,,00:55:37,10.8,-0.8,16.6,0.0,212.0,0.0,-0.01,1.0,99.0,-48.0,28.0,0.0,29.89,1755.0,,,144.0,,,,,0.0,0.0,,,,,,,,,,,,,,,,,,,63.0,41.0,1145.0,1145.0,24.2,2.9,,2.9,25.0,,,21.5,0.0,0.0,-0.1,13.0,10.7,,,,,87.0,75.0,89.0,67.0,88.0,180.0,88.0,166.0,,,0.0,1.1,,25.0,3.0,0.0,,,1.277,0.934,63.5,40.8,,,18.0,L,,1145.0,2026-04-29 17:54:35-07:00
70.06,1.0,7.0,2026-04-30 00:55:39,37.08154,-121.59956,315.0,0.0,336.1,-12.6,,,,,00:55:38,10.8,-0.8,16.6,0.0,212.0,0.1,-0.01,0.9,99.0,-72.0,28.0,0.0,29.89,1755.0,,,144.0,,,,,0.0,0.0,,,,,,,,,,,,,,,,,,,73.0,41.0,1423.0,1423.0,21.2,2.9,,2.9,25.3,,,21.5,0.0,0.0,-0.1,13.0,10.7,,,,,87.0,122.0,89.0,94.0,88.0,236.0,89.0,219.0,,,0.0,1.1,,25.3,3.0,0.0,,,1.305,0.934,73.3,40.7,,,22.0,P,,1423.0,2026-04-29 17:54:35-07:00
71.06,1.0,7.0,2026-04-30 00:55:40,37.08154,-121.59956,316.0,0.0,336.1,-12.6,,,,,00:55:39,10.9,-0.7,16.7,0.0,210.0,0.1,-0.01,1.0,99.0,-96.0,28.0,0.0,29.89,1755.0,,,144.0,,,,,0.0,0.0,,,,,,,,,,,,,,,,,,,76.0,41.0,1438.0,1438.0,19.5,2.9,,2.9,25.4,,,21.5,0.0,0.0,-0.1,13.0,10.7,,,,,87.0,197.0,90.0,161.0,88.0,300.0,90.0,246.0,,,0.0,1.1,,25.4,3.0,0.0,,,1.305,0.848,75.9,40.7,,,21.0,R,,1438.0,2026-04-29 17:54:35-07:00
72.06,1.0,7.0,2026-04-30 00:55:41,37.08154,-121.59956,317.0,0.1,336.1,-12.6,,,,,00:55:40,10.9,-0.7,16.7,0.0,208.0,0.1,-0.01,0.9,99.0,-87.0,28.0,0.0,29.89,1755.0,,,144.0,,,,,0.0,0.0,,,,,,,,,,,,,,,,,,,71.0,41.0,1256.0,1256.0,20.2,3.0,,3.0,25.3,,,21.5,0.0,0.0,-0.1,13.0,10.7,,,,,88.0,254.0,90.0,224.0,88.0,325.0,89.0,246.0,,,0.0,1.0,,25.3,3.0,0.0,,,1.305,0.833,70.8,40.6,,,17.0,R,,1256.0,2026-04-29 17:54:35-07:00
73.06,1.0,7.0,2026-04-30 00:55:42,37.08154,-121.59956,318.0,0.1,336.1,-12.6,,,,,00:55:41,10.9,-0.7,16.7,0.0,208.0,0.1,-0.02,1.0,99.0,-61.0,28.0,0.0,29.89,1761.0,,,144.0,,,,,0.0,0.0,,,,,,,,,,,,,,,,,,,70.0,41.0,1269.0,1269.0,20.4,2.9,,2.9,25.3,,,21.5,0.0,0.0,-0.1,13.0,10.7,,,,,88.0,309.0,90.0,274.0,89.0,320.0,90.0,288.0,,,0.0,1.0,,25.3,3.0,0.0,,,1.305,0.829,69.6,40.5,,,17.0,R,,1269.0,2026-04-29 17:54:35-07:00
74.06,1.0,7.0,2026-04-30 00:55:43,37.08154,-121.59956,318.0,0.1,336.1,-12.6,,,,,00:55:42,10.9,-0.7,16.8,0.0,208.0,0.1,-0.02,1.0,99.0,-57.0,28.0,0.0,29.89,1761.0,,,144.0,,,,,0.0,0.0,,,,,,,,,,,,,,,,,,,72.0,40.0,1325.0,1325.0,17.1,2.9,,2.9,25.5,,,21.5,0.0,0.0,-0.1,13.0,10.7,,,,,88.0,352.0,91.0,323.0,89.0,373.0,90.0,344.0,,,0.0,1.0,,25.5,3.0,0.0,,,1.306,0.829,71.9,40.5,,,,,,1325.0,2026-04-29 17:54:35-07:00
75.06,1.0,7.0,2026-04-30 00:55:44,37.08154,-121.59956,319.0,0.1,336.1,-12.6,,,,,00:55:43,10.9,-0.6,16.8,0.0,208.0,0.1,-0.01,1.0,99.0,-42.0,28.0,0.0,29.89,1762.0,,,144.0,,,,,0.0,0.0,,,,,,,,,,,,,,,,,,,71.0,40.0,1331.0,1331.0,15.5,2.8,,2.8,25.5,,,21.5,0.0,0.0,-0.1,13.0,10.7,,,,,89.0,390.0,91.0,367.0,89.0,405.0,90.0,379.0,,,0.0,1.0,,25.5,3.0,0.0,,,1.306,0.828,71.4,40.5,,,,,,1331.0,2026-04-29 17:54:35-07:00
76.06,1.0,7.0,2026-04-30 00:55:45,37.08155,-121.59956,319.0,0.0,336.1,-12.6,,,,,00:55:44,10.9,-0.7,16.8,0.0,208.0,0.1,-0.01,0.9,99.0,-32.0,28.0,0.0,29.89,1762.0,,,144.0,,,,,0.0,0.0,,,,,,,,,,,,,,,,,,,71.0,40.0,1290.0,1290.0,14.6,2.7,,2.7,25.5,,,21.5,0.0,0.0,-0.1,13.0,10.7,,,,,89.0,421.0,91.0,397.0,89.0,432.0,90.0,413.0,,,0.0,1.0,,25.5,3.0,0.0,,,1.304,0.828,71.0,40.5,,,,,,1290.0,2026-04-29 17:54:35-07:00
77.06,1.0,7.0,2026-04-30 00:55:46,37.08155,-121.59956,320.0,0.1,336.1,-12.6,,,,,00:55:45,10.9,-0.7,16.8,0.0,208.0,0.1,-0.01,1.0,99.0,-35.0,28.0,0.0,29.89,1762.0,,,144.0,,,,,0.0,0.0,,,,,,,,,,,,,,,,,,,70.0,40.0,1241.0,1241.0,14.3,2.6,,2.6,25.5,,,21.5,0.0,0.0,-0.1,13.0,10.7,,,,,89.0,447.0,92.0,424.0,89.0,464.0,91.0,438.0,,,0.0,1.0,,25.5,3.0,0.0,,,1.304,0.831,69.6,40.5,,,,,,1241.0,2026-04-29 17:54:35-07:00
78.06,1.0,7.0,2026-04-30 00:55:47,37.08155,-121.59956,320.0,0.0,336.1,-12.6,,,,,00:55:46,10.9,-0.8,16.7,0.0,208.0,0.1,-0.01,1.0,99.0,12.0,28.0,0.0,29.89,1770.0,,,144.0,,,,,0.0,0.0,,,,,,,,,,,,,,,,,,,70.0,40.0,1241.0,1241.0,14.0,2.6,,2.6,25.5,,,21.5,0.0,0.0,-0.1,13.0,10.7,,,,,90.0,470.0,92.0,444.0,90.0,486.0,91.0,459.0,,,0.0,1.0,,25.5,3.0,0.0,,,1.304,0.831,70.1,40.5,,,,,,1241.0,2026-04-29 17:54:35-07:00
79.06,1.0,7.0,2026-04-30 00:55:48,37.08155,-121.59956,321.0,0.1,336.1,-12.6,,,,,00:55:47,10.9,-0.7,16.8,0.0,208.0,0.1,-0.01,1.0,99.0,4.0,28.0,0.0,29.89,1771.0,,,144.0,,,,,0.0,0.0,,,,,,,,,,,,,,,,,,,69.0,41.0,1243.0,1243.0,13.8,2.5,,2.5,25.5,,,21.5,0.0,0.0,-0.1,13.0,10.7,,,,,90.0,477.0,92.0,462.0,90.0,506.0,91.0,478.0,,,0.0,1.0,,25.5,3.0,0.0,,,1.304,0.854,69.5,40.5,,,,,,1243.0,2026-04-29 17:54:35-07:00
80.06,1.0,7.0,2026-04-30 00:55:49,37.08155,-121.59956,321.0,0.1,336.1,-12.6,,,,,00:55:48,11.0,-0.6,16.8,0.0,208.0,0.1,-0.01,1.0,99.0,73.0,28.0,0.0,29.89,1771.0,,,144.0,,,,,0.0,0.0,,,,,,,,,,,,,,,,,,,69.0,43.0,1235.0,1235.0,14.0,2.5,,2.5,25.5,,,21.5,0.0,0.0,15.7,13.0,10.7,,,,,92.0,491.0,94.0,477.0,92.0,520.0,93.0,494.0,,,0.0,1.0,,25.5,3.0,0.001,,,1.304,0.83,68.6,43.1,,,,,,1235.0,2026-04-29 17:54:35-07:00
81.06,1.0,7.0,2026-04-30 00:55:50,37.08155,-121.59956,321.0,0.1,336.1,-12.6,,,,,00:55:49,11.1,-0.7,16.8,0.0,208.0,0.1,-0.01,1.0,99.0,22.0,28.0,0.0,29.89,1771.0,,,144.0,,,,,0.0,0.0,,,,,,,-1.0,,,58.0,,,,,,,,,68.0,43.0,1188.0,1188.0,14.2,2.4,,2.4,25.5,,,21.5,0.0,0.0,37.4,13.0,10.7,,,,,92.0,498.0,95.0,485.0,92.0,535.0,93.0,511.0,,,0.0,1.0,,25.5,3.0,0.001,,,1.304,0.831,67.7,43.1,,,,,,1188.0,2026-04-29 17:54:35-07:00
82.06,1.0,7.0,2026-04-30 00:55:51,37.08155,-121.59956,322.0,0.1,336.1,-12.6,,,,,00:55:50,11.0,-0.7,16.7,0.0,208.0,0.1,-0.01,0.9,99.0,46.0,28.0,0.0,29.89,1781.0,,,144.0,,,,,0.0,0.0,,,,,,,-1.0,,,58.0,,,,,,,,,69.0,43.0,1236.0,1236.0,14.0,2.5,,2.5,25.4,,,21.5,0.0,0.0,50.7,13.0,10.7,,,,,93.0,508.0,95.0,495.0,92.0,544.0,94.0,519.0,,,0.0,1.0,,25.4,3.0,0.001,,,1.304,0.867,68.7,43.1,,,,,,1236.0,2026-04-29 17:54:35-07:00
83.06,1.0,7.0,2026-04-30 00:55:52,37.08155,-121.59956,322.0,0.0,336.1,-12.6,,,,,00:55:51,10.9,-0.6,16.6,0.0,208.0,0.0,-0.01,1.0,99.0,3.0,28.0,0.0,29.89,1782.0,,,144.0,,,,,0.0,0.0,,,,,,,-1.0,,,7.0,,,,,,,,,69.0,43.0,1243.0,1243.0,13.9,2.5,,2.5,25.4,,,21.5,0.0,0.0,58.9,13.0,10.7,,,,,93.0,514.0,96.0,505.0,93.0,554.0,94.0,529.0,,,0.0,1.0,,25.4,3.0,0.001,,,1.304,0.828,69.1,43.1,,,,,,1243.0,2026-04-29 17:54:35-07:00
84.06,1.0,7.0,2026-04-30 00:55:53,37.08155,-121.59956,322.0,0.0,336.1,-12.6,,,,,00:55:52,10.9,-0.7,16.6,0.0,208.0,0.0,-0.01,1.0,99.0,-32.0,28.0,0.0,29.89,1782.0,,,144.0,,,,,0.0,0.0,,,,,,,-2.0,,,2.0,,,,,3.0,0.0,0.0,1200.0,69.0,43.0,1244.0,1244.0,13.9,2.6,,2.6,25.4,,,21.5,0.0,0.0,63.8,13.0,10.7,,,,,93.0,520.0,96.0,513.0,93.0,562.0,95.0,539.0,,,0.0,1.0,,25.4,3.0,0.001,,,1.304,0.841,69.0,43.2,,,,,,1244.0,2026-04-29 17:54:35-07:00
85.06,1.0,7.0,2026-04-30 00:55:54,37.08155,-121.59956,323.0,0.0,336.1,-12.6,,,,,00:55:53,11.0,-0.7,16.6,0.0,208.0,0.1,-0.01,1.0,99.0,6.0,28.0,0.0,29.89,1782.0,,,144.0,,,,,0.0,0.0,,,,,,,-1.0,,,0.0,,,,,1.0,0.0,0.0,1200.0,69.0,43.0,1231.0,1231.0,13.9,2.6,,2.6,25.4,,,21.5,0.0,0.0,66.7,13.0,10.7,,,,,94.0,524.0,96.0,520.0,93.0,569.0,95.0,551.0,,,0.0,0.0,,25.4,3.0,0.001,,,1.304,0.833,68.9,43.2,,,,,,1231.0,2026-04-29 17:54:35-07:00
86.06,1.0,7.0,2026-04-30 00:55:55,37.08155,-121.59956,323.0,0.0,336.1,-12.6,,,,,00:55:54,10.9,-0.7,16.6,0.0,208.0,0.1,-0.01,1.0,99.0,-32.0,28.0,0.0,29.89,1791.0,,,144.0,,,,,0.0,0.0,,,,,,,-1.0,,,-2.0,,,,,1.0,0.0,0.0,1200.0,70.0,43.0,1254.0,1254.0,13.7,2.6,,2.6,25.5,,,21.5,0.0,0.0,68.5,13.0,10.7,,,,,94.0,528.0,97.0,530.0,94.0,576.0,95.0,556.0,,,0.0,0.0,,25.5,3.0,0.0,,,1.304,0.829,69.6,43.2,,,,,,1254.0,2026-04-29 17:54:35-07:00
87.06,1.0,7.0,2026-04-30 00:55:56,37.08155,-121.59956,323.0,0.0,336.1,-12.6,,,,,00:55:55,10.9,-0.7,16.5,0.0,208.0,0.0,-0.01,1.0,99.0,-40.0,28.0,0.0,29.89,1791.0,,,144.0,,,,,0.0,0.0,,,,,,,-2.0,,,-5.0,,,,,1.0,0.0,0.0,1200.0,69.0,43.0,1249.0,1249.0,13.6,2.7,,2.7,25.5,,,21.5,0.0,0.0,69.5,13.0,10.7,,,,,95.0,535.0,97.0,538.0,94.0,581.0,96.0,564.0,,,0.0,0.0,,25.5,3.0,0.001,,,1.304,0.829,69.4,43.2,,,,,,1249.0,2026-04-29 17:54:35-07:00
88.06,1.0,7.0,2026-04-30 00:55:57,37.08155,-121.59956,323.0,0.0,336.1,-12.6,,,,,00:55:56,10.9,-0.8,16.5,0.0,208.0,0.0,-0.01,1.0,99.0,1.0,28.0,0.0,29.89,1791.0,,,144.0,,,,,0.0,0.0,,,,,,,-2.0,,,-6.0,,,,,,,,,69.0,43.0,1252.0,1252.0,13.6,2.7,,2.7,25.4,,,21.5,0.0,0.0,70.1,13.0,10.7,,,,,95.0,540.0,97.0,543.0,95.0,587.0,96.0,570.0,,,0.0,0.0,,25.4,3.0,0.0,,,1.304,0.829,69.3,43.2,,,,,,1252.0,2026-04-29 17:54:35-07:00
89.06,1.0,7.0,2026-04-30 00:55:58,37.08155,-121.59956,323.0,0.0,336.1,-12.6,,,,,00:55:57,10.9,-0.8,16.6,0.0,208.0,0.1,-0.01,1.0,99.0,35.0,28.0,0.0,29.89,1792.0,,,144.0,,,,,0.0,0.0,,,,,,,-2.0,,,-8.0,,,,,,,,,69.0,43.0,1247.0,1247.0,13.6,2.7,,2.7,25.5,,,21.5,0.0,0.0,70.6,13.0,10.7,,,,,95.0,545.0,98.0,547.0,95.0,592.0,96.0,575.0,,,0.0,0.0,,25.5,3.0,0.0,,,1.304,0.829,69.4,43.2,,,,,,1247.0,2026-04-29 17:54:35-07:00
90.06,1.0,7.0,2026-04-30 00:55:59,37.08155,-121.59956,323.0,0.0,336.1,-12.6,,,,,00:55:58,10.9,-0.7,16.7,0.0,208.0,0.1,-0.01,1.0,99.0,71.0,28.0,0.0,29.89,1792.0,,,144.0,,,,,0.0,0.0,,,,,,,-2.0,,,-9.0,,,,,,,,,70.0,43.0,1261.0,1261.0,13.6,2.7,,2.7,25.5,,,21.5,0.0,0.0,70.9,13.0,10.7,,,,,96.0,553.0,98.0,551.0,95.0,596.0,97.0,580.0,,,0.0,0.0,,25.5,3.0,0.0,,,1.304,0.829,69.7,43.3,,,,,,1261.0,2026-04-29 17:54:35-07:00
91.06,1.0,7.0,2026-04-30 00:56:00,37.08155,-121.59956,324.0,0.0,336.1,-12.6,,,,,00:55:59,10.8,-0.8,16.6,0.0,208.0,0.1,-0.01,1.1,99.0,68.0,28.0,0.0,29.89,1792.0,,,144.0,,,,,0.0,0.0,,,,,,,-2.0,,,-9.0,,,,,,,,,69.0,43.0,1254.0,1254.0,13.7,2.7,,2.7,25.5,,,21.5,0.0,0.0,71.1,13.0,10.7,,,,,96.0,557.0,99.0,555.0,96.0,599.0,97.0,585.0,,,0.0,0.0,,25.5,3.0,0.0,,,1.305,0.829,69.5,43.3,,,,,,1254.0,2026-04-29 17:54:35-07:00
92.06,1.0,7.0,2026-04-30 00:56:01,37.08155,-121.59956,324.0,0.1,336.1,-12.6,,,,,00:56:00,10.8,-0.7,16.6,0.0,208.0,0.1,-0.01,1.0,99.0,95.0,28.0,0.0,29.89,1802.0,,,144.0,,,,,0.0,0.0,,,,,,,0.0,,,-11.0,,,,,,,,,69.0,43.0,1243.0,1243.0,13.7,2.7,,2.7,25.4,,,21.5,0.0,0.0,71.1,13.0,10.7,,,,,96.0,559.0,99.0,558.0,96.0,604.0,98.0,590.0,,,0.0,0.0,,25.4,3.0,0.0,,,1.304,0.829,69.2,43.3,,,,,,1243.0,2026-04-29 17:54:35-07:00
93.06,1.0,7.0,2026-04-30 00:56:02,37.08155,-121.59956,324.0,0.1,336.1,-12.6,,,,,00:56:01,10.9,-0.7,16.5,0.0,208.0,0.1,-0.01,1.0,99.0,75.0,28.0,0.0,29.89,1802.0,,,144.0,,,,,0.0,0.0,,,,,,,0.0,,,-12.0,,,,,,,,,70.0,43.0,1272.0,1272.0,13.7,2.7,,2.7,25.5,,,21.5,0.0,0.0,71.2,13.0,10.7,,,,,97.0,564.0,99.0,561.0,96.0,607.0,98.0,593.0,,,0.0,0.0,,25.5,3.0,0.0,,,1.304,0.829,69.8,43.3,,,,,,1272.0,2026-04-29 17:54:35-07:00
94.06,1.0,7.0,2026-04-30 00:56:03,37.08155,-121.59956,324.0,0.0,336.1,-12.6,,,,,00:56:02,10.9,-0.7,16.6,0.0,208.0,0.1,-0.01,1.0,99.0,42.0,28.0,0.0,29.89,1802.0,,,144.0,,,,,0.0,0.0,,,,,,,0.0,,,-13.0,,,,,,,,,70.0,43.0,1250.0,1250.0,13.6,2.7,,2.7,25.5,,,21.5,0.0,0.0,71.3,13.0,10.7,,,,,97.0,567.0,100.0,565.0,97.0,611.0,98.0,598.0,,,0.0,0.0,,25.5,3.0,0.0,,,1.305,0.833,69.5,43.3,,,,,,1250.0,2026-04-29 17:54:35-07:00
95.06,1.0,7.0,2026-04-30 00:56:04,37.08155,-121.59956,324.0,0.0,336.1,-12.6,,,,,00:56:03,11.0,-0.7,16.6,0.0,210.0,0.0,-0.01,1.0,99.0,64.0,28.0,0.0,29.89,1804.0,,,144.0,,,,,0.0,0.0,,,,,,,-4.0,,,59.0,,,,,,,,,69.0,43.0,1251.0,1251.0,13.7,2.7,,2.7,25.5,,,21.5,0.0,0.0,71.1,13.0,10.7,,,,,98.0,570.0,100.0,567.0,97.0,612.0,99.0,602.0,,,0.0,0.0,,25.5,3.0,0.0,,,1.304,0.833,69.2,43.3,,,,,,1251.0,2026-04-29 17:54:35-07:00
96.06,1.0,7.0,2026-04-30 00:56:05,37.08157,-121.59958,340.0,0.0,336.1,-12.6,,,,,00:56:04,10.9,-0.7,16.6,0.0,211.0,0.1,-0.01,1.0,99.0,18.0,28.0,0.0,29.89,1806.0,,,144.0,,,,,0.0,0.0,,,,,,,-4.0,,,57.0,,,,,,,,,69.0,43.0,1243.0,1243.0,13.7,2.7,,2.7,25.4,,,21.5,0.0,0.0,70.8,13.0,10.7,,,,,98.0,572.0,100.0,568.0,98.0,614.0,99.0,601.0,,,0.0,0.0,,25.4,3.0,0.0,,,1.304,0.828,68.9,43.3,,,,,,1243.0,2026-04-29 17:54:35-07:00
97.06,1.0,7.0,2026-04-30 00:56:06,37.08157,-121.59958,340.0,0.0,336.1,-12.6,,,,,00:56:05,10.9,-0.6,16.6,0.0,212.0,0.1,-0.01,0.9,99.0,75.0,28.0,0.0,29.89,1806.0,,,144.0,,,,,0.0,0.0,,,,,,,-4.0,,,57.0,,,,,,,,,70.0,43.0,1257.0,1257.0,13.7,2.7,,2.7,25.5,,,21.5,0.0,0.0,70.7,13.0,10.7,,,,,99.0,574.0,101.0,576.0,98.0,616.0,100.0,603.0,,,0.0,0.0,,25.5,3.0,0.001,,,1.304,0.829,69.5,43.3,,,,,,1257.0,2026-04-29 17:54:35-07:00
98.06,1.0,7.0,2026-04-30 00:56:07,37.08157,-121.59958,340.0,0.0,336.1,-12.6,,,,,00:56:06,10.9,-0.6,16.7,0.0,212.0,0.1,-0.01,1.0,99.0,58.0,28.0,0.0,29.89,1807.0,,,144.0,,,,,0.0,0.0,,,,,,,-4.0,,,57.0,,,,,,,,,69.0,43.0,1249.0,1249.0,13.7,2.7,,2.7,25.4,,,21.5,0.0,0.0,70.6,13.0,10.7,,,,,99.0,577.0,101.0,578.0,98.0,620.0,100.0,605.0,,,0.0,0.0,,25.4,3.0,0.001,,,1.304,0.831,69.3,43.4,,,,,,1249.0,2026-04-29 17:54:35-07:00
99.06,1.0,7.0,2026-04-30 00:56:08,37.08157,-121.59958,341.0,0.0,336.1,-12.6,,,,,00:56:07,10.9,-0.6,16.7,0.0,212.0,0.1,-0.01,1.0,99.0,12.0,28.0,0.0,29.89,1808.0,,,144.0,,,,,0.0,0.0,,,,,,,-4.0,,,57.0,,,,,,,,,69.0,43.0,1237.0,1237.0,13.8,2.8,,2.8,25.4,,,21.5,0.0,0.0,70.4,13.0,10.7,,,,,99.0,577.0,102.0,579.0,99.0,619.0,101.0,601.0,,,0.0,0.0,,25.4,3.0,0.001,,,1.304,0.829,68.9,43.4,,,,,,1237.0,2026-04-29 17:54:35-07:00
100.06,1.0,7.0,2026-04-30 00:56:09,37.08157,-121.59958,341.0,0.0,336.1,-12.6,,,,,00:56:08,11.0,-0.6,16.7,0.0,212.0,0.0,-0.01,1.0,99.0,15.0,28.0,0.0,29.89,1808.0,,,144.0,,,,,0.0,0.0,,,,,,,-4.0,,,57.0,,,,,,,,,69.0,43.0,1219.0,1219.0,13.7,2.8,,2.8,25.4,,,21.5,0.0,0.0,70.2,13.0,10.7,,,,,100.0,577.0,102.0,581.0,99.0,618.0,101.0,602.0,,,0.0,0.0,,25.4,3.0,0.001,,,1.305,0.828,68.8,43.4,,,,,,1219.0,2026-04-29 17:54:35-07:00
101.06,1.0,8.0,2026-04-30 00:56:10,37.08157,-121.59959,341.0,0.0,336.1,-12.6,,,,,00:56:09,10.9,-0.6,16.7,0.0,212.0,0.1,-0.01,0.9,99.0,-26.0,28.0,0.0,29.89,1808.0,,,144.0,,,,,0.0,0.0,,,,,,,-4.0,,,57.0,,,,,,,,,66.0,43.0,1122.0,1122.0,13.4,2.8,,2.8,25.4,,,21.5,0.0,0.0,69.0,13.0,10.7,,,,,100.0,577.0,102.0,583.0,99.0,616.0,101.0,602.0,,,0.0,0.0,,25.4,3.0,0.001,,,1.305,0.833,66.2,43.3,,,,,,1122.0,2026-04-29 17:54:35-07:00
102.06,1.0,8.0,2026-04-30 00:56:11,37.08157,-121.59959,341.0,0.4,336.1,-12.6,,,,,00:56:10,11.1,-0.7,16.4,0.0,212.0,-0.1,-0.01,1.0,99.0,-22.0,28.0,0.0,29.89,1818.0,,,144.0,,,,,0.0,0.0,,,,,,,-3.0,,,54.0,,,,,,,,,65.0,43.0,1095.0,1095.0,13.5,2.8,,2.8,25.3,,,21.5,0.0,0.0,67.6,13.0,10.7,,,,,100.0,576.0,102.0,585.0,100.0,612.0,101.0,603.0,,,0.0,0.0,,25.3,3.0,0.001,,,1.244,0.833,65.1,43.2,,,,,,1095.0,2026-04-29 17:54:35-07:00
103.06,1.0,8.0,2026-04-30 00:56:12,37.08158,-121.59958,340.0,1.1,281.2,-12.6,,,,,00:56:11,11.2,-0.9,15.7,0.0,212.0,-0.3,-0.02,0.9,99.0,-20.0,28.0,0.0,29.89,1818.0,,,144.0,,,,,0.0,0.0,,,,,,,-3.0,,,54.0,,,,,,,,,65.0,43.0,1097.0,1097.0,13.6,2.7,,2.7,25.4,,,21.5,0.0,0.0,66.6,13.0,10.7,,,,,100.0,575.0,103.0,586.0,100.0,609.0,102.0,601.0,,,0.0,0.0,,25.4,3.0,0.001,,,1.091,0.842,65.1,43.3,,,,,,1097.0,2026-04-29 17:54:35-07:00
104.06,1.0,8.0,2026-04-30 00:56:13,37.08158,-121.59958,340.0,2.0,40.0,-12.6,,,,,00:56:12,11.6,-0.9,17.0,0.0,212.0,0.4,-0.0,1.0,99.0,-23.0,28.0,0.0,29.89,1818.0,,,144.0,,,,,0.0,0.0,,,,,,,-3.0,,,54.0,,,,,,,,,65.0,43.0,1079.0,1079.0,13.7,2.7,,2.7,25.3,,,21.5,0.0,0.0,65.7,13.0,10.7,,,,,101.0,575.0,103.0,587.0,100.0,606.0,102.0,599.0,,,0.0,0.0,,25.3,3.0,0.001,,,1.093,0.834,64.5,43.3,,,,,,1079.0,2026-04-29 17:54:35-07:00
105.06,1.0,8.0,2026-04-30 00:56:14,37.0816,-121.59957,339.0,2.7,24.9,-12.6,,,,,00:56:13,11.9,-0.9,21.1,0.0,212.0,2.6,-0.03,1.1,99.0,-27.0,28.0,0.0,29.89,1818.0,,,144.0,,,,,0.0,0.0,,,,,,,-3.0,,,54.0,,,,,,,,,64.0,43.0,1057.0,1057.0,13.8,2.7,,2.7,25.3,,,21.5,0.0,0.0,65.1,13.0,10.7,,,,,101.0,574.0,103.0,588.0,101.0,602.0,103.0,600.0,,,0.0,0.0,,25.3,3.0,0.001,,,1.135,0.841,64.3,43.2,,,,,,1057.0,2026-04-29 17:54:35-07:00
106.06,1.0,8.0,2026-04-30 00:56:15,37.08161,-121.59956,338.0,3.3,32.4,-12.6,,,,,00:56:14,11.6,-0.7,24.8,0.0,212.0,3.3,-0.02,0.9,99.0,-29.0,28.0,0.0,29.89,1818.0,,,144.0,,,,,0.0,0.0,,,,,,,-3.0,,,54.0,,,,,,,,,64.0,43.0,1053.0,1053.0,14.0,2.6,,2.6,25.3,,,21.5,0.0,0.0,64.3,13.0,10.7,,,,,102.0,574.0,104.0,591.0,101.0,599.0,103.0,599.0,,,0.0,0.0,,25.3,3.0,0.001,,,1.248,0.844,63.8,43.2,,,,,,1053.0,2026-04-29 17:54:35-07:00
107.06,1.0,8.0,2026-04-30 00:56:16,37.08162,-121.59955,337.0,4.1,39.4,-12.6,,,,,00:56:15,11.4,-1.6,29.2,0.0,212.0,4.0,-0.03,0.9,99.0,-30.0,28.0,0.0,29.89,1819.0,,,144.0,,,,,0.0,0.0,,,,,,,-3.0,,,54.0,,,,,3.0,0.0,0.0,1200.0,64.0,43.0,1054.0,1054.0,14.1,2.6,,2.6,25.3,,,21.5,0.0,0.0,63.8,13.0,10.7,,,,,102.0,573.0,104.0,595.0,102.0,597.0,104.0,597.0,,,0.0,0.0,,25.3,3.0,0.001,,,1.295,0.839,63.8,43.2,,,,,,1054.0,2026-04-29 17:54:35-07:00
108.06,1.0,8.0,2026-04-30 00:56:17,37.08164,-121.59953,336.0,4.4,40.8,-12.6,,,,,00:56:16,11.4,-1.0,34.7,0.0,212.0,4.8,-0.05,1.0,99.0,-17.0,28.0,0.0,29.89,1819.0,,,144.0,,,,,0.0,0.0,,,,,,,-3.0,,,54.0,,,,,1.0,0.0,0.0,1200.0,64.0,43.0,1074.0,1074.0,14.1,2.6,,2.6,25.3,,,21.5,0.0,0.0,63.6,13.0,10.7,,,,,102.0,574.0,104.0,596.0,102.0,594.0,104.0,597.0,,,0.0,0.0,,25.3,3.0,0.001,,,1.443,0.837,64.2,43.3,,,,,,1074.0,2026-04-29 17:54:35-07:00
109.06,1.0,8.0,2026-04-30 00:56:18,37.08165,-121.59952,336.0,4.8,46.4,-12.6,,,,,00:56:17,11.8,0.2,41.3,0.0,212.0,5.8,-0.03,1.0,99.0,-21.0,28.0,0.0,29.89,1819.0,,,144.0,,,,,0.0,0.0,,,,,,,-3.0,,,54.0,,,,,1.0,0.0,0.0,1200.0,64.0,43.0,1075.0,1075.0,14.0,2.6,,2.6,25.3,,,21.5,0.0,0.0,63.7,13.0,10.7,,,,,102.0,573.0,104.0,597.0,102.0,593.0,105.0,598.0,,,0.0,0.0,,25.3,3.0,0.001,,,1.362,0.845,64.3,43.3,,,,,,1075.0,2026-04-29 17:54:35-07:00
110.06,1.0,8.0,2026-04-30 00:56:19,37.08167,-121.59949,335.0,5.3,53.1,-12.6,,,,,00:56:18,12.2,1.0,48.9,0.0,212.0,7.0,-0.03,1.0,99.0,-6.0,28.0,0.0,29.89,1828.0,,,144.0,,,,,0.0,0.0,,,,,,,-3.0,,,54.0,,,,,1.0,0.0,0.0,1200.0,64.0,43.0,1066.0,1066.0,13.9,2.6,,2.6,25.3,,,21.5,0.0,0.0,63.8,13.0,10.7,,,,,103.0,574.0,105.0,597.0,103.0,593.0,105.0,598.0,,,0.0,0.0,,25.3,3.0,0.001,,,1.372,0.853,64.4,43.3,,,,,,1066.0,2026-04-29 17:54:35-07:00
111.06,1.0,8.0,2026-04-30 00:56:20,37.08168,-121.59947,334.0,5.6,64.3,-12.6,,,,,00:56:19,11.9,0.8,53.7,0.0,212.0,6.1,-0.05,0.9,99.0,-25.0,28.0,0.0,29.89,1828.0,,,144.0,,,,,0.0,0.0,,,,,,,-3.0,,,54.0,,,,,1.0,0.0,0.0,1200.0,65.0,43.0,1090.0,1090.0,13.7,2.6,,2.6,25.4,,,21.5,0.0,0.0,63.8,13.0,10.7,,,,,103.0,575.0,105.0,596.0,103.0,592.0,105.0,599.0,,,0.0,0.0,,25.4,3.0,0.001,,,1.407,0.883,64.5,43.3,,,,,,1090.0,2026-04-29 17:54:35-07:00
112.06,1.0,8.0,2026-04-30 00:56:21,37.08169,-121.59944,333.0,6.2,68.0,-12.6,,,,,00:56:20,11.8,0.6,51.9,0.0,212.0,1.6,0.02,1.0,99.0,-52.0,28.0,0.0,29.89,1828.0,,,144.0,,,,,0.0,0.0,,,,,,,-3.0,,,54.0,,,,,1.0,0.0,0.0,1200.0,61.0,43.0,903.0,903.0,13.2,2.5,,2.5,25.4,,,21.5,0.0,0.0,62.1,13.0,10.7,,,,,103.0,577.0,105.0,597.0,103.0,589.0,105.0,597.0,,,0.0,0.0,,25.4,3.0,0.001,,,1.414,0.862,61.1,43.1,,,,,,903.0,2026-04-29 17:54:35-07:00
113.06,1.0,8.0,2026-04-30 00:56:22,37.0817,-121.59941,332.0,6.3,65.6,-12.6,,,,,00:56:21,11.9,0.4,53.0,0.0,212.0,1.1,0.01,0.9,99.0,-67.0,28.0,0.0,29.89,1828.0,,,144.0,,,,,0.0,0.0,,,,,,,-3.0,,,54.0,,,,,1.0,0.0,0.0,1200.0,59.0,43.0,836.0,836.0,14.3,2.4,,2.4,25.4,,,21.5,0.0,0.0,58.2,13.0,10.7,,,,,103.0,574.0,105.0,595.0,104.0,587.0,106.0,593.0,,,0.0,0.0,,25.4,3.0,0.0,,,1.36,0.862,58.7,43.0,,,,,,836.0,2026-04-29 17:54:35-07:00
114.06,1.0,8.0,2026-04-30 00:56:23,37.08171,-121.59937,332.0,6.5,67.3,-12.6,,,,,00:56:22,11.9,0.2,54.2,0.0,212.0,1.2,-0.01,1.0,99.0,-42.0,28.0,0.0,29.89,1828.0,,,144.0,,,,,0.0,0.0,,,,,,,-3.0,,,55.0,,,,,1.0,0.0,0.0,1200.0,59.0,43.0,867.0,867.0,14.8,2.3,,2.3,25.4,,,21.5,0.0,0.0,55.3,13.0,10.7,,,,,104.0,573.0,106.0,593.0,104.0,584.0,106.0,591.0,,,0.0,0.0,,25.4,3.0,0.001,,,1.321,0.851,58.7,43.0,,,,,,867.0,2026-04-29 17:54:35-07:00
115.06,1.0,8.0,2026-04-30 00:56:24,37.08172,-121.59934,331.0,6.6,68.5,-12.6,,,,,00:56:23,12.0,-0.2,55.2,0.0,212.0,1.2,-0.02,0.9,99.0,-27.0,28.0,0.0,29.89,1828.0,,,144.0,,,,,0.0,0.0,,,,,,,-3.0,,,56.0,,,,,1.0,0.0,0.0,1200.0,58.0,43.0,844.0,844.0,14.7,2.2,,2.2,25.4,,,21.5,0.0,0.0,53.5,13.0,10.7,,,,,104.0,572.0,106.0,591.0,104.0,583.0,107.0,590.0,,,0.0,0.0,,25.4,3.0,0.0,,,1.304,0.867,58.3,43.0,,,,,,844.0,2026-04-29 17:54:35-07:00
116.06,1.0,8.0,2026-04-30 00:56:25,37.08173,-121.5993,330.0,6.8,71.0,-12.6,,,,,00:56:24,11.8,-0.6,55.8,0.0,212.0,1.0,-0.01,1.0,99.0,-52.0,28.0,0.0,29.89,1828.0,,,144.0,,,,,0.0,0.0,,,,,,,-3.0,,,58.0,,,,,1.0,0.0,0.0,1200.0,59.0,43.0,877.0,877.0,14.7,2.2,,2.2,25.4,,,21.5,0.0,0.0,52.7,13.0,10.7,,,,,104.0,570.0,106.0,590.0,105.0,581.0,107.0,588.0,,,0.0,0.0,,25.4,3.0,0.001,,,1.305,0.836,58.8,43.1,,,,,,877.0,2026-04-29 17:54:35-07:00
117.06,1.0,8.0,2026-04-30 00:56:26,37.08175,-121.59927,330.0,7.0,70.2,-12.6,,,,,00:56:25,12.0,-1.0,56.4,0.0,212.0,0.9,-0.02,1.0,99.0,-24.0,28.0,0.0,29.89,1828.0,,,144.0,,,,,0.0,0.0,,,,,,,-3.0,,,58.0,,,,,1.0,0.0,0.0,1200.0,58.0,43.0,827.0,827.0,14.7,2.1,,2.1,25.4,,,21.5,0.0,0.0,51.8,13.0,10.7,,,,,104.0,569.0,106.0,589.0,105.0,580.0,107.0,585.0,,,0.0,0.0,,25.4,3.0,0.0,,,1.305,0.847,58.0,43.0,,,,,,827.0,2026-04-29 17:54:35-07:00
118.06,1.0,8.0,2026-04-30 00:56:27,37.08176,-121.59923,329.0,7.2,70.6,-12.6,,,,,00:56:26,11.8,-1.9,57.5,0.0,212.0,1.0,-0.04,1.0,99.0,-8.0,28.0,0.0,29.89,1828.0,,,144.0,,,,,0.0,0.0,,,,,,,-3.0,,,58.0,,,,,1.0,0.0,0.0,1200.0,58.0,43.0,828.0,828.0,14.7,2.1,,2.1,25.4,,,21.5,0.0,0.0,51.2,13.0,10.7,,,,,105.0,569.0,106.0,588.0,105.0,578.0,107.0,583.0,,,0.0,0.0,,25.4,3.0,0.0,,,1.306,0.85,58.2,43.0,,,,,,828.0,2026-04-29 17:54:35-07:00
119.06,1.0,8.0,2026-04-30 00:56:28,37.08176,-121.59919,329.0,7.1,79.7,-12.6,,,,,00:56:27,11.3,-2.9,53.2,0.0,212.0,-1.7,-0.03,0.8,99.0,-26.0,28.0,0.0,29.89,1828.0,,,144.0,,,,,0.0,0.0,,,,,,,-3.0,,,58.0,,,,,1.0,0.0,0.0,1200.0,59.0,43.0,876.0,876.0,14.8,2.0,,2.0,25.4,,,21.5,0.0,0.0,51.0,13.0,10.7,,,,,105.0,569.0,107.0,586.0,106.0,576.0,108.0,582.0,,,0.0,0.0,,25.4,3.0,0.0,,,1.5,0.85,58.8,43.1,,,,,,876.0,2026-04-29 17:54:35-07:00
120.06,1.0,9.0,2026-04-30 00:56:29,37.08196,-121.59911,455.0,7.1,63.0,-12.6,,,,,00:56:28,11.1,-2.2,51.4,0.0,212.0,-2.1,-0.02,0.9,99.0,-28.0,28.0,0.0,29.89,1827.0,,,144.0,,,,,0.0,0.0,,,,,,,-3.0,,,57.0,,,,,1.0,0.0,0.0,1200.0,58.0,43.0,838.0,838.0,14.8,2.0,,2.0,25.4,,,21.5,0.0,0.0,50.2,13.0,10.7,,,,,105.0,568.0,107.0,587.0,106.0,576.0,108.0,582.0,,,0.0,0.0,,25.4,3.0,0.0,,,1.465,0.858,57.7,43.1,,,,,,838.0,2026-04-29 17:54:35-07:00
121.06,1.0,9.0,2026-04-30 00:56:30,37.08197,-121.59908,453.0,6.9,69.7,-12.6,,,,,00:56:29,10.8,-2.0,50.9,0.0,212.0,-1.2,-0.03,1.0,99.0,-17.0,28.0,0.0,29.89,1827.0,,,144.0,,,,,0.0,0.0,,,,,,,-3.0,,,57.0,,,,,1.0,0.0,0.0,1200.0,57.0,43.0,746.0,746.0,14.8,1.9,,1.9,25.5,,,21.5,0.0,0.0,49.3,13.1,10.7,,,,,105.0,565.0,107.0,581.0,106.0,574.0,108.0,582.0,,,0.0,0.0,,25.5,3.0,0.0,,,1.484,0.83,56.7,42.8,,,,,,746.0,2026-04-29 17:54:35-07:00
122.06,1.0,9.0,2026-04-30 00:56:31,37.08198,-121.59904,450.0,6.1,67.4,-12.6,,,,,00:56:30,10.9,-2.2,49.9,0.0,212.0,-0.9,-0.03,0.9,99.0,-27.0,28.0,0.0,29.89,1827.0,,,144.0,,,,,0.0,0.0,,,,,,,-3.0,,,57.0,,,,,1.0,0.0,0.0,1200.0,56.0,43.0,745.0,745.0,14.9,1.9,,1.9,25.4,,,21.5,0.0,0.0,47.0,13.1,10.7,,,,,106.0,564.0,107.0,569.0,107.0,573.0,109.0,579.0,,,0.0,0.0,,25.4,3.0,0.0,,,1.443,1.031,55.7,42.8,,,,,,745.0,2026-04-29 17:54:35-07:00
123.06,1.0,9.0,2026-04-30 00:56:32,37.08199,-121.59902,447.0,5.5,56.2,-12.6,,,,,00:56:31,11.2,-2.3,49.6,0.0,211.0,-0.6,-0.03,1.0,99.0,-31.0,28.0,0.0,29.95,1827.0,,,144.0,,,,,0.0,0.0,,,,,,,-3.0,,,57.0,,,,,1.0,0.0,0.0,1200.0,55.0,43.0,759.0,759.0,15.2,1.8,,1.8,25.5,,,21.5,0.0,0.0,45.2,13.1,10.7,,,,,106.0,565.0,107.0,560.0,107.0,571.0,109.0,577.0,,,0.0,0.0,,25.5,3.0,0.0,,,1.482,1.11,55.4,42.9,,,,,,759.0,2026-04-29 17:54:35-07:00
124.06,1.0,9.0,2026-04-30 00:56:33,37.08199,-121.599,446.0,4.0,59.1,-12.6,,,,,00:56:32,11.0,-2.2,50.4,0.0,210.0,0.2,-0.04,1.0,99.0,-34.0,28.0,0.0,29.99,1827.0,,,144.0,,,,,0.0,0.0,,,,,,,-3.0,,,57.0,,,,,1.0,0.0,0.0,1200.0,55.0,43.0,717.0,717.0,15.3,1.7,,1.7,25.5,,,21.5,0.0,0.0,44.1,13.1,10.7,,,,,106.0,564.0,108.0,555.0,107.0,570.0,109.0,575.0,,,0.0,0.0,,25.5,3.0,0.0,,,1.516,0.935,55.2,42.8,,,,,,717.0,2026-04-29 17:54:35-07:00
125.06,1.0,9.0,2026-04-30 00:56:34,37.082,-121.59898,444.0,3.1,63.5,-12.6,,,,,00:56:33,11.0,-2.1,50.8,0.0,210.0,0.6,-0.04,1.0,99.0,-16.0,28.0,0.0,29.99,1827.0,,,144.0,,,,,0.0,0.0,,,,,,,-3.0,,,57.0,,,,,1.0,0.0,0.0,1200.0,56.0,43.0,735.0,735.0,15.4,1.7,,1.7,25.5,,,21.5,0.0,0.0,43.5,13.1,10.7,,,,,107.0,564.0,108.0,553.0,108.0,569.0,110.0,573.0,,,0.0,0.0,,25.5,3.0,0.0,,,1.466,0.853,55.5,42.9,,,,,,735.0,2026-04-29 17:54:35-07:00
126.06,1.0,9.0,2026-04-30 00:56:35,37.082,-121.59898,435.0,2.6,65.4,-12.6,,,,,00:56:34,11.2,-2.8,51.2,0.0,210.0,0.7,-0.05,1.0,99.0,8.0,28.0,0.0,29.99,1825.0,,,144.0,,,,,0.0,0.0,,,,,,,-3.0,,,57.0,,,,,1.0,0.0,0.0,1200.0,55.0,43.0,735.0,735.0,15.3,1.7,,1.7,25.5,,,21.5,0.0,0.0,43.0,13.1,10.7,,,,,107.0,563.0,108.0,555.0,108.0,567.0,110.0,572.0,,,0.0,0.0,,25.5,3.0,0.0,,,1.416,0.825,55.3,42.9,,,,,,735.0,2026-04-29 17:54:35-07:00
127.06,1.0,9.0,2026-04-30 00:56:36,37.08201,-121.59897,434.0,2.2,69.9,-12.6,,,,,00:56:35,11.4,-2.1,51.2,0.0,210.0,0.6,-0.03,1.0,99.0,15.0,28.0,0.0,29.99,1826.0,,,144.0,,,,,0.0,0.0,,,,,,,-3.0,,,58.0,,,,,1.0,0.0,0.0,1200.0,57.0,43.0,804.0,804.0,15.2,1.7,,1.7,25.5,,,21.5,0.0,0.0,44.0,13.1,10.7,,,,,107.0,563.0,108.0,557.0,108.0,569.0,111.0,571.0,,,0.0,0.0,,25.5,3.0,0.0,,,1.444,0.891,56.9,43.1,,,,,,804.0,2026-04-29 17:54:35-07:00
128.06,1.0,9.0,2026-04-30 00:56:37,37.08201,-121.59896,434.0,2.6,57.6,-12.6,,,,,00:56:36,11.5,-2.2,50.8,0.0,210.0,0.3,-0.06,0.9,99.0,27.0,28.0,0.0,29.99,1826.0,,,144.0,,,,,0.0,0.0,,,,,,,-3.0,,,58.0,,,,,1.0,0.0,0.0,1200.0,59.0,43.0,892.0,892.0,14.7,1.7,,1.7,25.5,,,21.5,0.0,0.0,42.7,13.1,10.7,,,,,107.0,563.0,109.0,559.0,108.0,568.0,111.0,571.0,,,0.0,0.0,,25.5,3.0,0.0,,,1.462,0.848,58.8,42.9,,,,,,892.0,2026-04-29 17:54:35-07:00
129.06,1.0,9.0,2026-04-30 00:56:38,37.08202,-121.59895,435.0,2.8,68.7,-12.6,,,,,00:56:37,11.3,-2.2,44.8,0.0,210.0,-3.2,-0.03,0.9,99.0,22.0,28.0,0.0,29.99,1826.0,,,144.0,,,,,0.0,0.0,,,,,,,-3.0,,,58.0,,,,,1.0,0.0,0.0,1200.0,60.0,43.0,937.0,937.0,14.3,1.7,,1.7,25.4,,,21.5,0.0,0.0,40.2,13.1,10.7,,,,,107.0,563.0,109.0,562.0,109.0,570.0,111.0,571.0,,,0.0,0.0,,25.4,3.0,0.0,,,1.371,0.859,59.6,42.8,,,,,,937.0,2026-04-29 17:54:35-07:00
130.06,1.0,9.0,2026-04-30 00:56:39,37.08202,-121.59893,436.0,3.1,58.4,-12.6,,,,,00:56:38,11.3,-2.2,37.7,0.0,210.0,-5.6,-0.02,1.0,99.0,26.0,28.0,0.0,29.99,1825.0,,,144.0,,,,,0.0,0.0,,,,,,,-3.0,,,58.0,,,,,1.0,0.0,0.0,1200.0,63.0,43.0,1062.0,1062.0,14.1,1.8,,1.8,25.4,,,21.5,0.0,0.0,37.7,13.1,10.7,,,,,108.0,568.0,109.0,565.0,109.0,574.0,111.0,577.0,,,0.0,0.0,,25.4,3.0,0.0,,,1.188,0.845,63.3,42.8,,,,,,1062.0,2026-04-29 17:54:35-07:00
131.06,1.0,9.0,2026-04-30 00:56:40,37.08203,-121.59892,435.0,3.2,63.8,-12.6,,,,,00:56:39,11.4,-1.3,30.0,0.0,210.0,-6.9,-0.01,1.0,99.0,15.0,28.0,0.0,29.99,1826.0,,,144.0,,,,,0.0,0.0,,,,,,,-3.0,,,58.0,,,,,1.0,0.0,0.0,1200.0,63.0,43.0,1053.0,1053.0,13.8,2.0,,2.0,25.4,,,21.5,0.0,0.0,35.5,13.1,10.7,,,,,108.0,571.0,109.0,570.0,110.0,577.0,112.0,580.0,,,0.0,0.0,,25.4,3.0,0.0,,,1.228,0.859,63.4,42.7,,,,,,1053.0,2026-04-29 17:54:35-07:00
132.06,1.0,9.0,2026-04-30 00:56:41,37.08203,-121.5989,433.0,3.6,54.9,-12.6,,,,,00:56:40,11.4,-1.2,21.0,0.0,210.0,-8.0,0.0,1.0,99.0,12.0,28.0,0.0,29.99,1826.0,,,144.0,,,,,0.0,0.0,,,,,,,-3.0,,,58.0,,,,,1.0,0.0,0.0,1200.0,64.0,43.0,1102.0,1102.0,13.6,2.0,,2.0,25.4,,,21.5,0.0,0.0,33.5,13.1,10.7,,,,,109.0,575.0,110.0,574.0,110.0,580.0,112.0,580.0,,,0.0,0.0,,25.4,3.0,0.0,,,1.313,0.84,64.3,42.7,,,,,,1102.0,2026-04-29 17:54:35-07:00
133.06,1.0,9.0,2026-04-30 00:56:42,37.08204,-121.59888,430.0,4.0,49.2,-12.6,,,,,00:56:41,11.1,-0.5,10.1,0.0,210.0,-9.6,0.02,0.9,99.0,-48.0,28.0,0.0,29.99,1826.0,,,144.0,,,,,0.0,0.0,,,,,,,-3.0,,,58.0,,,,,1.0,0.0,0.0,1200.0,65.0,43.0,1099.0,1099.0,13.2,2.1,,2.1,25.4,,,21.5,0.0,0.0,31.8,13.1,10.7,,,,,109.0,577.0,110.0,577.0,110.0,585.0,113.0,584.0,,,0.0,0.0,,25.4,3.0,0.0,,,1.304,0.844,64.9,42.7,,,,,,1099.0,2026-04-29 17:54:35-07:00
134.06,1.0,9.0,2026-04-30 00:56:43,37.08205,-121.59887,426.0,4.5,33.7,-12.6,,,,,00:56:42,11.0,-0.7,357.7,0.0,210.0,-11.3,0.04,1.0,99.0,-23.0,28.0,0.0,29.99,1835.0,,,144.0,,,,,0.0,0.0,,,,,,,-3.0,,,58.0,,,,,1.0,0.0,0.0,1200.0,64.0,43.0,1071.0,1071.0,13.2,2.2,,2.2,25.4,,,21.5,0.0,0.0,30.1,13.1,10.7,,,,,109.0,579.0,110.0,582.0,111.0,588.0,113.0,588.0,,,0.0,0.0,,25.4,3.0,0.0,,,1.265,0.841,64.3,42.6,,,,,,1071.0,2026-04-29 17:54:35-07:00
135.06,1.0,9.0,2026-04-30 00:56:44,37.08206,-121.59885,422.0,4.9,20.8,-12.6,,,,,00:56:43,11.3,-1.0,346.2,0.0,210.0,-11.7,0.05,1.0,99.0,-41.0,28.0,0.0,29.99,1835.0,,,144.0,,,,,0.0,0.0,,,,,,,-3.0,,,57.0,,,,,1.0,0.0,0.0,1200.0,65.0,43.0,1080.0,1080.0,13.1,2.2,,2.2,25.4,,,21.5,0.0,0.0,28.6,13.1,10.7,,,,,109.0,582.0,110.0,584.0,111.0,590.0,113.0,592.0,,,0.0,0.0,,25.4,3.0,0.0,,,0.92,0.842,64.5,42.6,,,,,,1080.0,2026-04-29 17:54:35-07:00
136.06,1.0,9.0,2026-04-30 00:56:45,37.08208,-121.59885,418.0,5.2,7.3,-12.6,,,,,00:56:44,11.1,-0.9,337.3,0.0,208.0,-10.2,0.04,1.0,99.0,-58.0,28.0,0.0,29.99,1833.0,,,144.0,,,,,0.0,0.0,,,,,,,-3.0,,,54.0,,,,,1.0,0.0,0.0,1200.0,64.0,43.0,1078.0,1078.0,13.2,2.2,,2.2,25.4,,,21.5,0.0,0.0,27.3,13.1,10.7,,,,,110.0,584.0,111.0,588.0,111.0,593.0,114.0,595.0,,,0.0,0.0,,25.4,3.0,0.0,,,0.93,0.829,64.3,42.6,,,,,,1078.0,2026-04-29 17:54:35-07:00
137.06,1.0,9.0,2026-04-30 00:56:46,37.0821,-121.59885,414.0,5.6,354.5,-12.6,,,,,00:56:45,11.1,-0.6,330.5,0.0,208.0,-8.3,0.04,0.9,99.0,-52.0,28.0,0.0,29.99,1833.0,,,144.0,,,,,0.0,0.0,,,,,,,-3.0,,,54.0,,,,,1.0,0.0,0.0,1200.0,65.0,43.0,1102.0,1102.0,13.2,2.3,,2.3,25.4,,,21.5,0.0,0.0,26.4,13.1,10.7,,,,,110.0,585.0,111.0,591.0,112.0,595.0,114.0,596.0,,,0.0,0.0,,25.4,3.0,0.0,,,0.919,0.852,64.7,42.6,,,,,,1102.0,2026-04-29 17:54:35-07:00
138.06,1.0,9.0,2026-04-30 00:56:47,37.08212,-121.59885,410.0,6.1,348.9,-12.6,,,,,00:56:46,11.1,-0.9,325.4,0.0,208.0,-6.6,0.02,1.1,99.0,-18.0,28.0,0.0,29.99,1833.0,,,144.0,,,,,0.0,0.0,,,,,,,-4.0,,,54.0,,,,,1.0,0.0,0.0,1200.0,64.0,43.0,1076.0,1076.0,13.2,2.3,,2.3,25.4,,,21.5,0.0,0.0,26.0,13.1,10.7,,,,,111.0,587.0,111.0,593.0,112.0,595.0,115.0,601.0,,,0.0,0.0,,25.4,3.0,0.0,,,0.82,0.909,64.4,42.6,,,,,,1076.0,2026-04-29 17:54:35-07:00
139.06,1.0,9.0,2026-04-30 00:56:48,37.08214,-121.59887,406.0,6.2,341.1,-12.6,,,,,00:56:47,11.1,-0.9,322.7,0.0,208.0,-4.5,0.01,1.1,99.0,25.0,28.0,0.0,29.99,1833.0,,,144.0,,,,,0.0,0.0,,,,,,,-4.0,,,54.0,,,,,1.0,0.0,0.0,1200.0,64.0,43.0,1089.0,1089.0,13.3,2.3,,2.3,25.4,,,21.5,0.0,0.0,25.3,13.1,10.7,,,,,111.0,589.0,112.0,597.0,113.0,597.0,115.0,602.0,,,0.0,0.0,,25.4,3.0,0.0,,,0.804,0.913,64.3,42.6,,,,,,1089.0,2026-04-29 17:54:35-07:00
140.06,1.0,9.0,2026-04-30 00:56:49,37.08217,-121.59888,403.0,6.7,339.9,-12.6,,,,,00:56:48,11.1,-0.7,321.5,0.0,208.0,-2.7,0.01,0.8,99.0,19.0,28.0,0.0,29.99,1833.0,,,144.0,,,,,0.0,0.0,,,,,,,-7.0,,,53.0,,,,,1.0,0.0,0.0,1200.0,64.0,43.0,1074.0,1074.0,13.3,2.3,,2.3,25.4,,,21.5,0.0,0.0,24.6,13.1,10.7,,,,,111.0,591.0,112.0,599.0,113.0,597.0,115.0,604.0,,,0.0,0.0,,25.4,3.0,0.0,,,0.89,0.935,64.1,42.6,,,,,,1074.0,2026-04-29 17:54:35-07:00
141.06,1.0,9.0,2026-04-30 00:56:50,37.08219,-121.59889,400.0,6.5,336.2,-12.6,,,,,00:56:49,11.1,-0.6,324.7,0.0,208.0,0.5,-0.01,1.0,99.0,31.0,28.0,0.0,29.99,1833.0,,,144.0,,,,,0.0,0.0,,,,,,,-7.0,,,54.0,,,,,1.0,0.0,0.0,1200.0,64.0,43.0,1092.0,1092.0,13.3,2.3,,2.3,25.4,,,21.5,0.0,0.0,23.8,13.1,10.7,,,,,111.0,593.0,112.0,599.0,113.0,599.0,116.0,604.0,,,0.0,0.0,,25.4,3.0,0.0,,,0.93,0.841,64.3,42.6,,,,,,1092.0,2026-04-29 17:54:35-07:00
142.06,1.0,9.0,2026-04-30 00:56:51,37.08221,-121.59892,397.0,6.3,334.6,-12.6,,,,,00:56:50,11.3,-0.8,334.1,0.0,208.0,5.4,-0.04,1.0,99.0,21.0,28.0,0.0,29.99,1823.0,,,144.0,,,,,0.0,0.0,,,,,,,-7.0,,,53.0,,,,,1.0,0.0,0.0,1200.0,65.0,43.0,1076.0,1076.0,13.1,2.3,,2.3,25.4,,,21.5,0.0,0.0,22.8,13.1,10.7,,,,,112.0,595.0,113.0,601.0,114.0,601.0,116.0,606.0,,,0.0,0.0,,25.4,3.0,0.0,,,1.005,1.056,64.6,42.5,,,,,,1076.0,2026-04-29 17:54:35-07:00
143.06,1.0,9.0,2026-04-30 00:56:52,37.08224,-121.59892,394.0,6.2,346.9,-12.6,,,,,00:56:51,11.7,-0.8,345.0,0.0,208.0,8.9,-0.08,1.0,99.0,32.0,28.0,0.0,29.99,1824.0,,,144.0,,,,,0.0,0.0,,,,,,,-7.0,,,53.0,,,,,1.0,0.0,0.0,1200.0,64.0,43.0,1066.0,1066.0,13.1,2.3,,2.3,25.4,,,21.5,0.0,0.0,21.3,13.1,10.7,,,,,112.0,597.0,113.0,602.0,114.0,602.0,117.0,608.0,,,0.0,0.0,,25.4,3.0,0.0,,,1.205,0.826,64.2,42.5,,,,,,1066.0,2026-04-29 17:54:35-07:00
144.06,1.0,9.0,2026-04-30 00:56:53,37.08226,-121.59893,392.0,6.2,355.9,-12.6,,,,,00:56:52,11.8,-0.5,357.0,0.0,208.0,10.6,-0.07,0.9,99.0,55.0,28.0,0.0,29.99,1824.0,,,144.0,,,,,0.0,0.0,,,,,,,-7.0,,,52.0,,,,,1.0,0.0,0.0,1200.0,64.0,43.0,1092.0,1092.0,13.1,2.3,,2.3,25.4,,,21.5,0.0,0.0,20.1,13.1,10.7,,,,,112.0,600.0,113.0,603.0,114.0,604.0,117.0,608.0,,,0.0,0.0,,25.4,3.0,0.0,,,1.321,0.917,64.5,42.5,,,,,,1092.0,2026-04-29 17:54:35-07:00
145.06,1.0,9.0,2026-04-30 00:56:54,37.08229,-121.59893,390.0,5.8,8.4,-12.6,,,,,00:56:53,11.6,-0.9,10.2,0.0,208.0,12.3,-0.09,1.0,99.0,61.0,28.0,0.0,29.99,1824.0,,,144.0,,,,,0.0,0.0,,,,,,,-7.0,,,52.0,,,,,1.0,0.0,0.0,1200.0,65.0,43.0,1099.0,1099.0,13.2,2.3,,2.3,25.4,,,21.5,0.0,0.0,19.1,13.1,10.7,,,,,113.0,600.0,113.0,604.0,114.0,604.0,117.0,610.0,,,0.0,0.0,,25.4,3.0,0.0,,,1.36,0.864,64.7,42.5,,,,,,1099.0,2026-04-29 17:54:35-07:00
146.06,1.0,9.0,2026-04-30 00:56:55,37.08231,-121.59892,388.0,6.3,20.3,-12.6,,,,,00:56:54,11.2,-0.9,23.7,0.0,208.0,13.0,-0.1,1.0,99.0,58.0,28.0,0.0,29.99,1824.0,,,144.0,,,,,0.0,0.0,,,,,,,-7.0,,,52.0,,,,,1.0,0.0,0.0,1200.0,64.0,43.0,1092.0,1092.0,13.2,2.3,,2.3,25.4,,,21.5,0.0,0.0,18.3,13.1,10.7,,,,,113.0,600.0,114.0,606.0,115.0,605.0,118.0,612.0,,,0.0,0.0,,25.4,3.0,0.0,,,1.375,0.887,64.3,42.5,,,,,,1092.0,2026-04-29 17:54:35-07:00
