Session Time,GPS Fix Quality,Number of Satellites,GPS Date & Time,Latitude (deg),Longitude (deg),GPS Altitude (feet),Ground Speed (knots),Ground Track (deg),Mag Var (deg),Cross Track Error (NM),Destination Waypoint ID,Range to Destination (NM),Bearing to Destination (deg),System Time,Pitch (deg),Roll (deg),Magnetic Heading (deg),Indicated Airspeed (knots),Pressure Altitude (ft),Turn Rate (deg/s),Lateral Accel (g),Vertical Accel(g),Angle of Attack (%),Vertical Speed (ft/min),OAT (deg C),True Airspeed (knots),Barometer Setting (inHg),Density Altitude (ft),Wind Direction (deg),Wind Speed (knots),Heading Bug (deg),Altitude Bug (ft),Airspeed Bug (knots),Vertical Speed Bug (ft/min),Course (deg),CDI Source Type,CDI Source Port,CDI Scale (NM),CDI Deflection (%),Glideslope (%),AP Engaged,AP Roll Mode,AP Roll Force,AP Roll Position (steps),AP Roll Slip (bool),AP Pitch Force,AP Pitch Position (steps),AP Pitch Slip (bool),AP Yaw Force,AP Yaw Position,AP Yaw Slip (bool),Transponder Status,Transponder Reply (bool),Transponder Identing (bool),Transponder Code (octal),Oil Pressure (PSI),Oil Temp (deg C),RPM L,RPM R,Manifold Pressure (inHg),Fuel Flow 1 (gal/hr),Fuel Flow 2 (gal/hr),Total Fuel Flow (gal/hr),Fuel Pressure (PSI),Fuel Level L (gal),Fuel Level R (gal),Fuel Remaining (gal),Volts 1,Volts 2,Amps,Hobbs Time,Tach Time,Thermocouple 1 (deg C),Thermocouple 2 (deg C),Thermocouple 3 (deg C),Thermocouple 4 (deg C),CHT 4 (deg C),EGT 4 (deg C),CHT 3 (deg C),EGT 3 (deg C),CHT 2 (deg C),EGT 2 (deg C),CHT 1 (deg C),EGT 1 (deg C),Thermocouple 13 (deg C),Thermocouple 14 (deg C),ELEV POSITION (%),CO PPM PRESSURE (PSI),GP Input 3,FUEL PRESSURE (PSI),AILERN POSITION (%),CANOPY CONTACT (V),GP Input 7,GP Input 8,LEFT LEVEL (Sensor V),RIGHT LEVEL (Sensor V),OIL PRESSURE (PSI),OIL TEMPERATURE (deg C),GP Input 13,Contacts,Percent Power,EGT Leaning State,Unnamed: 103,RPM,AVG_CHT,CHT_Delta_T (deg C),OIL_Delta_T (deg C),OAT (deg F),Oil Temp (deg F),Thermocouple 1 (deg F),Thermocouple 2 (deg F),Thermocouple 3 (deg F),Thermocouple 4 (deg F),CHT 4 (deg F),EGT 4 (deg F),CHT 3 (deg F),EGT 3 (deg F),CHT 2 (deg F),EGT 2 (deg F),CHT 1 (deg F),EGT 1 (deg F),Thermocouple 13 (deg F),Thermocouple 14 (deg F),OIL TEMPERATURE (deg F),CHT_Delta_T (deg F),OIL_Delta_T (deg F),Fuel Flow Integral,Distance Traveled,MPG,Flight ID
0.06,1.0,8.0,2026-02-01 00:45:19,37.08159,-121.59958,309.0,0.0,231.1,-12.7,0.0,,0.0,0.0,0.0,0.0,0.0,0.0,0.0,0.0,0.0,0.0,,0.0,0.0,21.0,0.0,0.0,0.0,0.0,0.0,241.0,0.0,110.0,0.0,0.0,0.0,0.0,0.0,0.0,0.0,0.0,0.0,0.0,0.0,0.0,0.0,0.0,0.0,0.0,0.0,0.0,0.0,0.0,0.0,0.0,0.0,0.0,0.0,0.0,0.0,0.0,0.0,0.0,0.0,0.0,0.0,37.4,0.0,0.0,0.0,0.9,0.3,0.0,0.0,0.0,0.0,0.0,0.0,0.0,,0.0,0.0,0.0,0.0,0.0,0.0,0.0,,0.0,0.0,0.0,0.0,0.0,0.0,0.0,0.0,,0.0,0.0,0.0,0.0,,0.0,0.0,0.0,-21.0,-21.0,69.8,32.0,32.0,32.0,32.0,32.0,32.0,32.0,32.0,,32.0,32.0,32.0,32.0,32.0,32.0,32.0,-5.799999999999997,-5.799999999999997,0.0,0.0,0.0,2026-01-31 16:45:19-08:00
1.06,1.0,8.0,2026-02-01 00:45:20,37.08159,-121.59958,310.0,0.0,231.1,-12.6,0.0,,0.0,0.0,0.0,10.5,-2.1,53.0,0.0,139.0,-0.0,-0.04,1.0,0.0,-115.0,21.0,0.0,30.44,876.0,0.0,0.0,241.0,0.0,110.0,0.0,0.0,0.0,0.0,0.0,0.0,0.0,0.0,0.0,0.0,0.0,0.0,0.0,0.0,0.0,0.0,0.0,0.0,0.0,0.0,0.0,0.0,0.0,0.0,0.0,0.0,0.0,0.0,0.0,0.0,0.0,0.0,0.0,37.4,0.0,0.0,-0.5,0.9,0.3,0.0,0.0,0.0,0.0,18.0,19.0,18.0,19.0,18.0,19.0,18.0,19.0,0.0,0.0,-6.0,254.4,0.0,0.8,-8.0,4.998,0.0,0.0,0.654,0.791,0.0,56.5,0.0,0.0,0.0,,0.0,0.0,18.0,-3.0,35.5,69.8,32.0,32.0,32.0,32.0,32.0,64.4,66.2,64.4,66.2,64.4,66.2,64.4,66.2,32.0,32.0,133.7,26.6,95.9,0.0,0.0,0.0,2026-01-31 16:45:19-08:00
2.06,1.0,8.0,2026-02-01 00:45:21,37.08159,-121.59958,311.0,0.0,231.1,-12.6,0.0,,0.0,0.0,0.0,10.5,-2.1,53.1,0.0,138.0,-0.0,-0.04,1.0,0.0,-82.0,21.0,0.0,30.44,876.0,0.0,0.0,241.0,0.0,110.0,0.0,0.0,0.0,0.0,0.0,0.0,0.0,0.0,0.0,0.0,0.0,0.0,0.0,0.0,0.0,0.0,0.0,0.0,0.0,0.0,0.0,0.0,0.0,0.0,0.0,0.0,0.0,0.0,0.0,0.0,0.0,0.0,0.0,37.4,0.0,0.0,-0.5,0.9,0.3,0.0,0.0,0.0,0.0,18.0,19.0,18.0,19.0,18.0,19.0,18.0,19.0,0.0,0.0,-6.0,254.4,0.0,0.8,-8.0,4.998,0.0,0.0,0.654,0.791,0.0,56.5,0.0,0.0,0.0,,0.0,0.0,18.0,-3.0,35.5,69.8,32.0,32.0,32.0,32.0,32.0,64.4,66.2,64.4,66.2,64.4,66.2,64.4,66.2,32.0,32.0,133.7,26.6,95.9,0.0,0.0,0.0,2026-01-31 16:45:19-08:00
3.06,1.0,8.0,2026-02-01 00:45:22,37.08158,-121.59958,311.0,0.0,231.1,-12.6,0.0,,0.0,0.0,0.0,10.6,-2.1,53.1,0.0,137.0,0.0,-0.04,1.0,0.0,-84.0,21.0,0.0,30.44,876.0,0.0,0.0,241.0,0.0,110.0,0.0,0.0,0.0,0.0,0.0,0.0,0.0,0.0,0.0,0.0,0.0,0.0,0.0,0.0,0.0,0.0,0.0,0.0,0.0,0.0,0.0,0.0,0.0,0.0,0.0,0.0,0.0,0.0,0.0,0.0,0.0,0.0,0.0,37.4,0.0,0.0,-0.5,0.9,0.3,0.0,0.0,0.0,0.0,18.0,19.0,18.0,19.0,18.0,19.0,18.0,19.0,0.0,0.0,-6.0,254.4,0.0,0.8,-8.0,4.998,0.0,0.0,0.654,0.803,0.0,0.0,0.0,0.0,0.0,,0.0,0.0,18.0,-3.0,-21.0,69.8,32.0,32.0,32.0,32.0,32.0,64.4,66.2,64.4,66.2,64.4,66.2,64.4,66.2,32.0,32.0,32.0,26.6,-5.799999999999997,0.0,0.0,0.0,2026-01-31 16:45:19-08:00
4.06,1.0,8.0,2026-02-01 00:45:24,37.08158,-121.59958,313.0,0.0,231.1,-12.6,0.0,,0.0,0.0,0.0,10.6,-2.1,53.1,0.0,135.0,0.0,-0.04,1.0,0.0,-62.0,21.0,0.0,30.44,872.0,0.0,0.0,241.0,0.0,110.0,0.0,0.0,0.0,0.0,0.0,0.0,0.0,0.0,0.0,0.0,0.0,0.0,0.0,0.0,0.0,0.0,0.0,0.0,0.0,0.0,0.0,0.0,0.0,0.0,0.0,0.0,0.0,0.0,0.0,0.0,0.0,0.0,0.0,37.4,0.0,0.0,-0.5,0.9,0.3,0.0,0.0,0.0,0.0,18.0,19.0,18.0,19.0,18.0,19.0,18.0,19.0,0.0,0.0,-6.0,254.4,0.0,0.8,-8.0,4.998,0.0,0.0,0.654,0.8,0.0,17.3,0.0,0.0,0.0,,0.0,0.0,18.0,-3.0,-3.6999999999999993,69.8,32.0,32.0,32.0,32.0,32.0,64.4,66.2,64.4,66.2,64.4,66.2,64.4,66.2,32.0,32.0,63.14,26.6,25.34,0.0,0.0,0.0,2026-01-31 16:45:19-08:00
5.06,1.0,8.0,2026-02-01 00:45:24,37.08158,-121.59959,314.0,0.0,231.1,-12.6,0.0,,0.0,0.0,0.0,10.6,-2.1,53.1,0.0,135.0,0.0,-0.04,1.0,0.0,-72.0,21.0,0.0,30.44,872.0,0.0,0.0,241.0,0.0,0.0,0.0,0.0,0.0,0.0,0.0,0.0,0.0,0.0,0.0,0.0,0.0,0.0,0.0,0.0,0.0,0.0,0.0,0.0,0.0,0.0,0.0,0.0,0.0,17.0,0.0,0.0,30.2,0.0,0.0,0.0,0.8,0.0,0.0,37.4,0.0,0.0,-0.5,0.9,0.3,0.0,0.0,0.0,0.0,18.0,19.0,18.0,19.0,18.0,19.0,18.0,19.0,0.0,0.0,-6.0,254.4,0.0,0.8,-8.0,4.998,0.0,0.0,0.653,0.797,0.0,17.3,0.0,0.0,0.0,,0.0,0.0,18.0,-3.0,-3.6999999999999993,69.8,62.6,32.0,32.0,32.0,32.0,64.4,66.2,64.4,66.2,64.4,66.2,64.4,66.2,32.0,32.0,63.14,26.6,25.34,0.0,0.0,0.0,2026-01-31 16:45:19-08:00
6.06,1.0,8.0,2026-02-01 00:45:25,37.08158,-121.59959,316.0,0.0,231.1,-12.6,0.0,,0.0,0.0,0.0,10.6,-2.2,53.1,0.0,133.0,0.0,-0.04,1.0,0.0,-52.0,21.0,0.0,30.44,872.0,0.0,0.0,241.0,0.0,0.0,0.0,0.0,0.0,0.0,0.0,0.0,0.0,0.0,0.0,0.0,0.0,0.0,0.0,0.0,0.0,0.0,0.0,0.0,0.0,0.0,0.0,0.0,0.0,17.0,0.0,0.0,30.2,0.0,0.0,0.0,0.8,0.0,0.0,37.4,0.0,0.0,-0.5,0.9,0.3,0.0,0.0,0.0,0.0,18.0,19.0,18.0,19.0,18.0,19.0,19.0,19.0,0.0,0.0,-6.0,254.4,0.0,0.8,-8.0,4.998,0.0,0.0,0.653,0.806,0.0,17.3,0.0,0.0,0.0,,0.0,0.0,18.25,-2.75,-3.6999999999999993,69.8,62.6,32.0,32.0,32.0,32.0,64.4,66.2,64.4,66.2,64.4,66.2,66.2,66.2,32.0,32.0,63.14,27.05,25.34,0.0,0.0,0.0,2026-01-31 16:45:19-08:00
7.06,1.0,8.0,2026-02-01 00:45:26,37.08158,-121.59959,317.0,0.0,231.1,-12.6,0.0,,0.0,0.0,0.0,10.7,-2.2,53.0,0.0,133.0,0.0,-0.04,1.0,0.0,-52.0,21.0,0.0,30.44,868.0,0.0,0.0,241.0,0.0,0.0,0.0,0.0,0.0,0.0,0.0,0.0,0.0,0.0,0.0,0.0,0.0,0.0,0.0,0.0,0.0,0.0,0.0,0.0,0.0,0.0,0.0,0.0,0.0,17.0,0.0,0.0,30.2,0.0,0.0,0.0,0.8,0.0,0.0,37.4,0.0,0.0,-0.5,0.9,0.3,0.0,0.0,0.0,0.0,18.0,19.0,18.0,19.0,19.0,19.0,19.0,19.0,0.0,0.0,-6.0,254.4,0.0,0.8,-8.0,4.998,0.0,0.0,0.654,0.8,0.0,17.3,0.0,0.0,0.0,,0.0,0.0,18.5,-2.5,-3.6999999999999993,69.8,62.6,32.0,32.0,32.0,32.0,64.4,66.2,64.4,66.2,66.2,66.2,66.2,66.2,32.0,32.0,63.14,27.5,25.34,0.0,0.0,0.0,2026-01-31 16:45:19-08:00
8.06,1.0,8.0,2026-02-01 00:45:27,37.08158,-121.59959,319.0,0.0,231.1,-12.6,0.0,,0.0,0.0,0.0,10.7,-2.2,53.0,0.0,133.0,-0.0,-0.04,1.0,0.0,-50.0,21.0,0.0,30.44,868.0,0.0,0.0,241.0,0.0,0.0,0.0,0.0,0.0,0.0,0.0,0.0,0.0,0.0,0.0,0.0,0.0,0.0,0.0,0.0,0.0,0.0,0.0,0.0,0.0,0.0,0.0,0.0,0.0,17.0,0.0,0.0,30.2,0.0,0.0,0.0,0.8,0.0,0.0,37.4,0.0,0.0,-0.6,0.9,0.3,0.0,0.0,0.0,0.0,18.0,19.0,18.0,19.0,19.0,19.0,19.0,19.0,0.0,0.0,-6.0,254.4,0.0,0.8,-8.0,4.998,0.0,0.0,0.654,0.818,0.0,17.3,0.0,0.0,0.0,,0.0,0.0,18.5,-2.5,-3.6999999999999993,69.8,62.6,32.0,32.0,32.0,32.0,64.4,66.2,64.4,66.2,66.2,66.2,66.2,66.2,32.0,32.0,63.14,27.5,25.34,0.0,0.0,0.0,2026-01-31 16:45:19-08:00
9.06,1.0,8.0,2026-02-01 00:45:28,37.08158,-121.59959,320.0,0.0,231.1,-12.6,0.0,,0.0,0.0,0.0,10.7,-2.3,52.9,0.0,130.0,-0.0,-0.04,1.0,0.0,-88.0,21.0,0.0,30.44,868.0,0.0,0.0,241.0,0.0,0.0,0.0,0.0,0.0,0.0,0.0,0.0,0.0,0.0,0.0,0.0,0.0,0.0,0.0,0.0,0.0,0.0,0.0,0.0,0.0,0.0,0.0,0.0,0.0,17.0,0.0,0.0,30.2,0.0,0.0,0.0,0.8,0.0,0.0,37.4,0.0,0.0,-0.6,0.9,0.3,0.0,0.0,0.0,0.0,18.0,19.0,18.0,19.0,19.0,19.0,19.0,19.0,0.0,0.0,-6.0,254.4,0.0,0.8,-8.0,4.998,0.0,0.0,0.654,0.804,0.0,17.3,0.0,0.0,0.0,,0.0,0.0,18.5,-2.5,-3.6999999999999993,69.8,62.6,32.0,32.0,32.0,32.0,64.4,66.2,64.4,66.2,66.2,66.2,66.2,66.2,32.0,32.0,63.14,27.5,25.34,0.0,0.0,0.0,2026-01-31 16:45:19-08:00
10.06,1.0,8.0,2026-02-01 00:45:29,37.08158,-121.59959,322.0,0.0,231.1,-12.6,0.0,,0.0,0.0,0.0,10.7,-2.2,52.9,0.0,129.0,0.0,-0.04,1.0,0.0,-79.0,21.0,0.0,30.44,863.0,0.0,0.0,241.0,0.0,0.0,0.0,0.0,0.0,0.0,0.0,0.0,0.0,0.0,0.0,0.0,0.0,0.0,0.0,0.0,0.0,0.0,0.0,0.0,0.0,0.0,0.0,0.0,0.0,17.0,0.0,0.0,30.2,0.0,0.0,0.0,0.8,0.0,0.0,37.4,0.0,0.0,-0.6,0.9,0.3,0.0,0.0,0.0,0.0,18.0,19.0,18.0,19.0,19.0,19.0,19.0,19.0,0.0,0.0,-6.0,254.4,0.0,0.8,-8.0,4.998,0.0,0.0,0.653,0.806,0.0,17.3,0.0,0.0,0.0,,0.0,0.0,18.5,-2.5,-3.6999999999999993,69.8,62.6,32.0,32.0,32.0,32.0,64.4,66.2,64.4,66.2,66.2,66.2,66.2,66.2,32.0,32.0,63.14,27.5,25.34,0.0,0.0,0.0,2026-01-31 16:45:19-08:00
11.06,1.0,8.0,2026-02-01 00:45:30,37.08158,-121.59959,323.0,0.0,231.1,-12.6,0.0,,0.0,0.0,0.0,10.7,-2.2,52.9,0.0,129.0,-0.0,-0.04,1.0,0.0,-69.0,21.0,0.0,30.44,863.0,0.0,0.0,241.0,0.0,0.0,0.0,0.0,0.0,0.0,0.0,0.0,0.0,0.0,0.0,0.0,0.0,0.0,0.0,0.0,0.0,0.0,0.0,0.0,0.0,0.0,0.0,0.0,0.0,17.0,0.0,0.0,30.2,0.0,0.0,0.0,0.8,0.0,0.0,37.4,0.0,0.0,-0.6,0.9,0.3,0.0,0.0,0.0,0.0,18.0,19.0,18.0,19.0,19.0,19.0,19.0,19.0,0.0,0.0,-6.0,254.3,0.0,0.8,-8.0,4.998,0.0,0.0,0.654,0.801,0.0,17.3,0.0,0.0,0.0,,0.0,0.0,18.5,-2.5,-3.6999999999999993,69.8,62.6,32.0,32.0,32.0,32.0,64.4,66.2,64.4,66.2,66.2,66.2,66.2,66.2,32.0,32.0,63.14,27.5,25.34,0.0,0.0,0.0,2026-01-31 16:45:19-08:00
12.06,1.0,8.0,2026-02-01 00:45:31,37.08158,-121.59959,325.0,0.0,231.1,-12.6,0.0,,0.0,0.0,0.0,10.7,-2.2,52.9,0.0,128.0,-0.0,-0.04,1.0,0.0,-41.0,21.0,0.0,30.44,863.0,0.0,0.0,241.0,0.0,0.0,0.0,0.0,0.0,0.0,0.0,0.0,0.0,0.0,0.0,0.0,0.0,0.0,0.0,0.0,0.0,0.0,0.0,0.0,0.0,0.0,0.0,0.0,0.0,17.0,0.0,0.0,30.2,0.0,0.0,0.0,0.8,0.0,0.0,37.4,0.0,0.0,-0.6,0.9,0.3,0.0,0.0,0.0,0.0,18.0,19.0,18.0,19.0,19.0,19.0,19.0,19.0,0.0,0.0,-6.0,254.3,0.0,0.8,-8.0,4.998,0.0,0.0,0.654,0.797,0.0,17.3,0.0,0.0,0.0,,0.0,0.0,18.5,-2.5,-3.6999999999999993,69.8,62.6,32.0,32.0,32.0,32.0,64.4,66.2,64.4,66.2,66.2,66.2,66.2,66.2,32.0,32.0,63.14,27.5,25.34,0.0,0.0,0.0,2026-01-31 16:45:19-08:00
13.06,1.0,8.0,2026-02-01 00:45:32,37.08159,-121.5996,326.0,0.0,231.1,-12.6,0.0,,0.0,0.0,0.0,10.7,-2.2,52.8,0.0,127.0,-0.0,-0.04,1.0,0.0,-58.0,21.0,0.0,30.44,861.0,0.0,0.0,241.0,0.0,0.0,0.0,0.0,0.0,0.0,0.0,0.0,0.0,0.0,0.0,0.0,0.0,0.0,0.0,0.0,0.0,0.0,0.0,0.0,0.0,0.0,0.0,0.0,0.0,17.0,0.0,0.0,30.2,0.0,0.0,0.0,0.8,0.0,0.0,37.4,0.0,0.0,-0.6,0.9,0.3,0.0,0.0,0.0,0.0,18.0,19.0,18.0,19.0,19.0,19.0,19.0,19.0,0.0,0.0,-6.0,254.3,0.0,0.8,-8.0,4.998,0.0,0.0,0.654,0.796,0.0,17.3,0.0,0.0,0.0,,0.0,0.0,18.5,-2.5,-3.6999999999999993,69.8,62.6,32.0,32.0,32.0,32.0,64.4,66.2,64.4,66.2,66.2,66.2,66.2,66.2,32.0,32.0,63.14,27.5,25.34,0.0,0.0,0.0,2026-01-31 16:45:19-08:00
14.06,1.0,8.0,2026-02-01 00:45:33,37.08159,-121.5996,327.0,0.1,231.1,-12.6,0.0,,0.0,0.0,0.0,10.7,-2.3,52.8,0.0,127.0,-0.0,-0.03,1.0,0.0,-47.0,21.0,0.0,30.44,861.0,0.0,0.0,241.0,0.0,0.0,0.0,0.0,0.0,0.0,0.0,0.0,0.0,0.0,0.0,0.0,0.0,0.0,0.0,0.0,0.0,0.0,0.0,0.0,0.0,0.0,0.0,0.0,0.0,17.0,0.0,0.0,30.2,0.0,0.0,0.0,0.8,0.0,0.0,37.4,0.0,0.0,-0.6,0.9,0.3,0.0,0.0,0.0,0.0,18.0,19.0,18.0,19.0,19.0,19.0,19.0,19.0,0.0,0.0,-6.0,254.3,0.0,0.8,-8.0,4.998,0.0,0.0,0.653,0.795,0.0,17.3,0.0,0.0,0.0,,0.0,0.0,18.5,-2.5,-3.6999999999999993,69.8,62.6,32.0,32.0,32.0,32.0,64.4,66.2,64.4,66.2,66.2,66.2,66.2,66.2,32.0,32.0,63.14,27.5,25.34,0.0,0.08433333333333333,0.0,2026-01-31 16:45:19-08:00
15.06,1.0,8.0,2026-02-01 00:45:34,37.08159,-121.5996,329.0,0.1,231.1,-12.6,0.0,,0.0,0.0,0.0,10.7,-2.2,52.9,0.0,126.0,0.0,-0.04,1.0,0.0,-47.0,21.0,0.0,30.44,861.0,0.0,0.0,241.0,0.0,0.0,0.0,0.0,0.0,0.0,0.0,0.0,0.0,0.0,0.0,0.0,0.0,0.0,0.0,0.0,0.0,0.0,0.0,0.0,0.0,0.0,0.0,0.0,0.0,17.0,0.0,0.0,30.2,0.0,0.0,0.0,0.8,0.0,0.0,37.4,0.0,0.0,-0.6,0.9,0.3,0.0,0.0,0.0,0.0,18.0,19.0,18.0,19.0,19.0,19.0,19.0,19.0,0.0,0.0,-6.0,254.3,0.0,0.8,-8.0,4.998,0.0,0.0,0.656,0.793,0.0,17.3,0.0,0.0,0.0,,0.0,0.0,18.5,-2.5,-3.6999999999999993,69.8,62.6,32.0,32.0,32.0,32.0,64.4,66.2,64.4,66.2,66.2,66.2,66.2,66.2,32.0,32.0,63.14,27.5,25.34,0.0,0.253,0.0,2026-01-31 16:45:19-08:00
16.06,1.0,8.0,2026-02-01 00:45:35,37.08159,-121.5996,330.0,0.0,231.1,-12.6,0.0,,0.0,0.0,0.0,10.7,-2.2,52.8,0.0,126.0,-0.0,-0.04,1.0,0.0,-25.0,21.0,0.0,30.44,859.0,0.0,0.0,241.0,0.0,0.0,0.0,0.0,0.0,0.0,0.0,0.0,0.0,0.0,0.0,0.0,0.0,0.0,0.0,0.0,0.0,0.0,0.0,0.0,0.0,0.0,0.0,0.0,0.0,17.0,0.0,0.0,30.2,0.0,0.0,0.0,0.8,0.0,0.0,37.4,0.0,0.0,-0.6,0.9,0.3,0.0,0.0,0.0,0.0,18.0,19.0,18.0,19.0,19.0,19.0,19.0,19.0,0.0,0.0,-6.0,254.3,0.0,0.8,-8.0,4.998,0.0,0.0,0.656,0.792,0.0,17.3,0.0,0.0,0.0,,0.0,0.0,18.5,-2.5,-3.6999999999999993,69.8,62.6,32.0,32.0,32.0,32.0,64.4,66.2,64.4,66.2,66.2,66.2,66.2,66.2,32.0,32.0,63.14,27.5,25.34,0.0,0.33733333333333315,0.0,2026-01-31 16:45:19-08:00
17.06,1.0,8.0,2026-02-01 00:45:36,37.08159,-121.59961,331.0,0.0,231.1,-12.6,0.0,,0.0,0.0,0.0,10.7,-2.2,52.9,0.0,126.0,-0.0,-0.04,1.0,0.0,-2.0,21.0,0.0,30.44,860.0,0.0,0.0,241.0,0.0,0.0,0.0,0.0,0.0,0.0,0.0,0.0,0.0,0.0,0.0,0.0,0.0,0.0,0.0,0.0,0.0,0.0,0.0,0.0,0.0,0.0,0.0,0.0,0.0,17.0,0.0,0.0,30.2,0.0,0.0,0.0,0.8,0.0,0.0,37.4,0.0,0.0,-0.6,0.9,0.3,0.0,0.0,0.0,0.0,18.0,19.0,18.0,19.0,19.0,19.0,19.0,19.0,0.0,0.0,-6.0,254.3,0.0,0.8,-8.0,4.998,0.0,0.0,0.654,0.793,0.0,17.3,0.0,0.0,0.0,,0.0,0.0,18.5,-2.5,-3.6999999999999993,69.8,62.6,32.0,32.0,32.0,32.0,64.4,66.2,64.4,66.2,66.2,66.2,66.2,66.2,32.0,32.0,63.14,27.5,25.34,0.0,0.33733333333333315,0.0,2026-01-31 16:45:19-08:00
18.06,1.0,8.0,2026-02-01 00:45:37,37.08159,-121.59961,331.0,0.0,231.1,-12.6,0.0,,0.0,0.0,0.0,10.7,-2.2,52.9,0.0,126.0,-0.0,-0.04,1.0,0.0,6.0,21.0,0.0,30.44,860.0,0.0,0.0,241.0,0.0,0.0,0.0,0.0,0.0,0.0,0.0,0.0,0.0,0.0,0.0,0.0,0.0,0.0,0.0,0.0,0.0,0.0,0.0,0.0,0.0,0.0,0.0,0.0,0.0,17.0,0.0,0.0,30.2,0.0,0.0,0.0,0.8,0.0,0.0,37.4,0.0,0.0,-0.6,0.9,0.3,0.0,0.0,0.0,0.0,18.0,19.0,18.0,19.0,18.0,19.0,19.0,19.0,0.0,0.0,-6.0,254.3,0.0,0.8,-8.0,4.998,0.0,0.0,0.656,0.792,0.0,17.3,0.0,0.0,0.0,,0.0,0.0,18.25,-2.75,-3.6999999999999993,69.8,62.6,32.0,32.0,32.0,32.0,64.4,66.2,64.4,66.2,64.4,66.2,66.2,66.2,32.0,32.0,63.14,27.05,25.34,0.0,0.33733333333333315,0.0,2026-01-31 16:45:19-08:00
19.06,1.0,8.0,2026-02-01 00:45:38,37.08159,-121.59961,332.0,0.2,231.1,-12.6,0.0,,0.0,0.0,0.0,10.7,-2.2,52.9,0.0,126.0,-0.0,-0.04,1.0,0.0,-15.0,21.0,0.0,30.44,860.0,0.0,0.0,241.0,0.0,0.0,0.0,0.0,0.0,0.0,0.0,0.0,0.0,0.0,0.0,0.0,0.0,0.0,0.0,0.0,0.0,0.0,0.0,0.0,0.0,0.0,0.0,0.0,0.0,17.0,0.0,0.0,30.2,0.0,0.0,0.0,0.8,0.0,0.0,37.4,0.0,0.0,-0.6,0.9,0.3,0.0,0.0,0.0,0.0,18.0,19.0,18.0,19.0,19.0,19.0,19.0,19.0,0.0,0.0,-6.0,254.3,0.0,0.8,-8.0,4.998,0.0,0.0,0.654,0.792,0.0,17.3,0.0,0.0,0.0,,0.0,0.0,18.5,-2.5,-3.6999999999999993,69.8,62.6,32.0,32.0,32.0,32.0,64.4,66.2,64.4,66.2,66.2,66.2,66.2,66.2,32.0,32.0,63.14,27.5,25.34,0.0,0.5059999999999998,0.0,2026-01-31 16:45:19-08:00
20.06,1.0,8.0,2026-02-01 00:45:39,37.08159,-121.59961,333.0,0.0,231.1,-12.6,0.0,,0.0,0.0,0.0,10.7,-2.2,52.9,0.0,125.0,-0.0,-0.04,1.0,0.0,-18.0,21.0,0.0,30.44,859.0,0.0,0.0,241.0,0.0,0.0,0.0,0.0,0.0,0.0,0.0,0.0,0.0,0.0,0.0,0.0,0.0,0.0,0.0,0.0,0.0,0.0,0.0,0.0,0.0,0.0,0.0,0.0,0.0,17.0,0.0,0.0,30.2,0.0,0.0,0.0,0.8,0.0,0.0,37.4,0.0,0.0,-0.6,0.9,0.3,0.0,0.0,0.0,0.0,18.0,19.0,18.0,19.0,19.0,19.0,19.0,19.0,0.0,0.0,-6.0,254.3,0.0,0.8,-8.0,4.998,0.0,0.0,0.654,0.791,0.0,17.3,0.0,0.0,0.0,,0.0,0.0,18.5,-2.5,-3.6999999999999993,69.8,62.6,32.0,32.0,32.0,32.0,64.4,66.2,64.4,66.2,66.2,66.2,66.2,66.2,32.0,32.0,63.14,27.5,25.34,0.0,0.6746666666666665,0.0,2026-01-31 16:45:19-08:00
21.06,1.0,8.0,2026-02-01 00:45:40,37.08159,-121.59961,333.0,0.0,231.1,-12.6,0.0,,0.0,0.0,0.0,10.7,-2.2,52.9,0.0,125.0,-0.0,-0.04,1.0,0.0,-7.0,21.0,0.0,30.44,859.0,0.0,0.0,241.0,0.0,0.0,0.0,0.0,0.0,0.0,0.0,0.0,0.0,0.0,0.0,0.0,0.0,0.0,0.0,0.0,0.0,0.0,0.0,0.0,0.0,0.0,0.0,0.0,0.0,17.0,0.0,0.0,30.2,0.0,0.0,0.0,0.8,0.0,0.0,37.4,0.0,0.0,-0.6,0.9,0.3,0.0,0.0,0.0,0.0,18.0,19.0,18.0,19.0,19.0,19.0,19.0,19.0,0.0,0.0,-6.0,254.3,0.0,0.8,-8.0,4.998,0.0,0.0,0.654,0.791,0.0,17.3,0.0,0.0,0.0,,0.0,0.0,18.5,-2.5,-3.6999999999999993,69.8,62.6,32.0,32.0,32.0,32.0,64.4,66.2,64.4,66.2,66.2,66.2,66.2,66.2,32.0,32.0,63.14,27.5,25.34,0.0,0.6746666666666665,0.0,2026-01-31 16:45:19-08:00
22.06,1.0,8.0,2026-02-01 00:45:41,37.08159,-121.59961,333.0,0.0,231.1,-12.6,0.0,,0.0,0.0,0.0,10.7,-2.2,52.9,0.0,125.0,0.0,-0.04,1.0,0.0,-22.0,21.0,0.0,30.44,859.0,0.0,0.0,241.0,0.0,0.0,0.0,0.0,0.0,0.0,0.0,0.0,0.0,0.0,0.0,0.0,0.0,0.0,0.0,0.0,0.0,0.0,0.0,0.0,0.0,0.0,0.0,0.0,0.0,17.0,0.0,0.0,30.2,0.0,0.0,0.0,0.8,0.0,0.0,37.4,0.0,0.0,-0.6,0.9,0.3,0.0,0.0,0.0,0.0,18.0,19.0,18.0,19.0,19.0,19.0,19.0,19.0,0.0,0.0,-6.0,254.3,0.0,0.8,-8.0,4.998,0.0,0.0,0.656,0.786,0.0,17.3,0.0,0.0,0.0,,0.0,0.0,18.5,-2.5,-3.6999999999999993,69.8,62.6,32.0,32.0,32.0,32.0,64.4,66.2,64.4,66.2,66.2,66.2,66.2,66.2,32.0,32.0,63.14,27.5,25.34,0.0,0.6746666666666665,0.0,2026-01-31 16:45:19-08:00
23.06,1.0,8.0,2026-02-01 00:45:42,37.08159,-121.59961,334.0,0.0,231.1,-12.6,0.0,,0.0,0.0,0.0,10.7,-2.2,52.9,0.0,124.0,-0.0,-0.04,1.0,0.0,-36.0,21.0,0.0,30.44,867.0,0.0,0.0,241.0,0.0,0.0,0.0,0.0,0.0,0.0,0.0,0.0,0.0,0.0,0.0,0.0,0.0,0.0,0.0,0.0,0.0,0.0,0.0,0.0,0.0,0.0,0.0,0.0,0.0,17.0,0.0,0.0,30.2,0.0,0.0,0.0,0.8,0.0,0.0,37.4,0.0,0.0,-0.6,0.9,0.3,0.0,0.0,0.0,0.0,18.0,19.0,18.0,19.0,18.0,19.0,19.0,19.0,0.0,0.0,-6.0,254.3,0.0,0.8,-8.0,4.998,0.0,0.0,0.654,0.787,0.0,17.3,0.0,0.0,0.0,,0.0,0.0,18.25,-2.75,-3.6999999999999993,69.8,62.6,32.0,32.0,32.0,32.0,64.4,66.2,64.4,66.2,64.4,66.2,66.2,66.2,32.0,32.0,63.14,27.05,25.34,0.0,0.6746666666666665,0.0,2026-01-31 16:45:19-08:00
24.06,1.0,8.0,2026-02-01 00:45:43,37.08159,-121.59961,334.0,0.0,231.1,-12.6,0.0,,0.0,0.0,0.0,10.7,-2.2,52.9,0.0,122.0,0.0,-0.04,1.0,0.0,-72.0,21.0,0.0,30.44,865.0,0.0,0.0,241.0,0.0,0.0,0.0,0.0,0.0,0.0,0.0,0.0,0.0,0.0,0.0,0.0,0.0,0.0,0.0,0.0,0.0,0.0,0.0,0.0,0.0,0.0,0.0,0.0,0.0,17.0,0.0,0.0,30.2,0.0,0.0,0.0,0.8,0.0,0.0,37.4,0.0,0.0,-0.6,0.9,0.3,0.0,0.0,0.0,0.0,18.0,19.0,18.0,19.0,18.0,19.0,19.0,19.0,0.0,0.0,-6.0,254.3,0.0,0.8,-8.0,4.998,0.0,0.0,0.656,0.787,0.0,17.3,0.0,0.0,0.0,,0.0,0.0,18.25,-2.75,-3.6999999999999993,69.8,62.6,32.0,32.0,32.0,32.0,64.4,66.2,64.4,66.2,64.4,66.2,66.2,66.2,32.0,32.0,63.14,27.05,25.34,0.0,0.6746666666666665,0.0,2026-01-31 16:45:19-08:00
25.06,1.0,8.0,2026-02-01 00:45:44,37.08159,-121.59961,334.0,0.0,231.1,-12.6,0.0,,0.0,0.0,0.0,10.6,-2.2,52.9,0.0,121.0,0.0,-0.04,1.0,0.0,-57.0,21.0,0.0,30.44,862.0,0.0,0.0,241.0,0.0,0.0,0.0,0.0,0.0,0.0,0.0,0.0,0.0,0.0,0.0,0.0,0.0,0.0,0.0,0.0,0.0,0.0,0.0,0.0,0.0,0.0,0.0,0.0,0.0,17.0,0.0,0.0,30.2,0.0,0.0,0.0,0.8,0.0,0.0,37.4,0.0,0.0,-0.6,0.9,0.3,0.0,0.0,0.0,0.0,18.0,19.0,18.0,19.0,19.0,19.0,19.0,19.0,0.0,0.0,-6.0,254.3,0.0,0.8,-8.0,4.998,0.0,0.0,0.656,0.786,0.0,17.3,0.0,0.0,0.0,,0.0,0.0,18.5,-2.5,-3.6999999999999993,69.8,62.6,32.0,32.0,32.0,32.0,64.4,66.2,64.4,66.2,66.2,66.2,66.2,66.2,32.0,32.0,63.14,27.5,25.34,0.0,0.6746666666666665,0.0,2026-01-31 16:45:19-08:00
26.06,1.0,8.0,2026-02-01 00:45:45,37.08159,-121.59961,334.0,0.0,231.1,-12.6,0.0,,0.0,0.0,0.0,10.7,-2.2,52.9,0.0,121.0,0.0,-0.04,1.0,0.0,-15.0,21.0,0.0,30.44,862.0,0.0,0.0,241.0,0.0,0.0,0.0,0.0,0.0,0.0,0.0,0.0,0.0,0.0,0.0,0.0,0.0,0.0,0.0,0.0,0.0,0.0,0.0,0.0,0.0,0.0,0.0,0.0,0.0,17.0,0.0,0.0,30.2,0.0,0.0,0.0,0.8,0.0,0.0,37.4,0.0,0.0,-0.6,0.9,0.3,0.0,0.0,0.0,0.0,18.0,19.0,18.0,19.0,19.0,19.0,19.0,19.0,0.0,0.0,-6.0,254.3,0.0,0.8,-8.0,4.998,0.0,0.0,0.654,0.784,0.0,17.3,0.0,0.0,0.0,,0.0,0.0,18.5,-2.5,-3.6999999999999993,69.8,62.6,32.0,32.0,32.0,32.0,64.4,66.2,64.4,66.2,66.2,66.2,66.2,66.2,32.0,32.0,63.14,27.5,25.34,0.0,0.6746666666666665,0.0,2026-01-31 16:45:19-08:00
27.06,1.0,8.0,2026-02-01 00:45:46,37.08159,-121.59961,334.0,0.0,231.1,-12.6,0.0,,0.0,0.0,0.0,10.6,-2.2,52.9,0.0,121.0,0.0,-0.04,1.0,0.0,-42.0,21.0,0.0,30.44,862.0,0.0,0.0,241.0,0.0,0.0,0.0,0.0,0.0,0.0,0.0,0.0,0.0,0.0,0.0,0.0,0.0,0.0,0.0,0.0,0.0,0.0,0.0,0.0,0.0,0.0,0.0,0.0,0.0,17.0,0.0,0.0,30.2,0.0,0.0,0.0,0.8,0.0,0.0,37.4,0.0,0.0,-0.6,0.9,0.3,0.0,0.0,0.0,0.0,18.0,19.0,18.0,19.0,18.0,19.0,19.0,19.0,0.0,0.0,-6.0,254.3,0.0,0.8,-8.0,4.998,0.0,0.0,0.654,0.784,0.0,17.3,0.0,0.0,0.0,,0.0,0.0,18.25,-2.75,-3.6999999999999993,69.8,62.6,32.0,32.0,32.0,32.0,64.4,66.2,64.4,66.2,64.4,66.2,66.2,66.2,32.0,32.0,63.14,27.05,25.34,0.0,0.6746666666666665,0.0,2026-01-31 16:45:19-08:00
28.06,1.0,8.0,2026-02-01 00:45:47,37.08159,-121.59961,334.0,0.0,231.1,-12.6,0.0,,0.0,0.0,0.0,10.6,-2.3,52.9,0.0,120.0,0.0,-0.04,1.0,0.0,-44.0,21.0,0.0,30.44,862.0,0.0,0.0,241.0,0.0,0.0,0.0,0.0,0.0,0.0,0.0,0.0,0.0,0.0,0.0,0.0,0.0,0.0,0.0,0.0,0.0,0.0,0.0,0.0,0.0,0.0,0.0,0.0,0.0,17.0,0.0,0.0,30.2,0.0,0.0,0.0,0.8,0.0,0.0,37.4,0.0,0.0,-0.6,0.9,0.3,0.0,0.0,0.0,0.0,18.0,19.0,18.0,19.0,19.0,19.0,19.0,19.0,0.0,0.0,-6.0,254.3,0.0,0.8,-8.0,4.998,0.0,0.0,0.656,0.784,0.0,17.3,0.0,0.0,0.0,,0.0,0.0,18.5,-2.5,-3.6999999999999993,69.8,62.6,32.0,32.0,32.0,32.0,64.4,66.2,64.4,66.2,66.2,66.2,66.2,66.2,32.0,32.0,63.14,27.5,25.34,0.0,0.6746666666666665,0.0,2026-01-31 16:45:19-08:00
29.06,1.0,8.0,2026-02-01 00:45:48,37.08159,-121.5996,333.0,0.0,231.1,-12.6,0.0,,0.0,0.0,0.0,10.7,-2.2,53.0,0.0,118.0,0.0,-0.04,1.0,0.0,-72.0,21.0,0.0,30.44,862.0,0.0,0.0,241.0,0.0,0.0,0.0,0.0,0.0,0.0,0.0,0.0,0.0,0.0,0.0,0.0,0.0,0.0,0.0,0.0,0.0,0.0,0.0,0.0,0.0,0.0,0.0,0.0,0.0,17.0,0.0,0.0,30.2,0.0,0.0,0.0,0.8,0.0,0.0,37.4,0.0,0.0,-0.6,0.9,0.3,0.0,0.0,0.0,0.0,18.0,19.0,18.0,19.0,18.0,19.0,19.0,19.0,0.0,0.0,-6.0,254.3,0.0,0.8,-8.0,4.998,0.0,0.0,0.654,0.782,0.0,17.3,0.0,0.0,0.0,,0.0,0.0,18.25,-2.75,-3.6999999999999993,69.8,62.6,32.0,32.0,32.0,32.0,64.4,66.2,64.4,66.2,64.4,66.2,66.2,66.2,32.0,32.0,63.14,27.05,25.34,0.0,0.6746666666666665,0.0,2026-01-31 16:45:19-08:00
30.06,1.0,8.0,2026-02-01 00:45:49,37.08159,-121.5996,333.0,0.0,231.1,-12.6,0.0,,0.0,0.0,0.0,10.7,-2.2,52.9,0.0,116.0,0.0,-0.04,1.0,0.0,-90.0,21.0,0.0,30.44,862.0,0.0,0.0,241.0,0.0,0.0,0.0,0.0,0.0,0.0,0.0,0.0,0.0,0.0,0.0,0.0,0.0,0.0,0.0,0.0,0.0,0.0,0.0,0.0,0.0,0.0,0.0,0.0,0.0,17.0,0.0,0.0,30.2,0.0,0.0,0.0,0.8,0.0,0.0,37.4,0.0,0.0,-0.6,0.9,0.3,0.0,0.0,0.0,0.0,18.0,19.0,18.0,19.0,18.0,19.0,19.0,19.0,0.0,0.0,-6.0,254.3,0.0,0.8,-8.0,4.998,0.0,0.0,0.654,0.781,0.0,17.3,0.0,0.0,0.0,,0.0,0.0,18.25,-2.75,-3.6999999999999993,69.8,62.6,32.0,32.0,32.0,32.0,64.4,66.2,64.4,66.2,64.4,66.2,66.2,66.2,32.0,32.0,63.14,27.05,25.34,0.0,0.6746666666666665,0.0,2026-01-31 16:45:19-08:00
31.06,1.0,8.0,2026-02-01 00:45:50,37.08159,-121.5996,333.0,0.0,231.1,-12.6,0.0,,0.0,0.0,0.0,10.7,-2.3,52.9,0.0,113.0,-0.0,-0.04,1.0,0.0,-135.0,21.0,0.0,30.44,855.0,0.0,0.0,241.0,0.0,0.0,0.0,0.0,0.0,0.0,0.0,0.0,0.0,0.0,0.0,0.0,0.0,0.0,0.0,0.0,0.0,0.0,0.0,0.0,0.0,0.0,0.0,0.0,0.0,17.0,0.0,0.0,30.2,0.0,0.0,0.0,0.8,0.0,0.0,37.4,0.0,0.0,-0.6,0.9,0.3,0.0,0.0,0.0,0.0,18.0,19.0,18.0,19.0,18.0,19.0,19.0,19.0,0.0,0.0,-6.0,254.3,0.0,0.8,-8.0,4.998,0.0,0.0,0.656,0.78,0.0,17.3,0.0,0.0,0.0,,0.0,0.0,18.25,-2.75,-3.6999999999999993,69.8,62.6,32.0,32.0,32.0,32.0,64.4,66.2,64.4,66.2,64.4,66.2,66.2,66.2,32.0,32.0,63.14,27.05,25.34,0.0,0.6746666666666665,0.0,2026-01-31 16:45:19-08:00
32.06,1.0,8.0,2026-02-01 00:45:51,37.08159,-121.5996,332.0,0.0,231.1,-12.6,0.0,,0.0,0.0,0.0,10.7,-2.2,52.9,0.0,112.0,-0.0,-0.04,1.0,0.0,-92.0,21.0,0.0,30.44,855.0,0.0,0.0,241.0,0.0,0.0,0.0,0.0,0.0,0.0,0.0,0.0,0.0,0.0,0.0,0.0,0.0,0.0,0.0,0.0,0.0,0.0,0.0,0.0,0.0,0.0,0.0,0.0,0.0,17.0,0.0,0.0,30.2,0.0,0.0,0.0,0.8,0.0,0.0,37.4,0.0,0.0,-0.6,0.9,0.3,0.0,0.0,0.0,0.0,18.0,19.0,18.0,19.0,19.0,19.0,19.0,19.0,0.0,0.0,-6.0,254.3,0.0,0.8,-8.0,4.998,0.0,0.0,0.656,0.779,0.0,17.3,0.0,0.0,0.0,,0.0,0.0,18.5,-2.5,-3.6999999999999993,69.8,62.6,32.0,32.0,32.0,32.0,64.4,66.2,64.4,66.2,66.2,66.2,66.2,66.2,32.0,32.0,63.14,27.5,25.34,0.0,0.6746666666666665,0.0,2026-01-31 16:45:19-08:00
33.06,1.0,8.0,2026-02-01 00:45:52,37.08159,-121.5996,332.0,0.0,231.1,-12.6,0.0,,0.0,0.0,0.0,10.7,-2.2,52.9,0.0,111.0,0.0,-0.04,1.0,0.0,-67.0,21.0,0.0,30.44,855.0,0.0,0.0,241.0,0.0,0.0,0.0,0.0,0.0,0.0,0.0,0.0,0.0,0.0,0.0,0.0,0.0,0.0,0.0,0.0,0.0,0.0,0.0,0.0,0.0,0.0,0.0,0.0,0.0,17.0,0.0,0.0,30.2,0.0,0.0,0.0,0.8,0.0,0.0,37.4,0.0,0.0,-0.6,0.9,0.3,0.0,0.0,0.0,0.0,18.0,19.0,18.0,19.0,18.0,19.0,19.0,19.0,0.0,0.0,-6.0,254.3,0.0,0.8,-8.0,4.998,0.0,0.0,0.656,0.78,0.0,17.3,0.0,0.0,0.0,,0.0,0.0,18.25,-2.75,-3.6999999999999993,69.8,62.6,32.0,32.0,32.0,32.0,64.4,66.2,64.4,66.2,64.4,66.2,66.2,66.2,32.0,32.0,63.14,27.05,25.34,0.0,0.6746666666666665,0.0,2026-01-31 16:45:19-08:00
34.06,1.0,8.0,2026-02-01 00:45:53,37.08159,-121.5996,331.0,0.0,231.1,-12.6,0.0,,0.0,0.0,0.0,10.6,-2.2,52.9,0.0,111.0,0.0,-0.04,1.0,0.0,-55.0,21.0,0.0,30.44,851.0,0.0,0.0,241.0,0.0,0.0,0.0,0.0,0.0,0.0,0.0,0.0,0.0,0.0,0.0,0.0,0.0,0.0,0.0,0.0,0.0,0.0,0.0,0.0,0.0,0.0,0.0,0.0,0.0,17.0,0.0,0.0,30.2,0.0,0.0,0.0,0.8,0.0,0.0,37.4,0.0,0.0,-0.6,0.9,0.3,0.0,0.0,0.0,0.0,18.0,19.0,18.0,19.0,18.0,19.0,19.0,19.0,0.0,0.0,-6.0,254.3,0.0,0.8,-8.0,4.998,0.0,0.0,0.654,0.78,0.0,17.3,0.0,0.0,0.0,,0.0,0.0,18.25,-2.75,-3.6999999999999993,69.8,62.6,32.0,32.0,32.0,32.0,64.4,66.2,64.4,66.2,64.4,66.2,66.2,66.2,32.0,32.0,63.14,27.05,25.34,0.0,0.6746666666666665,0.0,2026-01-31 16:45:19-08:00
35.06,1.0,8.0,2026-02-01 00:45:54,37.08159,-121.5996,331.0,0.0,231.1,-12.6,0.0,,0.0,0.0,0.0,10.6,-2.3,52.9,0.0,109.0,0.0,-0.04,1.0,0.0,-86.0,21.0,0.0,30.44,851.0,0.0,0.0,241.0,0.0,0.0,0.0,0.0,0.0,0.0,0.0,0.0,0.0,0.0,0.0,0.0,0.0,0.0,0.0,0.0,0.0,0.0,0.0,0.0,0.0,0.0,0.0,0.0,0.0,17.0,0.0,0.0,30.2,0.0,0.0,0.0,0.8,0.0,0.0,37.4,0.0,0.0,-0.6,0.9,0.3,0.0,0.0,0.0,0.0,18.0,19.0,18.0,19.0,18.0,19.0,19.0,19.0,0.0,0.0,-6.0,254.3,0.0,0.8,-8.0,4.998,0.0,0.0,0.654,0.779,0.0,17.3,0.0,0.0,0.0,,0.0,0.0,18.25,-2.75,-3.6999999999999993,69.8,62.6,32.0,32.0,32.0,32.0,64.4,66.2,64.4,66.2,64.4,66.2,66.2,66.2,32.0,32.0,63.14,27.05,25.34,0.0,0.6746666666666665,0.0,2026-01-31 16:45:19-08:00
36.06,1.0,8.0,2026-02-01 00:45:55,37.08159,-121.5996,331.0,0.0,231.1,-12.6,0.0,,0.0,0.0,0.0,10.6,-2.2,52.9,0.0,109.0,0.0,-0.04,1.0,0.0,-64.0,21.0,0.0,30.44,851.0,0.0,0.0,241.0,0.0,0.0,0.0,0.0,0.0,0.0,0.0,0.0,0.0,0.0,0.0,0.0,0.0,0.0,0.0,0.0,0.0,0.0,0.0,0.0,0.0,0.0,0.0,0.0,0.0,17.0,0.0,0.0,30.2,0.0,0.0,0.0,0.8,0.0,0.0,37.4,0.0,0.0,-0.6,0.9,0.3,0.0,0.0,0.0,0.0,18.0,19.0,18.0,19.0,18.0,19.0,19.0,19.0,0.0,0.0,-6.0,254.3,0.0,0.8,-8.0,4.998,0.0,0.0,0.654,0.778,0.0,17.3,0.0,0.0,0.0,,0.0,0.0,18.25,-2.75,-3.6999999999999993,69.8,62.6,32.0,32.0,32.0,32.0,64.4,66.2,64.4,66.2,64.4,66.2,66.2,66.2,32.0,32.0,63.14,27.05,25.34,0.0,0.6746666666666665,0.0,2026-01-31 16:45:19-08:00
37.06,1.0,8.0,2026-02-01 00:45:56,37.08159,-121.5996,330.0,0.0,231.1,-12.6,0.0,,0.0,0.0,0.0,10.7,-2.2,52.9,0.0,107.0,0.0,-0.04,1.0,0.0,-78.0,21.0,0.0,30.44,848.0,0.0,0.0,241.0,0.0,0.0,0.0,0.0,0.0,0.0,0.0,0.0,0.0,0.0,0.0,0.0,0.0,0.0,0.0,0.0,0.0,0.0,0.0,0.0,0.0,0.0,0.0,0.0,0.0,17.0,0.0,0.0,30.2,0.0,0.0,0.0,0.8,0.0,0.0,37.4,0.0,0.0,-0.6,0.9,0.3,0.0,0.0,0.0,0.0,18.0,19.0,18.0,19.0,19.0,19.0,19.0,19.0,0.0,0.0,-6.0,254.3,0.0,0.8,-8.0,4.998,0.0,0.0,0.654,0.778,0.0,17.3,0.0,0.0,0.0,,0.0,0.0,18.5,-2.5,-3.6999999999999993,69.8,62.6,32.0,32.0,32.0,32.0,64.4,66.2,64.4,66.2,66.2,66.2,66.2,66.2,32.0,32.0,63.14,27.5,25.34,0.0,0.6746666666666665,0.0,2026-01-31 16:45:19-08:00
38.06,1.0,8.0,2026-02-01 00:45:57,37.08159,-121.5996,330.0,0.0,231.1,-12.6,0.0,,0.0,0.0,0.0,10.7,-2.2,53.0,0.0,107.0,0.0,-0.04,1.0,0.0,-43.0,21.0,0.0,30.44,848.0,0.0,0.0,241.0,0.0,0.0,0.0,0.0,0.0,0.0,0.0,0.0,0.0,0.0,0.0,0.0,0.0,0.0,0.0,0.0,0.0,0.0,0.0,0.0,0.0,0.0,0.0,0.0,0.0,17.0,0.0,0.0,30.2,0.0,0.0,0.0,0.8,0.0,0.0,37.4,0.0,0.0,-0.6,0.9,0.3,0.0,0.0,0.0,0.0,18.0,19.0,18.0,19.0,19.0,19.0,19.0,19.0,0.0,0.0,-6.0,254.3,0.0,0.8,-8.0,4.998,0.0,0.0,0.654,0.778,0.0,17.3,0.0,0.0,0.0,,0.0,0.0,18.5,-2.5,-3.6999999999999993,69.8,62.6,32.0,32.0,32.0,32.0,64.4,66.2,64.4,66.2,66.2,66.2,66.2,66.2,32.0,32.0,63.14,27.5,25.34,0.0,0.6746666666666665,0.0,2026-01-31 16:45:19-08:00
39.06,1.0,8.0,2026-02-01 00:45:58,37.08159,-121.5996,330.0,0.0,231.1,-12.6,0.0,,0.0,0.0,0.0,10.7,-2.3,52.9,0.0,107.0,-0.0,-0.04,1.0,0.0,-35.0,21.0,0.0,30.44,848.0,0.0,0.0,241.0,0.0,0.0,0.0,0.0,0.0,0.0,0.0,0.0,0.0,0.0,0.0,0.0,0.0,0.0,0.0,0.0,0.0,0.0,0.0,0.0,0.0,0.0,0.0,0.0,0.0,17.0,0.0,0.0,30.2,0.0,0.0,0.0,0.8,0.0,0.0,37.4,0.0,0.0,-0.6,0.9,0.3,0.0,0.0,0.0,0.0,18.0,19.0,18.0,19.0,19.0,19.0,19.0,19.0,0.0,0.0,-6.0,254.3,0.0,0.8,-8.0,4.998,0.0,0.0,0.656,0.778,0.0,17.3,0.0,0.0,0.0,,0.0,0.0,18.5,-2.5,-3.6999999999999993,69.8,62.6,32.0,32.0,32.0,32.0,64.4,66.2,64.4,66.2,66.2,66.2,66.2,66.2,32.0,32.0,63.14,27.5,25.34,0.0,0.6746666666666665,0.0,2026-01-31 16:45:19-08:00
40.06,1.0,8.0,2026-02-01 00:45:59,37.08159,-121.5996,329.0,0.0,231.1,-12.6,0.0,,0.0,0.0,0.0,10.7,-2.2,52.9,0.0,106.0,-0.0,-0.04,1.0,0.0,-21.0,21.0,0.0,30.44,845.0,0.0,0.0,241.0,0.0,0.0,0.0,0.0,0.0,0.0,0.0,0.0,0.0,0.0,0.0,0.0,0.0,0.0,0.0,0.0,0.0,0.0,0.0,0.0,0.0,0.0,0.0,0.0,0.0,17.0,0.0,0.0,30.2,0.0,0.0,0.0,0.8,0.0,0.0,37.4,0.0,0.0,-0.6,0.9,0.3,0.0,0.0,0.0,0.0,18.0,19.0,18.0,19.0,19.0,19.0,19.0,19.0,0.0,0.0,-6.0,254.3,0.0,0.8,-8.0,4.998,0.0,0.0,0.654,0.778,0.0,17.3,0.0,0.0,0.0,,0.0,0.0,18.5,-2.5,-3.6999999999999993,69.8,62.6,32.0,32.0,32.0,32.0,64.4,66.2,64.4,66.2,66.2,66.2,66.2,66.2,32.0,32.0,63.14,27.5,25.34,0.0,0.6746666666666665,0.0,2026-01-31 16:45:19-08:00
41.06,1.0,8.0,2026-02-01 00:46:00,37.08159,-121.5996,328.0,0.1,231.1,-12.6,0.0,,0.0,0.0,0.0,10.7,-2.2,52.9,0.0,105.0,-0.0,-0.04,1.0,0.0,-47.0,21.0,0.0,30.44,845.0,0.0,0.0,241.0,0.0,0.0,0.0,0.0,0.0,0.0,0.0,0.0,0.0,0.0,0.0,0.0,0.0,0.0,0.0,0.0,0.0,0.0,0.0,0.0,0.0,0.0,0.0,0.0,0.0,17.0,0.0,0.0,30.2,0.0,0.0,0.0,0.8,0.0,0.0,37.4,0.0,0.0,-0.6,0.9,0.3,0.0,0.0,0.0,0.0,18.0,19.0,18.0,19.0,19.0,19.0,19.0,19.0,0.0,0.0,-6.0,254.3,0.0,0.8,-8.0,4.998,0.0,0.0,0.654,0.776,0.0,17.3,0.0,0.0,0.0,,0.0,0.0,18.5,-2.5,-3.6999999999999993,69.8,62.6,32.0,32.0,32.0,32.0,64.4,66.2,64.4,66.2,66.2,66.2,66.2,66.2,32.0,32.0,63.14,27.5,25.34,0.0,0.7589999999999998,0.0,2026-01-31 16:45:19-08:00
42.06,1.0,8.0,2026-02-01 00:46:01,37.08159,-121.5996,328.0,0.0,231.1,-12.6,0.0,,0.0,0.0,0.0,10.7,-2.2,52.9,0.0,105.0,-0.0,-0.04,1.0,0.0,-35.0,21.0,0.0,30.44,845.0,0.0,0.0,241.0,0.0,0.0,0.0,0.0,0.0,0.0,0.0,0.0,0.0,0.0,0.0,0.0,0.0,0.0,0.0,0.0,0.0,0.0,0.0,0.0,0.0,0.0,0.0,0.0,0.0,17.0,0.0,0.0,30.2,0.0,0.0,0.0,0.8,0.0,0.0,37.4,0.0,0.0,-0.6,0.9,0.3,0.0,0.0,0.0,0.0,18.0,19.0,18.0,19.0,19.0,19.0,19.0,19.0,0.0,0.0,-6.0,242.0,0.0,0.8,-8.0,4.998,0.0,0.0,0.656,0.776,0.0,17.3,0.0,0.0,0.0,,0.0,0.0,18.5,-2.5,-3.6999999999999993,69.8,62.6,32.0,32.0,32.0,32.0,64.4,66.2,64.4,66.2,66.2,66.2,66.2,66.2,32.0,32.0,63.14,27.5,25.34,0.0,0.8433333333333332,0.0,2026-01-31 16:45:19-08:00
43.06,1.0,8.0,2026-02-01 00:46:02,37.08159,-121.5996,327.0,0.0,231.1,-12.6,0.0,,0.0,0.0,0.0,10.7,-2.2,52.9,0.0,105.0,0.0,-0.04,1.0,0.0,-20.0,21.0,0.0,30.44,844.0,0.0,0.0,241.0,0.0,0.0,0.0,0.0,0.0,0.0,0.0,0.0,0.0,0.0,0.0,0.0,0.0,0.0,0.0,0.0,0.0,0.0,0.0,0.0,0.0,0.0,0.0,0.0,0.0,17.0,0.0,0.0,30.2,0.0,0.0,0.0,0.8,0.0,0.0,37.4,0.0,0.0,-0.6,0.9,0.3,0.0,0.0,0.0,0.0,18.0,19.0,18.0,19.0,19.0,19.0,19.0,19.0,0.0,0.0,-6.0,188.4,0.0,0.8,-8.0,4.998,0.0,0.0,0.656,0.776,0.0,17.3,0.0,0.0,0.0,,0.0,0.0,18.5,-2.5,-3.6999999999999993,69.8,62.6,32.0,32.0,32.0,32.0,64.4,66.2,64.4,66.2,66.2,66.2,66.2,66.2,32.0,32.0,63.14,27.5,25.34,0.0,0.8433333333333332,0.0,2026-01-31 16:45:19-08:00
44.06,1.0,8.0,2026-02-01 00:46:03,37.08159,-121.59959,327.0,0.0,231.1,-12.6,0.0,,0.0,0.0,0.0,10.7,-2.2,52.9,0.0,103.0,-0.0,-0.04,1.0,0.0,-55.0,21.0,0.0,30.44,844.0,0.0,0.0,241.0,0.0,0.0,0.0,0.0,0.0,0.0,0.0,0.0,0.0,0.0,0.0,0.0,0.0,0.0,0.0,0.0,0.0,0.0,0.0,0.0,0.0,0.0,0.0,0.0,0.0,17.0,0.0,0.0,30.2,0.0,0.0,0.0,0.8,0.0,0.0,37.4,0.0,0.0,-0.6,0.9,0.3,0.0,0.0,0.0,0.0,18.0,19.0,18.0,19.0,19.0,19.0,19.0,19.0,0.0,0.0,-6.0,146.6,0.0,0.8,-8.0,4.998,0.0,0.0,0.654,0.776,0.0,17.3,0.0,0.0,0.0,,0.0,0.0,18.5,-2.5,-3.6999999999999993,69.8,62.6,32.0,32.0,32.0,32.0,64.4,66.2,64.4,66.2,66.2,66.2,66.2,66.2,32.0,32.0,63.14,27.5,25.34,0.0,0.8433333333333332,0.0,2026-01-31 16:45:19-08:00
45.06,1.0,8.0,2026-02-01 00:46:04,37.08159,-121.59959,326.0,0.0,231.1,-12.6,0.0,,0.0,0.0,0.0,10.6,-2.2,52.9,0.0,101.0,-0.0,-0.04,1.0,0.0,-83.0,21.0,0.0,30.44,844.0,0.0,0.0,241.0,0.0,0.0,0.0,0.0,0.0,0.0,0.0,0.0,0.0,0.0,0.0,0.0,0.0,0.0,0.0,0.0,0.0,0.0,0.0,0.0,0.0,0.0,0.0,0.0,0.0,17.0,0.0,0.0,30.2,0.0,0.0,0.0,0.8,0.0,0.0,37.4,0.0,0.0,-0.6,0.9,0.3,0.0,0.0,0.0,0.0,18.0,19.0,18.0,19.0,19.0,19.0,19.0,19.0,0.0,0.0,-6.0,114.2,0.0,0.8,-8.0,4.998,0.0,0.0,0.654,0.776,0.0,17.3,0.0,0.0,0.0,,0.0,0.0,18.5,-2.5,-3.6999999999999993,69.8,62.6,32.0,32.0,32.0,32.0,64.4,66.2,64.4,66.2,66.2,66.2,66.2,66.2,32.0,32.0,63.14,27.5,25.34,0.0,0.8433333333333332,0.0,2026-01-31 16:45:19-08:00
46.06,1.0,8.0,2026-02-01 00:46:05,37.08159,-121.59959,325.0,0.0,231.1,-12.6,0.0,,0.0,0.0,0.0,10.7,-2.2,52.9,0.0,101.0,-0.0,-0.04,1.0,0.0,-20.0,21.0,0.0,30.44,839.0,0.0,0.0,241.0,0.0,0.0,0.0,0.0,0.0,0.0,0.0,0.0,0.0,0.0,0.0,0.0,0.0,0.0,0.0,0.0,0.0,0.0,0.0,0.0,0.0,0.0,0.0,0.0,0.0,17.0,0.0,0.0,30.2,0.0,0.0,0.0,0.8,0.0,0.0,37.4,0.0,0.0,-0.6,0.9,0.3,0.0,0.0,0.0,0.0,18.0,19.0,18.0,19.0,19.0,19.0,19.0,19.0,0.0,0.0,-6.0,89.0,0.0,0.8,-8.0,4.998,0.0,0.0,0.654,0.775,0.0,17.3,0.0,0.0,0.0,,0.0,0.0,18.5,-2.5,-3.6999999999999993,69.8,62.6,32.0,32.0,32.0,32.0,64.4,66.2,64.4,66.2,66.2,66.2,66.2,66.2,32.0,32.0,63.14,27.5,25.34,0.0,0.8433333333333332,0.0,2026-01-31 16:45:19-08:00
47.06,1.0,8.0,2026-02-01 00:46:06,37.08159,-121.59959,324.0,0.0,231.1,-12.6,0.0,,0.0,0.0,0.0,10.7,-2.2,52.8,0.0,101.0,0.0,-0.04,1.0,0.0,-29.0,21.0,0.0,30.44,839.0,0.0,0.0,241.0,0.0,0.0,0.0,0.0,0.0,0.0,0.0,0.0,0.0,0.0,0.0,0.0,0.0,0.0,0.0,0.0,0.0,0.0,0.0,0.0,0.0,0.0,0.0,0.0,0.0,17.0,0.0,0.0,30.2,0.0,0.0,0.0,0.8,0.0,0.0,37.4,0.0,0.0,-0.6,0.9,0.3,0.0,0.0,0.0,0.0,18.0,19.0,18.0,19.0,19.0,19.0,19.0,19.0,0.0,0.0,-6.0,69.4,0.0,0.8,-8.0,4.998,0.0,0.0,0.654,0.774,0.0,17.3,0.0,0.0,0.0,,0.0,0.0,18.5,-2.5,-3.6999999999999993,69.8,62.6,32.0,32.0,32.0,32.0,64.4,66.2,64.4,66.2,66.2,66.2,66.2,66.2,32.0,32.0,63.14,27.5,25.34,0.0,0.8433333333333332,0.0,2026-01-31 16:45:19-08:00
48.06,1.0,8.0,2026-02-01 00:46:07,37.0816,-121.59959,323.0,0.0,231.1,-12.6,0.0,,0.0,0.0,0.0,10.7,-2.2,52.8,0.0,101.0,0.0,-0.04,1.0,0.0,12.0,21.0,0.0,30.44,839.0,0.0,0.0,241.0,0.0,0.0,0.0,0.0,0.0,0.0,0.0,0.0,0.0,0.0,0.0,0.0,0.0,0.0,0.0,0.0,0.0,0.0,0.0,0.0,0.0,0.0,0.0,0.0,0.0,17.0,0.0,0.0,30.2,0.0,0.0,0.0,0.7,0.0,0.0,37.4,0.0,0.0,-0.6,0.9,0.3,0.0,0.0,0.0,0.0,18.0,19.0,18.0,19.0,19.0,19.0,19.0,19.0,0.0,0.0,-6.0,54.1,0.0,0.7,-8.0,4.998,0.0,0.0,0.654,0.774,0.0,17.3,0.0,0.0,0.0,,0.0,0.0,18.5,-2.5,-3.6999999999999993,69.8,62.6,32.0,32.0,32.0,32.0,64.4,66.2,64.4,66.2,66.2,66.2,66.2,66.2,32.0,32.0,63.14,27.5,25.34,0.0,0.8433333333333332,0.0,2026-01-31 16:45:19-08:00
49.06,1.0,8.0,2026-02-01 00:46:08,37.0816,-121.59959,323.0,0.0,231.1,-12.6,0.0,,0.0,0.0,0.0,10.7,-2.2,52.8,0.0,101.0,0.0,-0.04,1.0,0.0,3.0,21.0,0.0,30.44,839.0,0.0,0.0,241.0,0.0,0.0,0.0,0.0,0.0,0.0,0.0,0.0,0.0,0.0,0.0,0.0,0.0,0.0,0.0,0.0,0.0,0.0,0.0,0.0,0.0,0.0,0.0,0.0,0.0,17.0,0.0,0.0,30.2,0.0,0.0,0.0,0.6,0.0,0.0,37.4,0.0,0.0,-0.7,0.9,0.3,0.0,0.0,0.0,0.0,18.0,19.0,18.0,19.0,19.0,19.0,19.0,19.0,0.0,0.0,-6.0,42.3,0.0,0.6,-8.0,4.998,0.0,0.0,0.654,0.774,0.0,17.3,0.0,0.0,0.0,,0.0,0.0,18.5,-2.5,-3.6999999999999993,69.8,62.6,32.0,32.0,32.0,32.0,64.4,66.2,64.4,66.2,66.2,66.2,66.2,66.2,32.0,32.0,63.14,27.5,25.34,0.0,0.8433333333333332,0.0,2026-01-31 16:45:19-08:00
50.06,1.0,8.0,2026-02-01 00:46:09,37.0816,-121.59959,322.0,0.0,231.1,-12.6,0.0,,0.0,0.0,0.0,10.7,-2.2,52.8,0.0,101.0,0.0,-0.04,1.0,0.0,21.0,21.0,0.0,30.44,839.0,0.0,0.0,241.0,0.0,0.0,0.0,0.0,0.0,0.0,0.0,0.0,0.0,0.0,0.0,0.0,0.0,0.0,0.0,0.0,0.0,0.0,0.0,0.0,0.0,0.0,0.0,0.0,0.0,17.0,0.0,0.0,30.2,0.0,0.0,0.0,0.5,0.0,0.0,37.4,0.0,0.0,-0.7,0.9,0.3,0.0,0.0,0.0,0.0,18.0,19.0,18.0,19.0,19.0,19.0,19.0,19.0,0.0,0.0,-6.0,33.1,0.0,0.5,-8.0,4.998,0.0,0.0,0.654,0.774,0.0,17.3,0.0,0.0,0.0,,0.0,0.0,18.5,-2.5,-3.6999999999999993,69.8,62.6,32.0,32.0,32.0,32.0,64.4,66.2,64.4,66.2,66.2,66.2,66.2,66.2,32.0,32.0,63.14,27.5,25.34,0.0,0.8433333333333332,0.0,2026-01-31 16:45:19-08:00
51.06,1.0,8.0,2026-02-01 00:46:10,37.0816,-121.59959,322.0,0.0,231.1,-12.6,0.0,,0.0,0.0,0.0,10.8,-2.2,52.8,0.0,101.0,-0.0,-0.04,1.0,0.0,37.0,21.0,0.0,30.44,839.0,0.0,0.0,241.0,0.0,0.0,0.0,0.0,0.0,0.0,0.0,0.0,0.0,0.0,0.0,0.0,0.0,0.0,0.0,0.0,0.0,0.0,0.0,0.0,0.0,0.0,0.0,0.0,0.0,17.0,0.0,0.0,30.2,0.0,0.0,0.0,0.4,0.0,0.0,37.4,0.0,0.0,-0.7,0.9,0.3,0.0,0.0,0.0,0.0,18.0,19.0,18.0,19.0,19.0,19.0,19.0,19.0,0.0,0.0,-6.0,25.9,0.0,0.4,-8.0,4.998,0.0,0.0,0.654,0.774,0.0,17.3,0.0,0.0,0.0,,0.0,0.0,18.5,-2.5,-3.6999999999999993,69.8,62.6,32.0,32.0,32.0,32.0,64.4,66.2,64.4,66.2,66.2,66.2,66.2,66.2,32.0,32.0,63.14,27.5,25.34,0.0,0.8433333333333332,0.0,2026-01-31 16:45:19-08:00
52.06,1.0,8.0,2026-02-01 00:46:11,37.0816,-121.59959,321.0,0.0,231.1,-12.6,0.0,,0.0,0.0,0.0,10.7,-2.2,52.8,0.0,101.0,-0.0,-0.04,1.0,0.0,17.0,21.0,0.0,30.44,839.0,0.0,0.0,241.0,0.0,0.0,0.0,0.0,0.0,0.0,0.0,0.0,0.0,0.0,0.0,0.0,0.0,0.0,0.0,0.0,0.0,0.0,0.0,0.0,0.0,0.0,0.0,0.0,0.0,17.0,0.0,0.0,30.2,0.0,0.0,0.0,0.3,0.0,0.0,37.4,0.0,0.0,-0.7,0.9,0.3,0.0,0.0,0.0,0.0,18.0,19.0,18.0,19.0,19.0,19.0,19.0,19.0,0.0,0.0,-6.0,20.4,0.0,0.3,-8.0,4.998,0.0,0.0,0.654,0.773,0.0,17.3,0.0,0.0,0.0,,0.0,0.0,18.5,-2.5,-3.6999999999999993,69.8,62.6,32.0,32.0,32.0,32.0,64.4,66.2,64.4,66.2,66.2,66.2,66.2,66.2,32.0,32.0,63.14,27.5,25.34,0.0,0.8433333333333332,0.0,2026-01-31 16:45:19-08:00
53.06,1.0,8.0,2026-02-01 00:46:12,37.0816,-121.59959,321.0,0.0,231.1,-12.6,0.0,,0.0,0.0,0.0,10.7,-2.2,52.8,0.0,101.0,-0.0,-0.04,1.0,0.0,42.0,21.0,0.0,30.44,839.0,0.0,0.0,241.0,0.0,0.0,0.0,0.0,0.0,0.0,0.0,0.0,0.0,0.0,0.0,0.0,0.0,0.0,0.0,0.0,0.0,0.0,0.0,0.0,0.0,0.0,0.0,0.0,0.0,17.0,0.0,0.0,30.2,0.0,0.0,0.0,0.2,0.0,0.0,37.4,0.0,0.0,-0.7,0.9,0.3,0.0,0.0,0.0,0.0,18.0,19.0,18.0,19.0,19.0,19.0,19.0,19.0,0.0,0.0,-6.0,16.0,0.0,0.2,-8.0,4.998,0.0,0.0,0.654,0.774,0.0,17.3,0.0,0.0,0.0,,0.0,0.0,18.5,-2.5,-3.6999999999999993,69.8,62.6,32.0,32.0,32.0,32.0,64.4,66.2,64.4,66.2,66.2,66.2,66.2,66.2,32.0,32.0,63.14,27.5,25.34,0.0,0.8433333333333332,0.0,2026-01-31 16:45:19-08:00
54.06,1.0,8.0,2026-02-01 00:46:13,37.0816,-121.59959,321.0,0.0,231.1,-12.6,0.0,,0.0,0.0,0.0,10.7,-2.2,52.8,0.0,101.0,-0.0,-0.04,1.0,0.0,39.0,21.0,0.0,30.44,839.0,0.0,0.0,241.0,0.0,0.0,0.0,0.0,0.0,0.0,0.0,0.0,0.0,0.0,0.0,0.0,0.0,0.0,0.0,0.0,0.0,0.0,0.0,0.0,0.0,0.0,0.0,0.0,0.0,17.0,0.0,0.0,30.2,0.0,0.0,0.0,0.0,0.0,0.0,37.4,0.0,0.0,-0.7,0.9,0.3,0.0,0.0,0.0,0.0,18.0,19.0,18.0,19.0,19.0,19.0,19.0,19.0,0.0,0.0,-6.0,12.7,0.0,0.0,-8.0,4.998,0.0,0.0,0.654,0.774,0.0,17.3,0.0,0.0,0.0,,0.0,0.0,18.5,-2.5,-3.6999999999999993,69.8,62.6,32.0,32.0,32.0,32.0,64.4,66.2,64.4,66.2,66.2,66.2,66.2,66.2,32.0,32.0,63.14,27.5,25.34,0.0,0.8433333333333332,0.0,2026-01-31 16:45:19-08:00
55.06,1.0,8.0,2026-02-01 00:46:14,37.0816,-121.59959,320.0,0.0,231.1,-12.6,0.0,,0.0,0.0,0.0,10.7,-2.2,52.9,0.0,101.0,0.0,-0.04,1.0,0.0,-10.0,21.0,0.0,30.44,839.0,0.0,0.0,241.0,0.0,0.0,0.0,0.0,0.0,0.0,0.0,0.0,0.0,0.0,0.0,0.0,0.0,0.0,0.0,0.0,0.0,0.0,0.0,0.0,0.0,0.0,0.0,0.0,0.0,17.0,0.0,0.0,30.2,0.0,0.0,0.0,0.0,0.0,0.0,37.4,0.0,0.0,-0.7,0.9,0.3,0.0,0.0,0.0,0.0,18.0,19.0,18.0,19.0,19.0,19.0,19.0,19.0,0.0,0.0,-6.0,10.1,0.0,0.0,-8.0,4.998,0.0,0.0,0.654,0.773,0.0,17.3,0.0,0.0,0.0,,0.0,0.0,18.5,-2.5,-3.6999999999999993,69.8,62.6,32.0,32.0,32.0,32.0,64.4,66.2,64.4,66.2,66.2,66.2,66.2,66.2,32.0,32.0,63.14,27.5,25.34,0.0,0.8433333333333332,0.0,2026-01-31 16:45:19-08:00
56.06,1.0,8.0,2026-02-01 00:46:15,37.0816,-121.59959,320.0,0.0,231.1,-12.6,0.0,,0.0,0.0,0.0,10.7,-2.2,52.8,0.0,101.0,0.0,-0.04,1.0,0.0,-24.0,21.0,0.0,30.44,848.0,0.0,0.0,241.0,0.0,0.0,0.0,0.0,0.0,0.0,0.0,0.0,0.0,0.0,0.0,0.0,0.0,0.0,0.0,0.0,0.0,0.0,0.0,0.0,0.0,0.0,0.0,0.0,0.0,17.0,0.0,0.0,30.2,0.0,0.0,0.0,0.0,0.0,0.0,37.4,0.0,0.0,-0.7,0.9,0.3,0.0,0.0,0.0,0.0,18.0,19.0,18.0,19.0,19.0,19.0,19.0,19.0,0.0,0.0,-6.0,8.0,0.0,0.0,-8.0,4.998,0.0,0.0,0.656,0.773,0.0,17.3,0.0,0.0,0.0,,0.0,0.0,18.5,-2.5,-3.6999999999999993,69.8,62.6,32.0,32.0,32.0,32.0,64.4,66.2,64.4,66.2,66.2,66.2,66.2,66.2,32.0,32.0,63.14,27.5,25.34,0.0,0.8433333333333332,0.0,2026-01-31 16:45:19-08:00
57.06,1.0,8.0,2026-02-01 00:46:16,37.0816,-121.59959,320.0,0.0,231.1,-12.6,0.0,,0.0,0.0,0.0,10.7,-2.2,52.8,0.0,101.0,-0.0,-0.04,1.0,0.0,-12.0,21.0,0.0,30.44,848.0,0.0,0.0,241.0,0.0,0.0,0.0,0.0,0.0,0.0,0.0,0.0,0.0,0.0,0.0,0.0,0.0,0.0,0.0,0.0,0.0,0.0,0.0,0.0,0.0,0.0,0.0,0.0,0.0,17.0,0.0,0.0,30.2,0.0,0.0,0.0,0.0,0.0,0.0,37.4,0.0,0.0,-0.7,0.9,0.3,0.0,0.0,0.0,0.0,18.0,19.0,18.0,19.0,19.0,19.0,19.0,19.0,0.0,0.0,-6.0,6.5,0.0,0.0,-8.0,4.998,0.0,0.0,0.656,0.773,0.0,17.3,0.0,0.0,0.0,,0.0,0.0,18.5,-2.5,-3.6999999999999993,69.8,62.6,32.0,32.0,32.0,32.0,64.4,66.2,64.4,66.2,66.2,66.2,66.2,66.2,32.0,32.0,63.14,27.5,25.34,0.0,0.8433333333333332,0.0,2026-01-31 16:45:19-08:00
58.06,1.0,8.0,2026-02-01 00:46:17,37.08159,-121.59959,319.0,0.0,231.1,-12.6,0.0,,0.0,0.0,0.0,10.7,-2.3,52.8,0.0,101.0,-0.0,-0.04,1.0,0.0,-13.0,21.0,0.0,30.44,848.0,0.0,0.0,241.0,0.0,0.0,0.0,0.0,0.0,0.0,0.0,0.0,0.0,0.0,0.0,0.0,0.0,0.0,0.0,0.0,0.0,0.0,0.0,0.0,0.0,0.0,0.0,0.0,0.0,17.0,0.0,0.0,30.2,0.0,0.0,0.0,0.0,0.0,0.0,37.4,0.0,0.0,-0.7,0.9,0.3,0.0,0.0,0.0,0.0,18.0,19.0,18.0,19.0,19.0,19.0,19.0,19.0,0.0,0.0,-6.0,5.2,0.0,0.0,-8.0,4.998,0.0,0.0,0.654,0.773,0.0,17.3,0.0,0.0,0.0,,0.0,0.0,18.5,-2.5,-3.6999999999999993,69.8,62.6,32.0,32.0,32.0,32.0,64.4,66.2,64.4,66.2,66.2,66.2,66.2,66.2,32.0,32.0,63.14,27.5,25.34,0.0,0.8433333333333332,0.0,2026-01-31 16:45:19-08:00
59.06,1.0,8.0,2026-02-01 00:46:18,37.08159,-121.59959,319.0,0.0,231.1,-12.6,0.0,,0.0,0.0,0.0,10.7,-2.3,52.9,0.0,101.0,0.0,-0.04,1.0,0.0,-15.0,21.0,0.0,30.44,849.0,0.0,0.0,241.0,0.0,0.0,0.0,0.0,0.0,0.0,0.0,0.0,0.0,0.0,0.0,0.0,0.0,0.0,0.0,0.0,0.0,0.0,0.0,0.0,0.0,0.0,0.0,0.0,0.0,17.0,0.0,0.0,30.2,0.0,0.0,0.0,0.0,0.0,0.0,37.4,0.0,0.0,-0.7,0.9,0.3,0.0,0.0,0.0,0.0,18.0,19.0,18.0,19.0,19.0,19.0,19.0,19.0,0.0,0.0,-6.0,4.3,0.0,0.0,-8.0,4.998,0.0,0.0,0.656,0.773,0.0,17.3,0.0,0.0,0.0,,0.0,0.0,18.5,-2.5,-3.6999999999999993,69.8,62.6,32.0,32.0,32.0,32.0,64.4,66.2,64.4,66.2,66.2,66.2,66.2,66.2,32.0,32.0,63.14,27.5,25.34,0.0,0.8433333333333332,0.0,2026-01-31 16:45:19-08:00
60.06,1.0,8.0,2026-02-01 00:46:19,37.0816,-121.59958,305.0,0.0,231.1,-12.6,0.0,,0.0,0.0,0.0,10.7,-2.3,52.8,0.0,101.0,-0.0,-0.04,1.0,0.0,5.0,21.0,0.0,30.44,848.0,0.0,0.0,241.0,0.0,0.0,0.0,0.0,0.0,0.0,0.0,0.0,0.0,0.0,0.0,0.0,0.0,0.0,0.0,0.0,0.0,0.0,0.0,0.0,0.0,0.0,0.0,0.0,0.0,17.0,0.0,0.0,30.2,0.0,0.0,0.0,0.0,0.0,0.0,37.4,0.0,0.0,-0.7,0.9,0.3,0.0,0.0,0.0,0.0,18.0,19.0,18.0,19.0,19.0,19.0,19.0,19.0,0.0,0.0,-6.0,3.5,0.0,0.0,-8.0,4.998,0.0,0.0,0.656,0.773,0.0,17.3,0.0,0.0,0.0,,0.0,0.0,18.5,-2.5,-3.6999999999999993,69.8,62.6,32.0,32.0,32.0,32.0,64.4,66.2,64.4,66.2,66.2,66.2,66.2,66.2,32.0,32.0,63.14,27.5,25.34,0.0,0.8433333333333332,0.0,2026-01-31 16:45:19-08:00
61.06,1.0,8.0,2026-02-01 00:46:20,37.0816,-121.59958,305.0,0.0,231.1,-12.6,0.0,,0.0,0.0,0.0,10.7,-2.3,52.8,0.0,101.0,-0.0,-0.04,1.0,0.0,8.0,21.0,0.0,30.44,848.0,0.0,0.0,241.0,0.0,0.0,0.0,0.0,0.0,0.0,0.0,0.0,0.0,0.0,0.0,0.0,0.0,0.0,0.0,0.0,0.0,0.0,0.0,0.0,0.0,0.0,0.0,0.0,0.0,17.0,0.0,0.0,30.2,0.0,0.0,0.0,0.0,0.0,0.0,37.4,0.0,0.0,-0.7,0.9,0.3,0.0,0.0,0.0,0.0,18.0,19.0,18.0,19.0,19.0,19.0,19.0,19.0,0.0,0.0,-6.0,3.0,0.0,0.0,-8.0,4.998,0.0,0.0,0.656,0.773,0.0,17.3,0.0,0.0,0.0,,0.0,0.0,18.5,-2.5,-3.6999999999999993,69.8,62.6,32.0,32.0,32.0,32.0,64.4,66.2,64.4,66.2,66.2,66.2,66.2,66.2,32.0,32.0,63.14,27.5,25.34,0.0,0.8433333333333332,0.0,2026-01-31 16:45:19-08:00
62.06,1.0,8.0,2026-02-01 00:46:21,37.0816,-121.59958,304.0,0.0,231.1,-12.6,0.0,,0.0,0.0,0.0,10.7,-2.3,52.8,0.0,101.0,-0.0,-0.04,1.0,0.0,14.0,21.0,0.0,30.44,848.0,0.0,0.0,241.0,0.0,0.0,0.0,0.0,0.0,0.0,0.0,0.0,0.0,0.0,0.0,0.0,0.0,0.0,0.0,0.0,0.0,0.0,0.0,0.0,0.0,0.0,0.0,0.0,0.0,17.0,0.0,0.0,30.2,0.0,0.0,0.0,0.0,0.0,0.0,37.4,0.0,0.0,-0.7,0.9,0.3,0.0,0.0,0.0,0.0,18.0,19.0,18.0,19.0,19.0,19.0,19.0,19.0,0.0,0.0,-6.0,2.5,0.0,0.0,-8.0,4.998,0.0,0.0,0.656,0.774,0.0,17.3,0.0,0.0,0.0,,0.0,0.0,18.5,-2.5,-3.6999999999999993,69.8,62.6,32.0,32.0,32.0,32.0,64.4,66.2,64.4,66.2,66.2,66.2,66.2,66.2,32.0,32.0,63.14,27.5,25.34,0.0,0.8433333333333332,0.0,2026-01-31 16:45:19-08:00
63.06,1.0,8.0,2026-02-01 00:46:22,37.08159,-121.59958,304.0,0.0,231.1,-12.6,0.0,,0.0,0.0,0.0,10.7,-2.2,52.8,0.0,101.0,-0.0,-0.04,1.0,0.0,-2.0,21.0,0.0,30.44,849.0,0.0,0.0,241.0,0.0,0.0,0.0,0.0,0.0,0.0,0.0,0.0,0.0,0.0,0.0,0.0,0.0,0.0,0.0,0.0,0.0,0.0,0.0,0.0,0.0,0.0,0.0,0.0,0.0,17.0,0.0,0.0,30.2,0.0,0.0,0.0,0.0,0.0,0.0,37.4,0.0,0.0,-0.7,0.9,0.3,0.0,0.0,0.0,0.0,18.0,19.0,18.0,19.0,19.0,19.0,19.0,19.0,0.0,0.0,-6.0,2.2,0.0,0.0,-8.0,4.998,0.0,0.0,0.656,0.774,0.0,17.3,0.0,0.0,0.0,,0.0,0.0,18.5,-2.5,-3.6999999999999993,69.8,62.6,32.0,32.0,32.0,32.0,64.4,66.2,64.4,66.2,66.2,66.2,66.2,66.2,32.0,32.0,63.14,27.5,25.34,0.0,0.8433333333333332,0.0,2026-01-31 16:45:19-08:00
64.06,1.0,8.0,2026-02-01 00:46:23,37.08159,-121.59958,304.0,0.0,231.1,-12.6,0.0,,0.0,0.0,0.0,10.7,-2.2,52.8,0.0,101.0,-0.0,-0.04,1.0,0.0,-27.0,21.0,0.0,30.44,848.0,0.0,0.0,241.0,0.0,0.0,0.0,0.0,0.0,0.0,0.0,0.0,0.0,0.0,0.0,0.0,0.0,0.0,0.0,0.0,0.0,0.0,0.0,0.0,0.0,0.0,0.0,0.0,0.0,17.0,0.0,0.0,30.2,0.0,0.0,0.0,0.0,0.0,0.0,37.4,0.0,0.0,-0.7,0.9,0.3,0.0,0.0,0.0,0.0,18.0,19.0,18.0,19.0,19.0,19.0,19.0,19.0,0.0,0.0,-6.0,1.9,0.0,0.0,-8.0,4.998,0.0,0.0,0.656,0.774,0.0,17.3,0.0,0.0,0.0,,0.0,0.0,18.5,-2.5,-3.6999999999999993,69.8,62.6,32.0,32.0,32.0,32.0,64.4,66.2,64.4,66.2,66.2,66.2,66.2,66.2,32.0,32.0,63.14,27.5,25.34,0.0,0.8433333333333332,0.0,2026-01-31 16:45:19-08:00
65.06,1.0,8.0,2026-02-01 00:46:24,37.08159,-121.59957,304.0,0.0,231.1,-12.6,0.0,,0.0,0.0,0.0,10.7,-2.2,52.8,0.0,101.0,0.0,-0.04,1.0,0.0,15.0,21.0,0.0,30.44,848.0,0.0,0.0,241.0,0.0,0.0,0.0,0.0,0.0,0.0,0.0,0.0,0.0,0.0,0.0,0.0,0.0,0.0,0.0,0.0,0.0,0.0,0.0,0.0,0.0,0.0,0.0,0.0,0.0,17.0,0.0,0.0,30.2,0.0,0.0,0.0,0.0,0.0,0.0,37.4,0.0,0.0,-0.7,0.9,0.3,0.0,0.0,0.0,0.0,18.0,19.0,18.0,19.0,19.0,19.0,19.0,19.0,0.0,0.0,-6.0,1.7,0.0,0.0,-8.0,4.998,0.0,0.0,0.654,0.774,0.0,17.3,0.0,0.0,0.0,,0.0,0.0,18.5,-2.5,-3.6999999999999993,69.8,62.6,32.0,32.0,32.0,32.0,64.4,66.2,64.4,66.2,66.2,66.2,66.2,66.2,32.0,32.0,63.14,27.5,25.34,0.0,0.8433333333333332,0.0,2026-01-31 16:45:19-08:00
66.06,1.0,8.0,2026-02-01 00:46:25,37.08159,-121.59957,305.0,0.0,231.1,-12.6,0.0,,0.0,0.0,0.0,10.7,-2.3,52.8,0.0,101.0,0.0,-0.04,1.0,0.0,-12.0,21.0,0.0,30.44,848.0,0.0,0.0,241.0,0.0,0.0,0.0,0.0,0.0,0.0,0.0,0.0,0.0,0.0,0.0,0.0,0.0,0.0,0.0,0.0,0.0,0.0,0.0,0.0,0.0,0.0,0.0,0.0,0.0,17.0,0.0,0.0,30.2,0.0,0.0,0.0,0.0,0.0,0.0,37.4,0.0,0.0,-0.7,0.9,0.3,0.0,0.0,0.0,0.0,18.0,19.0,18.0,19.0,19.0,19.0,19.0,19.0,0.0,0.0,-6.0,1.6,0.0,0.0,-8.0,4.998,0.0,0.0,0.656,0.774,0.0,17.3,0.0,0.0,0.0,,0.0,0.0,18.5,-2.5,-3.6999999999999993,69.8,62.6,32.0,32.0,32.0,32.0,64.4,66.2,64.4,66.2,66.2,66.2,66.2,66.2,32.0,32.0,63.14,27.5,25.34,0.0,0.8433333333333332,0.0,2026-01-31 16:45:19-08:00
67.06,1.0,8.0,2026-02-01 00:46:26,37.08159,-121.59957,305.0,0.0,231.1,-12.6,0.0,,0.0,0.0,0.0,10.7,-2.3,52.8,0.0,101.0,-0.0,-0.04,1.0,0.0,-12.0,21.0,0.0,30.44,849.0,0.0,0.0,241.0,0.0,0.0,0.0,0.0,0.0,0.0,0.0,0.0,0.0,0.0,0.0,0.0,0.0,0.0,0.0,0.0,0.0,0.0,0.0,0.0,0.0,0.0,0.0,0.0,0.0,17.0,0.0,0.0,30.2,0.0,0.0,0.0,0.0,0.0,0.0,37.4,0.0,0.0,-0.7,0.9,0.3,0.0,0.0,0.0,0.0,18.0,19.0,18.0,19.0,19.0,19.0,19.0,19.0,0.0,0.0,-6.0,1.4,0.0,0.0,-8.0,4.998,0.0,0.0,0.656,0.775,0.0,17.3,0.0,0.0,0.0,,0.0,0.0,18.5,-2.5,-3.6999999999999993,69.8,62.6,32.0,32.0,32.0,32.0,64.4,66.2,64.4,66.2,66.2,66.2,66.2,66.2,32.0,32.0,63.14,27.5,25.34,0.0,0.8433333333333332,0.0,2026-01-31 16:45:19-08:00
68.06,1.0,8.0,2026-02-01 00:46:27,37.08159,-121.59957,305.0,0.0,231.1,-12.6,0.0,,0.0,0.0,0.0,10.7,-2.3,52.8,0.0,101.0,-0.0,-0.04,1.0,0.0,-31.0,21.0,0.0,30.44,849.0,0.0,0.0,241.0,0.0,0.0,0.0,0.0,0.0,0.0,0.0,0.0,0.0,0.0,0.0,0.0,0.0,0.0,0.0,0.0,0.0,0.0,0.0,0.0,0.0,0.0,0.0,0.0,0.0,17.0,0.0,0.0,30.2,0.0,0.0,0.0,0.0,0.0,0.0,37.4,0.0,0.0,-0.7,0.9,0.3,0.0,0.0,0.0,0.0,18.0,19.0,18.0,19.0,19.0,19.0,19.0,19.0,0.0,0.0,-6.0,1.3,0.0,0.0,-8.0,4.998,0.0,0.0,0.656,0.775,0.0,17.3,0.0,0.0,0.0,,0.0,0.0,18.5,-2.5,-3.6999999999999993,69.8,62.6,32.0,32.0,32.0,32.0,64.4,66.2,64.4,66.2,66.2,66.2,66.2,66.2,32.0,32.0,63.14,27.5,25.34,0.0,0.8433333333333332,0.0,2026-01-31 16:45:19-08:00
69.06,1.0,8.0,2026-02-01 00:46:28,37.08159,-121.59957,305.0,0.0,231.1,-12.6,0.0,,0.0,0.0,0.0,10.7,-2.3,52.8,0.0,101.0,-0.0,-0.04,1.0,0.0,-24.0,21.0,0.0,30.44,849.0,0.0,0.0,241.0,0.0,0.0,0.0,0.0,0.0,0.0,0.0,0.0,0.0,0.0,0.0,0.0,0.0,0.0,0.0,0.0,0.0,0.0,0.0,0.0,0.0,0.0,0.0,0.0,0.0,17.0,0.0,0.0,30.2,0.0,0.0,0.0,0.0,0.0,0.0,37.4,0.0,0.0,-0.7,0.9,0.3,0.0,0.0,0.0,0.0,18.0,19.0,18.0,19.0,19.0,19.0,19.0,19.0,0.0,0.0,-6.0,1.2,0.0,0.0,-8.0,4.998,0.0,0.0,0.654,0.776,0.0,17.3,0.0,0.0,0.0,,0.0,0.0,18.5,-2.5,-3.6999999999999993,69.8,62.6,32.0,32.0,32.0,32.0,64.4,66.2,64.4,66.2,66.2,66.2,66.2,66.2,32.0,32.0,63.14,27.5,25.34,0.0,0.8433333333333332,0.0,2026-01-31 16:45:19-08:00
70.06,1.0,8.0,2026-02-01 00:46:29,37.08159,-121.59957,305.0,0.0,231.1,-12.6,0.0,,0.0,0.0,0.0,10.7,-2.3,52.8,0.0,101.0,-0.0,-0.04,1.0,0.0,-32.0,21.0,0.0,30.44,849.0,0.0,0.0,241.0,0.0,0.0,0.0,0.0,0.0,0.0,0.0,0.0,0.0,0.0,0.0,0.0,0.0,0.0,0.0,0.0,0.0,0.0,0.0,0.0,0.0,0.0,0.0,0.0,0.0,17.0,0.0,0.0,30.2,0.0,0.0,0.0,0.0,0.0,0.0,37.4,0.0,0.0,-0.7,0.9,0.3,0.0,0.0,0.0,0.0,18.0,19.0,18.0,19.0,19.0,19.0,19.0,19.0,0.0,0.0,-6.0,1.2,0.0,0.0,-8.0,4.998,0.0,0.0,0.654,0.776,0.0,17.3,0.0,0.0,0.0,,0.0,0.0,18.5,-2.5,-3.6999999999999993,69.8,62.6,32.0,32.0,32.0,32.0,64.4,66.2,64.4,66.2,66.2,66.2,66.2,66.2,32.0,32.0,63.14,27.5,25.34,0.0,0.8433333333333332,0.0,2026-01-31 16:45:19-08:00
71.06,1.0,8.0,2026-02-01 00:46:30,37.08159,-121.59957,305.0,0.0,231.1,-12.6,0.0,,0.0,0.0,0.0,10.7,-2.2,52.8,0.0,100.0,-0.0,-0.04,1.0,0.0,-65.0,21.0,0.0,30.44,849.0,0.0,0.0,241.0,0.0,0.0,0.0,0.0,0.0,0.0,0.0,0.0,0.0,0.0,0.0,0.0,0.0,0.0,0.0,0.0,0.0,0.0,0.0,0.0,0.0,0.0,0.0,0.0,0.0,17.0,0.0,0.0,30.2,0.0,0.0,0.0,0.0,0.0,0.0,37.4,0.0,0.0,-0.7,0.9,0.3,0.0,0.0,0.0,0.0,19.0,19.0,19.0,19.0,19.0,19.0,19.0,19.0,0.0,0.0,-6.0,1.1,0.0,0.0,-8.0,4.998,0.0,0.0,0.654,0.776,0.0,17.3,0.0,0.0,0.0,,0.0,0.0,19.0,-2.0,-3.6999999999999993,69.8,62.6,32.0,32.0,32.0,32.0,66.2,66.2,66.2,66.2,66.2,66.2,66.2,66.2,32.0,32.0,63.14,28.4,25.34,0.0,0.8433333333333332,0.0,2026-01-31 16:45:19-08:00
72.06,1.0,8.0,2026-02-01 00:46:31,37.08159,-121.59957,304.0,0.0,231.1,-12.6,0.0,,0.0,0.0,0.0,10.7,-2.2,52.8,0.0,99.0,0.0,-0.04,1.0,0.0,-30.0,21.0,0.0,30.44,849.0,0.0,0.0,241.0,0.0,0.0,0.0,0.0,0.0,0.0,0.0,0.0,0.0,0.0,0.0,0.0,0.0,0.0,0.0,0.0,0.0,0.0,0.0,0.0,0.0,0.0,0.0,0.0,0.0,17.0,0.0,0.0,30.2,0.0,0.0,0.0,0.0,0.0,0.0,37.4,0.0,0.0,-0.7,0.9,0.3,0.0,0.0,0.0,0.0,19.0,19.0,19.0,19.0,19.0,19.0,19.0,19.0,0.0,0.0,-6.0,1.1,0.0,0.0,-8.0,4.998,0.0,0.0,0.656,0.779,0.0,17.3,0.0,0.0,0.0,,0.0,0.0,19.0,-2.0,-3.6999999999999993,69.8,62.6,32.0,32.0,32.0,32.0,66.2,66.2,66.2,66.2,66.2,66.2,66.2,66.2,32.0,32.0,63.14,28.4,25.34,0.0,0.8433333333333332,0.0,2026-01-31 16:45:19-08:00
73.06,1.0,8.0,2026-02-01 00:46:32,37.08159,-121.59957,304.0,0.0,231.1,-12.6,0.0,,0.0,0.0,0.0,10.7,-2.2,52.8,0.0,99.0,-0.0,-0.04,1.0,0.0,-21.0,21.0,0.0,30.44,847.0,0.0,0.0,241.0,0.0,0.0,0.0,0.0,0.0,0.0,0.0,0.0,0.0,0.0,0.0,0.0,0.0,0.0,0.0,0.0,0.0,0.0,0.0,0.0,0.0,0.0,0.0,0.0,0.0,17.0,0.0,0.0,30.2,0.0,0.0,0.0,0.0,0.0,0.0,37.4,0.0,0.0,-0.7,0.9,0.3,0.0,0.0,0.0,0.0,19.0,19.0,19.0,19.0,19.0,19.0,19.0,19.0,0.0,0.0,-6.0,1.1,0.0,0.0,-8.0,4.998,0.0,0.0,0.656,0.778,0.0,17.3,0.0,0.0,0.0,,0.0,0.0,19.0,-2.0,-3.6999999999999993,69.8,62.6,32.0,32.0,32.0,32.0,66.2,66.2,66.2,66.2,66.2,66.2,66.2,66.2,32.0,32.0,63.14,28.4,25.34,0.0,0.8433333333333332,0.0,2026-01-31 16:45:19-08:00
74.06,1.0,8.0,2026-02-01 00:46:33,37.08159,-121.59957,304.0,0.0,231.1,-12.6,0.0,,0.0,0.0,0.0,10.8,-2.2,52.8,0.0,98.0,-0.0,-0.04,1.0,0.0,-45.0,21.0,0.0,30.44,847.0,0.0,0.0,241.0,0.0,0.0,0.0,0.0,0.0,0.0,0.0,0.0,0.0,0.0,0.0,0.0,0.0,0.0,0.0,0.0,0.0,0.0,0.0,0.0,0.0,0.0,0.0,0.0,0.0,17.0,0.0,0.0,30.2,0.0,0.0,0.0,0.0,0.0,0.0,37.4,0.0,0.0,-0.7,0.9,0.3,0.0,0.0,0.0,0.0,19.0,19.0,19.0,19.0,19.0,19.0,19.0,19.0,0.0,0.0,-6.0,1.0,0.0,0.0,-8.0,4.998,0.0,0.0,0.654,0.779,0.0,17.3,0.0,0.0,0.0,,0.0,0.0,19.0,-2.0,-3.6999999999999993,69.8,62.6,32.0,32.0,32.0,32.0,66.2,66.2,66.2,66.2,66.2,66.2,66.2,66.2,32.0,32.0,63.14,28.4,25.34,0.0,0.8433333333333332,0.0,2026-01-31 16:45:19-08:00
75.06,1.0,8.0,2026-02-01 00:46:34,37.08159,-121.59957,304.0,0.0,231.1,-12.6,0.0,,0.0,0.0,0.0,10.7,-2.2,52.8,0.0,96.0,-0.0,-0.04,1.0,0.0,-81.0,21.0,0.0,30.44,847.0,0.0,0.0,241.0,0.0,0.0,0.0,0.0,0.0,0.0,0.0,0.0,0.0,0.0,0.0,0.0,0.0,0.0,0.0,0.0,0.0,0.0,0.0,0.0,0.0,0.0,0.0,0.0,0.0,17.0,0.0,0.0,30.2,0.0,0.0,0.0,0.0,0.0,0.0,37.4,0.0,0.0,-0.7,0.9,0.3,0.0,0.0,0.0,0.0,19.0,19.0,19.0,19.0,19.0,19.0,19.0,19.0,0.0,0.0,-6.0,1.0,0.0,0.0,-8.0,4.998,0.0,0.0,0.656,0.782,0.0,17.3,0.0,0.0,0.0,,0.0,0.0,19.0,-2.0,-3.6999999999999993,69.8,62.6,32.0,32.0,32.0,32.0,66.2,66.2,66.2,66.2,66.2,66.2,66.2,66.2,32.0,32.0,63.14,28.4,25.34,0.0,0.8433333333333332,0.0,2026-01-31 16:45:19-08:00
76.06,1.0,8.0,2026-02-01 00:46:35,37.08159,-121.59957,304.0,0.0,231.1,-12.6,0.0,,0.0,0.0,0.0,10.7,-2.2,52.8,0.0,96.0,0.0,-0.04,1.0,0.0,-31.0,21.0,0.0,30.44,843.0,0.0,0.0,241.0,0.0,0.0,0.0,0.0,0.0,0.0,0.0,0.0,0.0,0.0,0.0,0.0,0.0,0.0,0.0,0.0,0.0,0.0,0.0,0.0,0.0,0.0,0.0,0.0,0.0,17.0,0.0,0.0,30.2,0.0,0.0,0.0,0.0,0.0,0.0,37.4,0.0,0.0,-0.7,0.9,0.3,0.0,0.0,0.0,0.0,19.0,19.0,19.0,19.0,19.0,19.0,19.0,19.0,0.0,0.0,-6.0,1.0,0.0,0.0,-8.0,4.998,0.0,0.0,0.654,0.781,0.0,17.3,0.0,0.0,0.0,,0.0,0.0,19.0,-2.0,-3.6999999999999993,69.8,62.6,32.0,32.0,32.0,32.0,66.2,66.2,66.2,66.2,66.2,66.2,66.2,66.2,32.0,32.0,63.14,28.4,25.34,0.0,0.8433333333333332,0.0,2026-01-31 16:45:19-08:00
77.06,1.0,8.0,2026-02-01 00:46:36,37.08159,-121.59957,304.0,0.0,231.1,-12.6,0.0,,0.0,0.0,0.0,10.7,-2.2,52.8,0.0,96.0,0.0,-0.04,1.0,0.0,-1.0,21.0,0.0,30.44,843.0,0.0,0.0,241.0,0.0,0.0,0.0,0.0,0.0,0.0,0.0,0.0,0.0,0.0,0.0,0.0,0.0,0.0,0.0,0.0,0.0,0.0,0.0,0.0,0.0,0.0,0.0,0.0,0.0,17.0,0.0,0.0,30.2,0.0,0.0,0.0,0.0,0.0,0.0,37.4,0.0,0.0,-0.7,0.9,0.3,0.0,0.0,0.0,0.0,19.0,19.0,19.0,19.0,19.0,19.0,19.0,19.0,0.0,0.0,-6.0,1.0,0.0,0.0,-8.0,4.998,0.0,0.0,0.654,0.781,0.0,17.3,0.0,0.0,0.0,,0.0,0.0,19.0,-2.0,-3.6999999999999993,69.8,62.6,32.0,32.0,32.0,32.0,66.2,66.2,66.2,66.2,66.2,66.2,66.2,66.2,32.0,32.0,63.14,28.4,25.34,0.0,0.8433333333333332,0.0,2026-01-31 16:45:19-08:00
78.06,1.0,8.0,2026-02-01 00:46:37,37.08159,-121.59957,304.0,0.0,231.1,-12.6,0.0,,0.0,0.0,0.0,10.7,-2.2,52.8,0.0,96.0,-0.0,-0.04,1.0,0.0,-42.0,21.0,0.0,30.44,843.0,0.0,0.0,241.0,0.0,0.0,0.0,0.0,0.0,0.0,0.0,0.0,0.0,0.0,0.0,0.0,0.0,0.0,0.0,0.0,0.0,0.0,0.0,0.0,0.0,0.0,0.0,0.0,0.0,17.0,0.0,0.0,30.2,0.0,0.0,0.0,0.0,0.0,0.0,37.4,0.0,0.0,-0.7,0.9,0.3,0.0,0.0,0.0,0.0,19.0,19.0,19.0,19.0,19.0,19.0,19.0,19.0,0.0,0.0,-6.0,1.0,0.0,0.0,-8.0,4.998,0.0,0.0,0.654,0.781,0.0,17.3,0.0,0.0,0.0,,0.0,0.0,19.0,-2.0,-3.6999999999999993,69.8,62.6,32.0,32.0,32.0,32.0,66.2,66.2,66.2,66.2,66.2,66.2,66.2,66.2,32.0,32.0,63.14,28.4,25.34,0.0,0.8433333333333332,0.0,2026-01-31 16:45:19-08:00
79.06,1.0,8.0,2026-02-01 00:46:38,37.08159,-121.59957,304.0,0.0,231.1,-12.6,0.0,,0.0,0.0,0.0,10.7,-2.3,52.8,0.0,96.0,0.0,-0.04,1.0,0.0,5.0,21.0,0.0,30.44,843.0,0.0,0.0,241.0,0.0,0.0,0.0,0.0,0.0,0.0,0.0,0.0,0.0,0.0,0.0,0.0,0.0,0.0,0.0,0.0,0.0,0.0,0.0,0.0,0.0,0.0,0.0,0.0,0.0,17.0,0.0,0.0,30.2,0.0,0.0,0.0,0.0,0.0,0.0,37.4,0.0,0.0,-0.7,0.9,0.3,0.0,0.0,0.0,0.0,19.0,19.0,19.0,19.0,19.0,19.0,19.0,19.0,0.0,0.0,-6.0,1.0,0.0,0.0,-8.0,4.998,0.0,0.0,0.656,0.781,0.0,17.3,0.0,0.0,0.0,,0.0,0.0,19.0,-2.0,-3.6999999999999993,69.8,62.6,32.0,32.0,32.0,32.0,66.2,66.2,66.2,66.2,66.2,66.2,66.2,66.2,32.0,32.0,63.14,28.4,25.34,0.0,0.8433333333333332,0.0,2026-01-31 16:45:19-08:00
80.06,1.0,8.0,2026-02-01 00:46:39,37.08159,-121.59957,304.0,0.0,231.1,-12.6,0.0,,0.0,0.0,0.0,10.7,-2.3,52.8,0.0,96.0,-0.0,-0.04,1.0,0.0,23.0,21.0,0.0,30.44,843.0,0.0,0.0,241.0,0.0,0.0,0.0,0.0,0.0,0.0,0.0,0.0,0.0,0.0,0.0,0.0,0.0,0.0,0.0,0.0,0.0,0.0,0.0,0.0,0.0,0.0,0.0,0.0,0.0,17.0,0.0,0.0,30.2,0.0,0.0,0.0,0.0,0.0,0.0,37.4,0.0,0.0,-0.7,0.9,0.3,0.0,0.0,0.0,0.0,19.0,19.0,19.0,19.0,19.0,19.0,19.0,19.0,0.0,0.0,-6.0,1.0,0.0,0.0,-8.0,4.998,0.0,0.0,0.654,0.781,0.0,17.3,0.0,0.0,0.0,,0.0,0.0,19.0,-2.0,-3.6999999999999993,69.8,62.6,32.0,32.0,32.0,32.0,66.2,66.2,66.2,66.2,66.2,66.2,66.2,66.2,32.0,32.0,63.14,28.4,25.34,0.0,0.8433333333333332,0.0,2026-01-31 16:45:19-08:00
81.06,1.0,8.0,2026-02-01 00:46:40,37.08159,-121.59957,304.0,0.0,231.1,-12.6,0.0,,0.0,0.0,0.0,10.7,-2.2,52.8,0.0,96.0,0.0,-0.04,1.0,0.0,18.0,21.0,0.0,30.44,843.0,0.0,0.0,241.0,0.0,0.0,0.0,0.0,0.0,0.0,0.0,0.0,0.0,0.0,0.0,0.0,0.0,0.0,0.0,0.0,0.0,0.0,0.0,0.0,0.0,0.0,0.0,0.0,0.0,17.0,0.0,0.0,30.2,0.0,0.0,0.0,0.0,0.0,0.0,37.4,0.0,0.0,-0.7,0.9,0.3,0.0,0.0,0.0,0.0,19.0,19.0,19.0,19.0,19.0,19.0,19.0,19.0,0.0,0.0,-6.0,1.0,0.0,0.0,-8.0,4.998,0.0,0.0,0.654,0.781,0.0,17.3,0.0,0.0,0.0,,0.0,0.0,19.0,-2.0,-3.6999999999999993,69.8,62.6,32.0,32.0,32.0,32.0,66.2,66.2,66.2,66.2,66.2,66.2,66.2,66.2,32.0,32.0,63.14,28.4,25.34,0.0,0.8433333333333332,0.0,2026-01-31 16:45:19-08:00
82.06,1.0,8.0,2026-02-01 00:46:41,37.08159,-121.59957,304.0,0.0,231.1,-12.6,0.0,,0.0,0.0,0.0,10.7,-2.2,52.8,0.0,96.0,-0.0,-0.04,1.0,0.0,-12.0,21.0,0.0,30.44,843.0,0.0,0.0,241.0,0.0,0.0,0.0,0.0,0.0,0.0,0.0,0.0,0.0,0.0,0.0,0.0,0.0,0.0,0.0,0.0,0.0,0.0,0.0,0.0,0.0,0.0,0.0,0.0,0.0,17.0,0.0,0.0,30.2,0.0,0.0,0.0,0.0,0.0,0.0,37.4,0.0,0.0,-0.7,0.9,0.3,0.0,0.0,0.0,0.0,19.0,19.0,19.0,19.0,19.0,19.0,19.0,19.0,0.0,0.0,-6.0,1.0,0.0,0.0,-8.0,4.998,0.0,0.0,0.654,0.782,0.0,17.3,0.0,0.0,0.0,,0.0,0.0,19.0,-2.0,-3.6999999999999993,69.8,62.6,32.0,32.0,32.0,32.0,66.2,66.2,66.2,66.2,66.2,66.2,66.2,66.2,32.0,32.0,63.14,28.4,25.34,0.0,0.8433333333333332,0.0,2026-01-31 16:45:19-08:00
83.06,1.0,8.0,2026-02-01 00:46:42,37.08159,-121.59957,304.0,0.0,231.1,-12.6,0.0,,0.0,0.0,0.0,10.7,-2.2,52.8,0.0,96.0,-0.0,-0.04,1.0,0.0,51.0,21.0,0.0,30.44,843.0,0.0,0.0,241.0,0.0,0.0,0.0,0.0,0.0,0.0,0.0,0.0,0.0,0.0,0.0,0.0,0.0,0.0,0.0,0.0,0.0,0.0,0.0,0.0,0.0,0.0,0.0,0.0,0.0,17.0,0.0,0.0,30.2,0.0,0.0,0.0,0.0,0.0,0.0,37.4,0.0,0.0,-0.7,0.9,0.3,0.0,0.0,0.0,0.0,19.0,19.0,19.0,19.0,19.0,19.0,19.0,19.0,0.0,0.0,-6.0,1.0,0.0,0.0,-8.0,4.998,0.0,0.0,0.654,0.782,0.0,17.3,0.0,0.0,0.0,,0.0,0.0,19.0,-2.0,-3.6999999999999993,69.8,62.6,32.0,32.0,32.0,32.0,66.2,66.2,66.2,66.2,66.2,66.2,66.2,66.2,32.0,32.0,63.14,28.4,25.34,0.0,0.8433333333333332,0.0,2026-01-31 16:45:19-08:00
84.06,1.0,8.0,2026-02-01 00:46:43,37.08159,-121.59957,305.0,0.0,231.1,-12.6,0.0,,0.0,0.0,0.0,10.8,-2.2,52.8,0.0,96.0,0.0,-0.04,1.0,0.0,24.0,21.0,0.0,30.44,843.0,0.0,0.0,241.0,0.0,0.0,0.0,0.0,0.0,0.0,0.0,0.0,0.0,0.0,0.0,0.0,0.0,0.0,0.0,0.0,0.0,0.0,0.0,0.0,0.0,0.0,0.0,0.0,0.0,17.0,0.0,0.0,30.2,0.0,0.0,0.0,0.0,0.0,0.0,37.4,0.0,0.0,-0.7,0.9,0.3,0.0,0.0,0.0,0.0,19.0,19.0,19.0,19.0,19.0,19.0,19.0,19.0,0.0,0.0,-6.0,1.0,0.0,0.0,-8.0,4.998,0.0,0.0,0.656,0.782,0.0,17.3,0.0,0.0,0.0,,0.0,0.0,19.0,-2.0,-3.6999999999999993,69.8,62.6,32.0,32.0,32.0,32.0,66.2,66.2,66.2,66.2,66.2,66.2,66.2,66.2,32.0,32.0,63.14,28.4,25.34,0.0,0.8433333333333332,0.0,2026-01-31 16:45:19-08:00
85.06,1.0,8.0,2026-02-01 00:46:44,37.08159,-121.59957,305.0,0.0,231.1,-12.6,0.0,,0.0,0.0,0.0,10.7,-2.2,52.9,0.0,96.0,0.0,-0.04,1.0,0.0,3.0,21.0,0.0,30.44,843.0,0.0,0.0,241.0,0.0,0.0,0.0,0.0,0.0,0.0,0.0,0.0,0.0,0.0,0.0,0.0,0.0,0.0,0.0,0.0,0.0,0.0,0.0,0.0,0.0,0.0,0.0,0.0,0.0,17.0,0.0,0.0,30.2,0.0,0.0,0.0,0.0,0.0,0.0,37.4,0.0,0.0,-0.7,0.9,0.3,0.0,0.0,0.0,0.0,19.0,19.0,19.0,19.0,19.0,19.0,19.0,19.0,0.0,0.0,-6.0,1.0,0.0,0.0,-8.0,4.998,0.0,0.0,0.656,0.781,0.0,17.3,0.0,0.0,0.0,,0.0,0.0,19.0,-2.0,-3.6999999999999993,69.8,62.6,32.0,32.0,32.0,32.0,66.2,66.2,66.2,66.2,66.2,66.2,66.2,66.2,32.0,32.0,63.14,28.4,25.34,0.0,0.8433333333333332,0.0,2026-01-31 16:45:19-08:00
