Session Time,GPS Fix Quality,Number of Satellites,GPS Date & Time,Latitude (deg),Longitude (deg),GPS Altitude (feet),Ground Speed (knots),Ground Track (deg),Mag Var (deg),Cross Track Error (NM),Destination Waypoint ID,Range to Destination (NM),Bearing to Destination (deg),System Time,Pitch (deg),Roll (deg),Magnetic Heading (deg),Indicated Airspeed (knots),Pressure Altitude (ft),Turn Rate (deg/s),Lateral Accel (g),Vertical Accel(g),Angle of Attack (%),Vertical Speed (ft/min),OAT (deg C),True Airspeed (knots),Barometer Setting (inHg),Density Altitude (ft),Wind Direction (deg),Wind Speed (knots),Heading Bug (deg),Altitude Bug (ft),Airspeed Bug (knots),Vertical Speed Bug (ft/min),Course (deg),CDI Source Type,CDI Source Port,CDI Scale (NM),CDI Deflection (%),Glideslope (%),AP Engaged,AP Roll Mode,AP Roll Force,AP Roll Position (steps),AP Roll Slip (bool),AP Pitch Force,AP Pitch Position (steps),AP Pitch Slip (bool),AP Yaw Force,AP Yaw Position,AP Yaw Slip (bool),Transponder Status,Transponder Reply (bool),Transponder Identing (bool),Transponder Code (octal),Oil Pressure (PSI),Oil Temp (deg C),RPM L,RPM R,Manifold Pressure (inHg),Fuel Flow 1 (gal/hr),Fuel Flow 2 (gal/hr),Total Fuel Flow (gal/hr),Fuel Pressure (PSI),Fuel Level L (gal),Fuel Level R (gal),Fuel Remaining (gal),Volts 1,Volts 2,Amps,Hobbs Time,Tach Time,Thermocouple 1 (deg C),Thermocouple 2 (deg C),Thermocouple 3 (deg C),Thermocouple 4 (deg C),CHT 4 (deg C),EGT 4 (deg C),CHT 3 (deg C),EGT 3 (deg C),CHT 2 (deg C),EGT 2 (deg C),CHT 1 (deg C),EGT 1 (deg C),Thermocouple 13 (deg C),Thermocouple 14 (deg C),ELEV POSITION (%),CO PPM PRESSURE (PSI),GP Input 3,FUEL PRESSURE (PSI),AILERN POSITION (%),CANOPY CONTACT (V),GP Input 7,GP Input 8,LEFT LEVEL (Sensor V),RIGHT LEVEL (Sensor V),OIL PRESSURE (PSI),OIL TEMPERATURE (deg C),GP Input 13,Contacts,Percent Power,EGT Leaning State,Unnamed: 103,RPM,Flight ID
0.06,1.0,6.0,2026-04-24 22:47:53,37.08164,-121.59959,323.0,0.1,114.7,-12.7,,,,,22:47:53,,,,,,,,,,,25.0,,,,,,144.0,,100.0,-500.0,,0.0,0.0,,,,,,,,,,,,,,,,,,,,,,,,,,,,,,23.0,,,,12.7,10.5,,,,,,,,,,,,,,,,,,,,,,,,,,,,,,,,,2026-04-24 15:47:53-07:00
1.06,1.0,6.0,2026-04-24 22:47:54,37.08163,-121.59959,323.0,0.1,114.7,-12.6,,,,,22:47:53,10.9,-1.1,42.9,0.0,344.0,0.0,-0.02,1.0,,-142.0,25.0,0.0,30.02,1661.0,,,144.0,,100.0,-500.0,,0.0,0.0,,,,,,,,,,,,,,,,,,,,,0.0,0.0,,,,0.0,,,,23.0,0.0,0.0,-0.7,12.7,10.5,,,,,23.0,23.0,23.0,23.0,23.0,23.0,23.0,23.0,,,19.0,254.4,,0.5,3.0,0.0,,,0.929,0.84,0.0,,,,,,,0.0,2026-04-24 15:47:53-07:00
2.06,1.0,6.0,2026-04-24 22:47:55,37.08163,-121.59958,324.0,0.0,114.7,-12.6,,,,,22:47:54,10.9,-1.1,43.0,0.0,342.0,0.0,-0.02,1.0,,-121.0,25.0,0.0,30.02,1661.0,,,144.0,,100.0,-500.0,,0.0,0.0,,,,,,,,,,,,,,,,,,,,,0.0,0.0,,,,0.0,,,,23.0,0.0,0.0,-0.7,12.7,10.5,,,,,23.0,23.0,23.0,23.0,23.0,23.0,23.0,23.0,,,19.0,254.4,,0.5,3.0,0.0,,,0.929,0.846,0.0,22.2,,,,,,0.0,2026-04-24 15:47:53-07:00
3.06,1.0,6.0,2026-04-24 22:47:56,37.08163,-121.59958,324.0,0.1,114.7,-12.6,,,,,22:47:55,10.9,-1.2,43.0,0.0,340.0,0.0,-0.02,1.0,,-138.0,25.0,0.0,30.02,1661.0,,,144.0,,100.0,-500.0,,0.0,0.0,,,,,,,,,,,,,,,,,,,,,0.0,0.0,,0.0,,0.0,,,,23.0,0.0,0.0,-0.7,12.7,10.5,,,,,23.0,23.0,23.0,23.0,23.0,23.0,23.0,23.0,,,19.0,254.4,,0.5,3.0,0.0,,,0.929,0.844,0.0,22.2,,,,,,0.0,2026-04-24 15:47:53-07:00
4.06,1.0,6.0,2026-04-24 22:47:57,37.08162,-121.59958,324.0,0.1,114.7,-12.6,,,,,22:47:57,10.9,-1.1,43.0,0.0,338.0,0.0,-0.02,1.0,,-122.0,25.0,0.0,30.02,1654.0,,,144.0,,100.0,-500.0,,0.0,0.0,,,,,,,,,,,,,,,,,,,,,0.0,0.0,,0.0,,0.0,,,,23.0,0.0,0.0,-0.7,12.7,10.5,,,,,23.0,23.0,23.0,23.0,23.0,23.0,23.0,23.0,,,19.0,254.4,,0.5,3.0,0.0,,,0.929,0.841,0.0,22.1,,,,,,0.0,2026-04-24 15:47:53-07:00
5.06,1.0,6.0,2026-04-24 22:47:58,37.08162,-121.59958,324.0,0.0,114.7,-12.6,,,,,22:47:57,10.9,-1.2,43.0,0.0,335.0,0.1,-0.02,1.0,99.0,-133.0,25.0,0.0,30.02,1654.0,,,144.0,,,,,0.0,0.0,,,,,,,,,,,,,,,,,,,0.0,22.0,0.0,0.0,30.0,0.0,,0.0,0.5,,,23.0,0.0,0.0,-0.7,12.7,10.5,,,,,23.0,23.0,23.0,23.0,23.0,23.0,23.0,23.0,,,18.0,254.4,,0.5,3.0,0.0,,,0.929,0.839,0.0,22.1,,,,,,0.0,2026-04-24 15:47:53-07:00
6.06,1.0,6.0,2026-04-24 22:47:59,37.08162,-121.59958,323.0,0.1,114.7,-12.6,,,,,22:47:58,10.9,-1.2,43.0,0.0,333.0,0.1,-0.02,1.0,99.0,-132.0,25.0,0.0,30.02,1654.0,,,144.0,,,,,0.0,0.0,,,,,,,,,,,,,,,,,,,0.0,22.0,0.0,0.0,30.0,0.0,,0.0,0.5,,,23.0,0.0,0.0,-0.7,12.7,10.5,,,,,23.0,23.0,23.0,24.0,23.0,23.0,23.0,24.0,,,18.0,254.4,,0.5,3.0,0.0,,,0.929,0.854,0.0,22.0,,,,,,0.0,2026-04-24 15:47:53-07:00
7.06,1.0,6.0,2026-04-24 22:48:00,37.08162,-121.59958,323.0,0.1,114.7,-12.6,,,,,22:47:59,10.9,-1.2,43.0,0.0,333.0,0.1,-0.02,1.0,99.0,-90.0,25.0,0.0,30.02,1646.0,,,144.0,,,,,0.0,0.0,,,,,,,,,,,,,,,,,,,0.0,22.0,0.0,0.0,30.0,0.0,,0.0,0.5,,,23.0,0.0,0.0,-0.7,12.7,10.5,,,,,23.0,23.0,23.0,24.0,23.0,23.0,23.0,24.0,,,18.0,254.4,,0.5,3.0,0.0,,,0.929,0.84,0.0,22.0,,,,,,0.0,2026-04-24 15:47:53-07:00
8.06,1.0,8.0,2026-04-24 22:48:01,37.0816,-121.59956,327.0,0.0,114.7,-12.6,,,,,22:48:00,10.9,-1.2,43.0,0.0,332.0,0.1,-0.02,1.0,99.0,-69.0,25.0,0.0,30.02,1646.0,,,144.0,,,,,0.0,0.0,,,,,,,,,,,,,,,,,,,0.0,22.0,0.0,0.0,30.0,0.0,,0.0,0.5,,,23.0,0.0,0.0,-0.7,12.7,10.5,,,,,23.0,23.0,23.0,24.0,23.0,23.0,23.0,24.0,,,18.0,254.4,,0.5,3.0,0.0,,,0.929,0.835,0.0,22.0,,,,,,0.0,2026-04-24 15:47:53-07:00
9.06,1.0,9.0,2026-04-24 22:48:02,37.08164,-121.59958,308.0,0.0,114.7,-12.6,,,,,22:48:01,10.9,-1.2,42.9,0.0,331.0,0.0,-0.02,1.0,99.0,-28.0,25.0,0.0,30.02,1646.0,,,144.0,,,,,0.0,0.0,,,,,,,,,,,,,,,,,,,0.0,22.0,0.0,0.0,30.0,0.0,,0.0,0.5,,,23.0,0.0,0.0,-0.7,12.7,10.5,,,,,23.0,23.0,23.0,24.0,23.0,23.0,23.0,24.0,,,19.0,254.4,,0.5,3.0,0.0,,,0.93,0.836,0.0,22.0,,,,,,0.0,2026-04-24 15:47:53-07:00
10.06,1.0,9.0,2026-04-24 22:48:03,37.08164,-121.59958,308.0,0.0,114.7,-12.6,,,,,22:48:02,10.9,-1.2,43.0,0.0,331.0,0.1,-0.03,1.0,99.0,-9.0,25.0,0.0,30.02,1654.0,,,144.0,,,,,0.0,0.0,,,,,,,,,,,,,,,,,,,0.0,22.0,0.0,0.0,30.0,0.0,,0.0,0.5,,,23.0,0.0,0.0,-0.7,12.7,10.5,,,,,23.0,23.0,23.0,24.0,23.0,23.0,23.0,24.0,,,20.0,254.4,,0.5,3.0,0.0,,,0.929,0.834,0.0,22.0,,,,,,0.0,2026-04-24 15:47:53-07:00
11.06,1.0,9.0,2026-04-24 22:48:04,37.08164,-121.59958,307.0,0.0,114.7,-12.6,,,,,22:48:03,10.9,-1.2,42.9,0.0,331.0,0.0,-0.02,1.0,99.0,-15.0,25.0,0.0,30.02,1654.0,,,144.0,,,,,0.0,0.0,,,,,,,,,,,,,,,,,,,0.0,22.0,0.0,0.0,30.0,0.0,,0.0,0.5,,,23.0,0.0,0.0,-0.6,12.7,10.5,,,,,23.0,23.0,23.0,24.0,23.0,23.0,23.0,24.0,,,20.0,254.4,,0.5,3.0,0.0,,,0.929,0.835,0.0,22.0,,,,,,0.0,2026-04-24 15:47:53-07:00
12.06,1.0,9.0,2026-04-24 22:48:05,37.08164,-121.59958,307.0,0.0,114.7,-12.6,,,,,22:48:04,10.9,-1.2,42.9,0.0,331.0,0.0,-0.02,1.0,99.0,-53.0,25.0,0.0,30.02,1654.0,,,144.0,,,,,0.0,0.0,,,,,,,,,,,,,,,,,,,0.0,22.0,0.0,0.0,30.0,0.0,,0.0,0.5,,,23.0,0.0,0.0,-0.6,12.7,10.5,,,,,23.0,23.0,23.0,24.0,23.0,23.0,23.0,24.0,,,21.0,254.4,,0.5,3.0,0.0,,,0.929,0.835,0.0,21.9,,,,,,0.0,2026-04-24 15:47:53-07:00
13.06,1.0,9.0,2026-04-24 22:48:06,37.08164,-121.59958,307.0,0.0,114.7,-12.6,,,,,22:48:05,10.9,-1.3,42.9,0.0,330.0,0.0,-0.02,1.0,99.0,-78.0,25.0,0.0,30.02,1652.0,,,144.0,,,,,0.0,0.0,,,,,,,,,,,,,,,,,,,0.0,22.0,0.0,0.0,30.0,0.0,,0.0,0.5,,,23.0,0.0,0.0,-0.6,12.7,10.5,,,,,23.0,23.0,23.0,24.0,23.0,23.0,23.0,24.0,,,21.0,254.4,,0.5,3.0,0.0,,,0.929,0.836,0.0,21.9,,,,,,0.0,2026-04-24 15:47:53-07:00
14.06,1.0,9.0,2026-04-24 22:48:07,37.08164,-121.59958,306.0,0.1,114.7,-12.6,,,,,22:48:06,10.9,-1.2,42.9,0.0,327.0,0.0,-0.02,1.0,99.0,-109.0,25.0,0.0,30.02,1652.0,,,144.0,,,,,0.0,0.0,,,,,,,,,,,,,,,,,,,0.0,22.0,0.0,0.0,30.0,0.0,,0.0,0.5,,,23.0,0.0,0.0,-0.6,12.7,10.5,,,,,23.0,23.0,23.0,24.0,23.0,23.0,23.0,24.0,,,22.0,254.4,,0.5,3.0,0.0,,,0.929,0.839,0.0,21.9,,,,,,0.0,2026-04-24 15:47:53-07:00
15.06,1.0,9.0,2026-04-24 22:48:08,37.08164,-121.59958,306.0,0.0,114.7,-12.6,,,,,22:48:07,10.9,-1.2,42.9,0.0,326.0,0.0,-0.02,1.0,99.0,-105.0,25.0,0.0,30.02,1652.0,,,144.0,,,,,0.0,0.0,,,,,,,,,,,,,,,,,,,0.0,22.0,0.0,0.0,30.0,0.0,,0.0,0.5,,,23.0,0.0,0.0,-0.6,12.7,10.5,,,,,23.0,23.0,23.0,24.0,23.0,23.0,23.0,24.0,,,22.0,254.4,,0.5,3.0,0.0,,,0.93,0.839,0.0,21.9,,,,,,0.0,2026-04-24 15:47:53-07:00
16.06,1.0,9.0,2026-04-24 22:48:09,37.08164,-121.59958,306.0,0.0,114.7,-12.6,,,,,22:48:08,10.9,-1.2,42.9,0.0,326.0,0.0,-0.02,1.0,99.0,-55.0,25.0,0.0,30.02,1647.0,,,144.0,,,,,0.0,0.0,,,,,,,,,,,,,,,,,,,0.0,22.0,0.0,0.0,30.0,0.0,,0.0,0.5,,,23.0,0.0,0.0,-0.6,12.7,10.5,,,,,23.0,23.0,23.0,24.0,23.0,23.0,23.0,24.0,,,22.0,254.4,,0.5,3.0,0.0,,,0.93,0.839,0.0,21.9,,,,,,0.0,2026-04-24 15:47:53-07:00
17.06,1.0,9.0,2026-04-24 22:48:10,37.08164,-121.59958,306.0,0.0,114.7,-12.6,,,,,22:48:09,10.9,-1.2,42.9,0.0,326.0,0.0,-0.02,1.0,99.0,-43.0,25.0,0.0,30.02,1647.0,,,144.0,,,,,0.0,0.0,,,,,,,,,,,,,,,,,,,0.0,22.0,0.0,0.0,30.0,0.0,,0.0,0.5,,,23.0,0.0,0.0,-0.5,12.7,10.5,,,,,23.0,23.0,23.0,24.0,23.0,23.0,23.0,24.0,,,22.0,254.4,,0.5,3.0,0.0,,,0.929,0.836,0.0,21.9,,,,,,0.0,2026-04-24 15:47:53-07:00
18.06,1.0,9.0,2026-04-24 22:48:11,37.08164,-121.59958,306.0,0.0,114.7,-12.6,,,,,22:48:10,10.9,-1.2,42.9,0.0,326.0,0.1,-0.02,1.0,99.0,-12.0,25.0,0.0,30.02,1647.0,,,144.0,,,,,0.0,0.0,,,,,,,,,,,,,,,,,,,0.0,22.0,0.0,0.0,30.0,0.0,,0.0,0.5,,,23.0,0.0,0.0,-0.5,12.7,10.5,,,,,23.0,23.0,23.0,24.0,23.0,23.0,23.0,24.0,,,22.0,254.4,,0.5,3.0,0.0,,,0.93,0.834,0.0,21.9,,,,,,0.0,2026-04-24 15:47:53-07:00
19.06,1.0,9.0,2026-04-24 22:48:12,37.08164,-121.59958,306.0,0.0,114.7,-12.6,,,,,22:48:11,10.9,-1.2,42.9,0.0,326.0,0.0,-0.02,1.0,99.0,-25.0,25.0,0.0,30.02,1647.0,,,144.0,,,,,0.0,0.0,,,,,,,,,,,,,,,,,,,0.0,22.0,0.0,0.0,30.0,0.0,,0.0,0.5,,,23.0,0.0,0.0,-0.5,12.7,10.5,,,,,23.0,23.0,23.0,24.0,23.0,23.0,23.0,24.0,,,22.0,254.4,,0.5,3.0,0.0,,,0.929,0.835,0.0,21.9,,,,,,0.0,2026-04-24 15:47:53-07:00
20.06,1.0,9.0,2026-04-24 22:48:13,37.08164,-121.59958,306.0,0.0,114.7,-12.6,,,,,22:48:12,10.9,-1.3,42.9,0.0,325.0,0.0,-0.02,1.0,99.0,-17.0,25.0,0.0,30.02,1648.0,,,144.0,,,,,0.0,0.0,,,,,,,,,,,,,,,,,,,0.0,22.0,0.0,0.0,30.0,0.0,,0.0,0.5,,,23.0,0.0,0.0,-0.5,12.7,10.5,,,,,23.0,23.0,23.0,24.0,23.0,23.0,23.0,24.0,,,22.0,254.4,,0.5,3.0,0.0,,,0.929,0.833,0.0,21.9,,,,,,0.0,2026-04-24 15:47:53-07:00
21.06,1.0,9.0,2026-04-24 22:48:14,37.08164,-121.59958,306.0,0.0,114.7,-12.6,,,,,22:48:13,10.9,-1.3,42.9,0.0,325.0,0.0,-0.02,1.0,99.0,-23.0,26.0,0.0,30.02,1648.0,,,144.0,,,,,0.0,0.0,,,,,,,,,,,,,,,,,,,0.0,22.0,0.0,0.0,30.0,0.0,,0.0,0.5,,,23.0,0.0,0.0,-0.5,12.7,10.5,,,,,23.0,23.0,23.0,24.0,23.0,23.0,23.0,24.0,,,22.0,254.4,,0.5,3.0,0.0,,,0.929,0.83,0.0,21.9,,,,,,0.0,2026-04-24 15:47:53-07:00
22.06,1.0,9.0,2026-04-24 22:48:15,37.08164,-121.59958,306.0,0.0,114.7,-12.6,,,,,22:48:14,10.9,-1.3,42.9,0.0,325.0,0.0,-0.02,1.0,99.0,-19.0,26.0,0.0,30.02,1648.0,,,144.0,,,,,0.0,0.0,,,,,,,,,,,,,,,,,,,0.0,22.0,0.0,0.0,30.0,0.0,,0.0,0.5,,,23.0,0.0,0.0,-0.5,12.7,10.5,,,,,23.0,23.0,23.0,24.0,23.0,23.0,23.0,24.0,,,22.0,254.4,,0.5,3.0,0.0,,,0.929,0.83,0.0,21.9,,,,,,0.0,2026-04-24 15:47:53-07:00
23.06,1.0,9.0,2026-04-24 22:48:16,37.08164,-121.59958,306.0,0.0,114.7,-12.6,,,,,22:48:15,10.9,-1.3,42.9,0.0,325.0,0.0,-0.02,1.0,99.0,-7.0,26.0,0.0,30.02,1656.0,,,144.0,,,,,0.0,0.0,,,,,,,,,,,,,,,,,,,0.0,22.0,0.0,0.0,30.0,0.0,,0.0,0.5,,,23.0,0.0,0.0,-0.5,12.7,10.5,,,,,23.0,23.0,23.0,24.0,23.0,23.0,23.0,24.0,,,22.0,254.4,,0.5,3.0,0.0,,,0.929,0.831,0.0,21.9,,,,,,0.0,2026-04-24 15:47:53-07:00
24.06,1.0,9.0,2026-04-24 22:48:17,37.08164,-121.59958,306.0,0.0,114.7,-12.6,,,,,22:48:16,10.9,-1.2,42.9,0.0,324.0,0.0,-0.02,1.0,99.0,-38.0,26.0,0.0,30.02,1656.0,,,144.0,,,,,0.0,0.0,,,,,,,,,,,,,,,,,,,0.0,22.0,0.0,0.0,30.0,0.0,,0.0,0.4,,,23.0,0.0,0.0,-0.4,12.7,10.5,,,,,23.0,23.0,23.0,24.0,23.0,23.0,23.0,24.0,,,22.0,254.4,,0.4,3.0,0.0,,,0.929,0.831,0.0,21.9,,,,,,0.0,2026-04-24 15:47:53-07:00
25.06,1.0,9.0,2026-04-24 22:48:18,37.08164,-121.59958,306.0,0.0,114.7,-12.6,,,,,22:48:17,10.9,-1.2,42.8,0.0,323.0,0.0,-0.02,1.0,99.0,-49.0,26.0,0.0,30.02,1656.0,,,144.0,,,,,0.0,0.0,,,,,,,,,,,,,,,,,,,0.0,22.0,0.0,0.0,30.0,0.0,,0.0,0.4,,,23.0,0.0,0.0,-0.4,12.7,10.5,,,,,23.0,23.0,23.0,24.0,23.0,23.0,23.0,24.0,,,22.0,254.4,,0.4,3.0,0.0,,,0.929,0.831,0.0,21.9,,,,,,0.0,2026-04-24 15:47:53-07:00
26.06,1.0,9.0,2026-04-24 22:48:19,37.08164,-121.59958,307.0,0.0,114.7,-12.6,,,,,22:48:18,10.9,-1.3,42.8,0.0,322.0,0.0,-0.02,1.0,99.0,-55.0,26.0,0.0,30.02,1654.0,,,144.0,,,,,0.0,0.0,,,,,,,,,,,,,,,,,,,0.0,22.0,0.0,0.0,30.0,0.0,,0.0,0.1,,,23.0,0.0,0.0,-0.4,12.7,10.5,,,,,23.0,23.0,23.0,24.0,23.0,23.0,23.0,24.0,,,22.0,254.4,,0.1,3.0,0.0,,,0.929,0.83,0.0,21.9,,,,,,0.0,2026-04-24 15:47:53-07:00
27.06,1.0,9.0,2026-04-24 22:48:20,37.08164,-121.59958,307.0,0.0,114.7,-12.6,,,,,22:48:19,10.9,-1.3,42.8,0.0,322.0,0.0,-0.02,1.0,99.0,-55.0,26.0,0.0,30.02,1654.0,,,144.0,,,,,0.0,0.0,,,,,,,,,,,,,,,,,,,0.0,22.0,0.0,0.0,30.0,0.0,,0.0,0.0,,,23.0,0.0,0.0,-0.4,12.7,10.5,,,,,23.0,23.0,23.0,24.0,23.0,23.0,23.0,24.0,,,22.0,254.4,,0.0,3.0,0.001,,,0.929,0.831,0.0,21.9,,,,,,0.0,2026-04-24 15:47:53-07:00
28.06,1.0,9.0,2026-04-24 22:48:21,37.08164,-121.59958,307.0,0.1,114.7,-12.6,,,,,22:48:20,10.9,-1.3,42.8,0.0,320.0,0.0,-0.02,1.0,99.0,-68.0,26.0,0.0,30.02,1654.0,,,144.0,,,,,0.0,0.0,,,,,,,,,,,,,,,,,,,0.0,22.0,0.0,0.0,30.0,0.0,,0.0,32.3,,,23.0,0.0,0.0,-0.4,12.7,10.5,,,,,23.0,23.0,23.0,24.0,23.0,23.0,23.0,24.0,,,23.0,254.4,,32.3,3.0,0.001,,,0.929,0.831,0.0,21.9,,,,,,0.0,2026-04-24 15:47:53-07:00
29.06,1.0,9.0,2026-04-24 22:48:22,37.08164,-121.59958,307.0,0.0,114.7,-12.6,,,,,22:48:21,10.9,-1.3,42.8,0.0,317.0,0.0,-0.02,1.0,99.0,-101.0,26.0,0.0,30.02,1649.0,,,144.0,,,,,0.0,0.0,,,,,,,,,,,,,,,,,,,0.0,22.0,0.0,0.0,30.0,0.0,,0.0,33.7,,,23.0,0.0,0.0,-0.4,12.7,10.5,,,,,23.0,23.0,23.0,24.0,23.0,23.0,23.0,24.0,,,23.0,254.4,,33.7,3.0,0.001,,,0.929,0.83,0.0,21.9,,,,,,0.0,2026-04-24 15:47:53-07:00
30.06,1.0,9.0,2026-04-24 22:48:23,37.08164,-121.59958,307.0,0.1,114.7,-12.6,,,,,22:48:22,10.9,-1.3,42.8,0.0,315.0,0.0,-0.02,1.0,99.0,-121.0,26.0,0.0,30.02,1649.0,,,144.0,,,,,0.0,0.0,,,,,,,,,,,,,,,,,,,0.0,22.0,0.0,0.0,30.0,0.0,,0.0,33.1,,,23.0,0.0,0.0,-0.4,12.7,10.5,,,,,23.0,24.0,23.0,24.0,23.0,24.0,23.0,24.0,,,23.0,254.4,,33.1,3.0,0.001,,,0.929,0.83,0.0,21.9,,,,,,0.0,2026-04-24 15:47:53-07:00
31.06,1.0,9.0,2026-04-24 22:48:24,37.08164,-121.59958,308.0,0.0,114.7,-12.6,,,,,22:48:23,10.9,-1.3,42.8,0.0,312.0,0.0,-0.02,1.0,99.0,-138.0,26.0,0.0,30.02,1649.0,,,144.0,,,,,0.0,0.0,,,,,,,,,,,,,,,,,,,0.0,22.0,0.0,0.0,30.0,0.0,,0.0,31.9,,,23.0,0.0,0.0,-0.4,12.7,10.5,,,,,23.0,24.0,23.0,24.0,23.0,24.0,23.0,24.0,,,23.0,254.3,,31.9,3.0,0.001,,,0.929,0.83,0.0,21.9,,,,,,0.0,2026-04-24 15:47:53-07:00
32.06,1.0,9.0,2026-04-24 22:48:25,37.08164,-121.59958,308.0,0.0,114.7,-12.6,,,,,22:48:24,10.9,-1.3,42.8,0.0,311.0,0.0,-0.02,1.0,99.0,-129.0,26.0,0.0,30.02,1650.0,,,144.0,,,,,0.0,0.0,,,,,,,,,,,,,,,,,,,0.0,22.0,0.0,0.0,30.0,1.1,,1.1,31.8,,,23.0,0.0,0.0,-0.4,12.7,10.5,,,,,23.0,23.0,23.0,24.0,23.0,23.0,23.0,24.0,,,23.0,254.3,,31.8,3.0,0.001,,,0.929,0.83,0.0,21.9,,,,,,0.0,2026-04-24 15:47:53-07:00
33.06,1.0,9.0,2026-04-24 22:48:26,37.08164,-121.59958,308.0,0.0,114.7,-12.6,,,,,22:48:25,10.9,-1.3,42.9,0.0,309.0,0.0,-0.02,1.0,99.0,-111.0,26.0,0.0,30.02,1650.0,,,144.0,,,,,0.0,0.0,,,,,,,,,,,,,,,,,,,0.0,22.0,0.0,0.0,30.0,1.9,,1.9,31.6,,,23.0,0.0,0.0,-0.4,12.7,10.5,,,,,23.0,23.0,23.0,24.0,23.0,23.0,23.0,24.0,,,23.0,254.3,,31.6,3.0,0.001,,,0.929,0.83,0.0,21.9,,,,,,0.0,2026-04-24 15:47:53-07:00
34.06,1.0,9.0,2026-04-24 22:48:27,37.08164,-121.59958,308.0,0.0,114.7,-12.6,,,,,22:48:26,10.9,-1.3,42.9,0.0,308.0,0.0,-0.02,1.0,99.0,-100.0,26.0,0.0,30.02,1650.0,,,144.0,,,,,0.0,0.0,,,,,,,,,,,,,,,,,,,0.0,22.0,0.0,0.0,30.0,2.5,,2.5,31.6,,,23.0,0.0,0.0,-0.4,12.7,10.5,,,,,23.0,23.0,23.0,24.0,23.0,23.0,23.0,24.0,,,23.0,254.3,,31.6,3.0,0.001,,,0.929,0.83,0.0,21.9,,,,,,0.0,2026-04-24 15:47:53-07:00
35.06,1.0,9.0,2026-04-24 22:48:28,37.08164,-121.59958,308.0,0.0,114.7,-12.6,,,,,22:48:27,10.9,-1.3,42.9,0.0,307.0,0.0,-0.02,1.0,99.0,-97.0,26.0,0.0,30.02,1644.0,,,144.0,,,,,0.0,0.0,,,,,,,,,,,,,,,,,,,0.0,22.0,0.0,0.0,30.0,3.0,,3.0,31.6,,,23.0,0.0,0.0,-0.4,12.7,10.5,,,,,23.0,24.0,23.0,24.0,23.0,24.0,23.0,24.0,,,23.0,254.3,,31.6,3.0,0.001,,,0.929,0.83,0.0,21.9,,,,,,0.0,2026-04-24 15:47:53-07:00
36.06,1.0,9.0,2026-04-24 22:48:29,37.08164,-121.59958,309.0,0.0,114.7,-12.6,,,,,22:48:28,10.9,-1.3,42.9,0.0,306.0,0.0,-0.02,1.0,99.0,-78.0,26.0,0.0,30.02,1644.0,,,144.0,,,,,0.0,0.0,,,,,,,,,,,,,,,,,,,0.0,22.0,0.0,0.0,30.0,3.4,,3.4,31.6,,,23.0,0.0,0.0,-0.4,12.7,10.5,,,,,23.0,23.0,23.0,24.0,23.0,23.0,23.0,24.0,,,23.0,254.3,,31.6,3.0,0.001,,,0.929,0.83,0.0,21.9,,,,,,0.0,2026-04-24 15:47:53-07:00
37.06,1.0,9.0,2026-04-24 22:48:30,37.08164,-121.59958,309.0,0.0,114.7,-12.6,,,,,22:48:29,10.9,-1.3,42.8,0.0,304.0,0.0,-0.02,1.0,99.0,-92.0,26.0,0.0,30.02,1644.0,,,144.0,,,,,0.0,0.0,,,,,,,,,,,,,,,,,,,0.0,22.0,0.0,0.0,30.0,3.1,,3.1,33.7,,,23.0,0.0,0.0,-0.4,12.7,10.5,,,,,23.0,23.0,23.0,24.0,23.0,23.0,23.0,24.0,,,23.0,254.3,,33.7,3.0,0.001,,,0.929,0.83,0.0,21.9,,,,,,0.0,2026-04-24 15:47:53-07:00
38.06,1.0,9.0,2026-04-24 22:48:31,37.08164,-121.59958,309.0,0.0,114.7,-12.6,,,,,22:48:30,10.9,-1.3,42.8,0.0,303.0,0.0,-0.02,1.0,99.0,-88.0,26.0,0.0,30.02,1639.0,,,144.0,,,,,0.0,0.0,,,,,,,,,,,,,,,,,,,0.0,22.0,0.0,0.0,30.0,3.1,,3.1,32.8,,,23.0,0.0,0.0,-0.4,12.7,10.5,,,,,23.0,23.0,23.0,24.0,23.0,23.0,23.0,24.0,,,23.0,254.3,,32.8,3.0,0.0,,,0.929,0.83,0.0,21.9,,,,,,0.0,2026-04-24 15:47:53-07:00
39.06,1.0,9.0,2026-04-24 22:48:32,37.08164,-121.59958,309.0,0.0,114.7,-12.6,,,,,22:48:31,10.9,-1.3,42.8,0.0,302.0,0.0,-0.02,1.0,99.0,-42.0,26.0,0.0,30.02,1640.0,,,144.0,,,,,0.0,0.0,,,,,,,,,,,,,,,,,,,0.0,22.0,0.0,0.0,30.0,3.1,,3.1,32.5,,,23.0,0.0,0.0,-0.5,12.7,10.5,,,,,23.0,23.0,23.0,24.0,23.0,23.0,23.0,24.0,,,23.0,254.3,,32.5,3.0,0.0,,,0.929,0.83,0.0,21.9,,,,,,0.0,2026-04-24 15:47:53-07:00
40.06,1.0,9.0,2026-04-24 22:48:33,37.08164,-121.59959,309.0,0.0,114.7,-12.6,,,,,22:48:32,10.9,-1.3,42.9,0.0,302.0,0.0,-0.02,1.0,99.0,9.0,26.0,0.0,30.02,1640.0,,,144.0,,,,,0.0,0.0,,,,,,,,,,,,,,,,,,,0.0,22.0,0.0,0.0,30.0,0.0,,0.0,32.3,,,23.0,0.0,0.0,-0.5,12.7,10.5,,,,,23.0,24.0,23.0,24.0,23.0,24.0,23.0,24.0,,,23.0,254.3,,32.3,3.0,0.0,,,0.929,0.83,0.0,21.9,,,,,,0.0,2026-04-24 15:47:53-07:00
41.06,1.0,9.0,2026-04-24 22:48:34,37.08164,-121.59959,309.0,0.0,114.7,-12.6,,,,,22:48:33,10.8,-1.3,42.9,0.0,302.0,0.0,-0.02,1.0,99.0,-1.0,26.0,0.0,30.02,1640.0,,,144.0,,,,,0.0,0.0,,,,,,,,,,,,,,,,,,,0.0,22.0,0.0,0.0,30.0,0.0,,0.0,32.0,,,23.0,0.0,0.0,-0.5,12.7,10.5,,,,,23.0,24.0,23.0,24.0,23.0,24.0,23.0,24.0,,,23.0,254.3,,32.0,3.0,0.0,,,0.929,0.83,0.0,21.9,,,,,,0.0,2026-04-24 15:47:53-07:00
42.06,1.0,9.0,2026-04-24 22:48:35,37.08164,-121.59959,309.0,0.1,114.7,-12.6,,,,,22:48:34,10.8,-1.3,42.9,0.0,302.0,0.0,-0.02,1.0,99.0,8.0,26.0,0.0,30.02,1648.0,,,144.0,,,,,0.0,0.0,,,,,,,,,,,,,,,,,,,0.0,22.0,0.0,0.0,30.0,0.0,,0.0,31.9,,,23.0,0.0,0.0,-0.5,12.7,10.5,,,,,23.0,24.0,23.0,24.0,23.0,24.0,23.0,24.0,,,23.0,225.0,,31.9,3.0,0.0,,,0.929,0.83,0.0,21.9,,,,,,0.0,2026-04-24 15:47:53-07:00
43.06,1.0,9.0,2026-04-24 22:48:36,37.08164,-121.59959,309.0,0.0,114.7,-12.6,,,,,22:48:35,10.8,-1.2,42.9,0.0,302.0,0.0,-0.02,1.0,99.0,-37.0,26.0,0.0,30.02,1648.0,,,144.0,,,,,0.0,0.0,,,,,,,,,,,,,,,,,,,0.0,22.0,0.0,0.0,30.0,0.0,,0.0,31.7,,,23.0,0.0,0.0,-0.5,12.7,10.5,,,,,23.0,24.0,23.0,24.0,23.0,24.0,23.0,24.0,,,23.0,175.2,,31.7,3.0,0.001,,,0.929,0.83,0.0,21.9,,,,,,0.0,2026-04-24 15:47:53-07:00
44.06,1.0,9.0,2026-04-24 22:48:37,37.08164,-121.59959,309.0,0.0,114.7,-12.6,,,,,22:48:36,10.8,-1.2,43.0,0.0,301.0,0.0,-0.02,1.0,99.0,-62.0,26.0,0.0,30.02,1648.0,,,144.0,,,,,0.0,0.0,,,,,,,,,,,,,,,,,,,0.0,22.0,0.0,0.0,30.0,0.0,,0.0,31.6,,,23.0,0.0,0.0,-0.5,12.7,10.5,,,,,23.0,24.0,23.0,24.0,23.0,24.0,23.0,24.0,,,23.0,136.4,,31.6,3.0,0.0,,,0.929,0.83,0.0,21.9,,,,,,0.0,2026-04-24 15:47:53-07:00
45.06,1.0,9.0,2026-04-24 22:48:38,37.08164,-121.59959,309.0,0.0,114.7,-12.6,,,,,22:48:37,10.9,-1.3,42.9,0.0,300.0,0.1,-0.02,1.0,99.0,-52.0,26.0,0.0,30.02,1647.0,,,144.0,,,,,0.0,0.0,,,,,,,,,,,,,,,,,,,0.0,22.0,0.0,0.0,30.0,0.0,,0.0,31.4,,,23.0,0.0,0.0,-0.5,12.7,10.5,,,,,23.0,24.0,23.0,24.0,23.0,24.0,23.0,24.0,,,23.0,106.2,,31.4,3.0,0.0,,,0.929,0.83,0.0,21.9,,,,,,0.0,2026-04-24 15:47:53-07:00
46.06,1.0,9.0,2026-04-24 22:48:39,37.08164,-121.59959,309.0,0.0,114.7,-12.6,,,,,22:48:38,10.9,-1.3,42.9,0.0,300.0,0.0,-0.02,1.0,99.0,-26.0,26.0,0.0,30.02,1647.0,,,144.0,,,,,0.0,0.0,,,,,,,,,,,,,,,,,,,0.0,22.0,0.0,0.0,30.0,0.0,,0.0,31.2,,,23.0,0.0,0.0,-0.5,12.7,10.5,,,,,23.0,24.0,23.0,24.0,23.0,24.0,23.0,24.0,,,23.0,82.8,,31.2,3.0,0.0,,,0.929,0.83,0.0,21.9,,,,,,0.0,2026-04-24 15:47:53-07:00
47.06,1.0,9.0,2026-04-24 22:48:40,37.08164,-121.59959,309.0,0.0,114.7,-12.6,,,,,22:48:39,10.9,-1.3,42.9,0.0,300.0,0.0,-0.02,1.0,99.0,6.0,26.0,0.0,30.02,1647.0,,,144.0,,,,,0.0,0.0,,,,,,,,,,,,,,,,,,,0.0,22.0,0.0,0.0,30.0,0.0,,0.0,31.2,,,23.0,0.0,0.0,-0.5,12.7,10.5,,,,,23.0,24.0,23.0,24.0,23.0,24.0,23.0,24.0,,,23.0,64.5,,31.2,3.0,0.0,,,0.929,0.83,0.0,21.9,,,,,,0.0,2026-04-24 15:47:53-07:00
48.06,1.0,9.0,2026-04-24 22:48:41,37.08164,-121.59959,309.0,0.1,114.7,-12.6,,,,,22:48:40,10.9,-1.3,42.8,0.0,300.0,0.1,-0.02,1.0,99.0,22.0,26.0,0.0,30.02,1646.0,,,144.0,,,,,0.0,0.0,,,,,,,,,,,,,,,,,,,0.0,22.0,0.0,0.0,30.0,0.0,,0.0,31.1,,,23.0,0.0,0.0,-0.5,12.7,10.5,,,,,23.0,24.0,23.0,24.0,23.0,24.0,23.0,24.0,,,23.0,50.4,,31.1,3.0,0.0,,,1.085,0.841,0.0,21.9,,,,,,0.0,2026-04-24 15:47:53-07:00
49.06,1.0,9.0,2026-04-24 22:48:42,37.08164,-121.59959,309.0,0.0,114.7,-12.6,,,,,22:48:41,10.9,-1.3,42.8,0.0,300.0,0.0,-0.02,1.0,99.0,39.0,26.0,0.0,30.02,1646.0,,,144.0,,,,,0.0,0.0,,,,,,,,,,,,,,,,,,,0.0,22.0,0.0,0.0,30.0,0.0,,0.0,30.9,,,23.0,0.0,0.0,-0.5,12.7,10.5,,,,,23.0,24.0,23.0,24.0,23.0,24.0,23.0,24.0,,,23.0,39.4,,30.9,3.0,0.0,,,1.064,0.874,0.0,21.9,,,,,,0.0,2026-04-24 15:47:53-07:00
50.06,1.0,9.0,2026-04-24 22:48:43,37.08164,-121.59959,309.0,0.0,114.7,-12.6,,,,,22:48:42,10.9,-1.3,42.8,0.0,300.0,0.0,-0.02,1.0,99.0,35.0,26.0,0.0,30.02,1647.0,,,144.0,,,,,0.0,0.0,,,,,,,,,,,,,,,,,,,0.0,22.0,0.0,0.0,30.0,0.0,,0.0,30.8,,,23.0,0.0,0.0,-0.5,12.7,10.5,,,,,23.0,24.0,23.0,24.0,23.0,24.0,23.0,24.0,,,23.0,30.8,,30.8,3.0,0.0,,,0.952,0.879,0.0,21.9,,,,,,0.0,2026-04-24 15:47:53-07:00
51.06,1.0,9.0,2026-04-24 22:48:44,37.08164,-121.59959,309.0,0.0,114.7,-12.6,,,,,22:48:43,11.0,-1.2,42.8,0.0,300.0,0.0,-0.02,1.0,99.0,21.0,26.0,0.0,30.02,1647.0,,,144.0,,,,,0.0,0.0,,,,,,,,,,,,,,,,,,,0.0,22.0,0.0,0.0,30.0,0.0,,0.0,30.7,,,23.0,0.0,0.0,-0.5,12.7,10.5,,,,,23.0,24.0,23.0,24.0,23.0,24.0,23.0,24.0,,,23.0,24.2,,30.7,3.0,0.0,,,0.929,0.84,0.0,21.9,,,,,,0.0,2026-04-24 15:47:53-07:00
52.06,1.0,9.0,2026-04-24 22:48:45,37.08164,-121.59959,309.0,0.0,114.7,-12.6,,,,,22:48:44,10.9,-1.3,42.8,0.0,300.0,0.0,-0.02,1.0,99.0,24.0,26.0,0.0,30.02,1647.0,,,144.0,,,,,0.0,0.0,,,,,,,,,,,,,,,,,,,0.0,22.0,0.0,0.0,30.0,0.0,,0.0,30.6,,,23.0,0.0,0.0,-0.5,12.7,10.5,,,,,23.0,24.0,23.0,24.0,23.0,24.0,23.0,24.0,,,23.0,19.0,,30.6,3.0,0.0,,,0.929,0.834,0.0,21.9,,,,,,0.0,2026-04-24 15:47:53-07:00
53.06,1.0,9.0,2026-04-24 22:48:46,37.08164,-121.59959,309.0,0.0,114.7,-12.6,,,,,22:48:45,10.9,-1.3,42.8,0.0,300.0,0.0,-0.02,1.0,99.0,18.0,26.0,0.0,30.02,1657.0,,,144.0,,,,,0.0,0.0,,,,,,,,,,,,,,,,,,,0.0,22.0,0.0,0.0,30.0,0.0,,0.0,30.4,,,23.0,0.0,0.0,-0.4,12.7,10.5,,,,,23.0,24.0,23.0,24.0,23.0,24.0,23.0,24.0,,,23.0,15.0,,30.4,3.0,0.0,,,0.929,0.85,0.0,21.9,,,,,,0.0,2026-04-24 15:47:53-07:00
54.06,1.0,9.0,2026-04-24 22:48:47,37.08164,-121.59959,309.0,0.0,114.7,-12.6,,,,,22:48:46,11.0,-1.3,42.7,0.0,300.0,0.1,-0.02,1.0,99.0,2.0,26.0,0.0,30.02,1657.0,,,144.0,,,,,0.0,0.0,,,,,,,,,,,,,,,,,,,0.0,22.0,0.0,0.0,30.0,0.0,,0.0,30.3,,,23.0,0.0,0.0,-0.4,12.7,10.5,,,,,23.0,24.0,23.0,24.0,23.0,24.0,23.0,24.0,,,23.0,11.9,,30.3,3.0,0.0,,,0.929,0.846,0.0,21.9,,,,,,0.0,2026-04-24 15:47:53-07:00
55.06,1.0,9.0,2026-04-24 22:48:48,37.08164,-121.59959,309.0,0.0,114.7,-12.6,,,,,22:48:47,10.9,-1.3,42.7,0.0,300.0,0.0,-0.02,1.0,99.0,-5.0,26.0,0.0,30.02,1657.0,,,144.0,,,,,0.0,0.0,,,,,,,,,,,,,,,,,,,0.0,22.0,0.0,0.0,30.0,0.0,,0.0,30.2,,,23.0,0.0,0.0,-0.4,12.7,10.5,,,,,23.0,24.0,23.0,24.0,23.0,24.0,23.0,24.0,,,23.0,9.4,,30.2,3.0,0.0,,,0.929,0.861,0.0,21.9,,,,,,0.0,2026-04-24 15:47:53-07:00
56.06,1.0,9.0,2026-04-24 22:48:49,37.08164,-121.59959,307.0,0.0,114.7,-12.6,,,,,22:48:48,10.9,-1.3,42.7,0.0,300.0,0.0,-0.02,1.0,99.0,-18.0,26.0,0.0,30.02,1657.0,,,144.0,,,,,0.0,0.0,,,,,,,,,,,,,,,,,,,0.0,22.0,0.0,0.0,30.0,0.0,,0.0,30.1,,,23.0,0.0,0.0,-0.4,12.7,10.5,,,,,23.0,24.0,23.0,24.0,23.0,24.0,23.0,24.0,,,23.0,7.5,,30.1,3.0,0.0,,,0.929,0.852,0.0,21.9,,,,,,0.0,2026-04-24 15:47:53-07:00
57.06,1.0,9.0,2026-04-24 22:48:50,37.08164,-121.59959,307.0,0.1,114.7,-12.6,,,,,22:48:49,10.9,-1.3,42.7,0.0,300.0,0.0,-0.02,1.0,99.0,-9.0,26.0,0.0,30.02,1657.0,,,144.0,,,,,0.0,0.0,,,,,,,,,,,,,,,,,,,0.0,22.0,0.0,0.0,30.0,0.0,,0.0,30.0,,,23.0,0.0,0.0,-0.4,12.7,10.5,,,,,23.0,24.0,23.0,24.0,23.0,24.0,23.0,24.0,,,23.0,6.1,,30.0,3.0,0.001,,,0.929,0.84,0.0,21.9,,,,,,0.0,2026-04-24 15:47:53-07:00
58.06,1.0,9.0,2026-04-24 22:48:51,37.08164,-121.59959,307.0,0.0,114.7,-12.6,,,,,22:48:50,10.9,-1.3,42.7,0.0,300.0,0.0,-0.02,1.0,99.0,3.0,26.0,0.0,30.02,1657.0,,,144.0,,,,,0.0,0.0,,,,,,,,,,,,,,,,,,,0.0,22.0,0.0,0.0,30.0,0.0,,0.0,29.9,,,23.0,0.0,0.0,-0.4,12.7,10.5,,,,,23.0,24.0,23.0,24.0,23.0,24.0,23.0,24.0,,,23.0,4.9,,29.9,3.0,0.0,,,0.929,0.837,0.0,21.9,,,,,,0.0,2026-04-24 15:47:53-07:00
59.06,1.0,9.0,2026-04-24 22:48:52,37.08164,-121.59959,307.0,0.0,114.7,-12.6,,,,,22:48:51,10.9,-1.3,42.7,0.0,300.0,0.0,-0.02,1.0,99.0,2.0,26.0,0.0,30.02,1657.0,,,144.0,,,,,0.0,0.0,,,,,,,,,,,,,,,,,,,0.0,22.0,0.0,0.0,30.0,0.0,,0.0,29.8,,,23.0,0.0,0.0,-0.4,12.7,10.5,,,,,23.0,24.0,23.0,24.0,23.0,24.0,23.0,24.0,,,23.0,4.1,,29.8,3.0,0.0,,,0.929,0.835,0.0,21.9,,,,,,0.0,2026-04-24 15:47:53-07:00
60.06,1.0,9.0,2026-04-24 22:48:53,37.08164,-121.59959,307.0,0.0,114.7,-12.6,,,,,22:48:52,10.9,-1.3,42.7,0.0,300.0,0.0,-0.02,1.0,99.0,11.0,26.0,0.0,30.02,1658.0,,,144.0,,,,,0.0,0.0,,,,,,,,,,,,,,,,,,,0.0,22.0,0.0,0.0,30.0,0.0,,0.0,29.7,,,23.0,0.0,0.0,-0.4,12.7,10.5,,,,,23.0,24.0,23.0,24.0,23.0,24.0,23.0,24.0,,,23.0,3.4,,29.7,3.0,0.0,,,0.93,0.834,0.0,21.9,,,,,,0.0,2026-04-24 15:47:53-07:00
61.06,1.0,9.0,2026-04-24 22:48:54,37.08164,-121.59959,307.0,0.0,114.7,-12.6,,,,,22:48:53,10.9,-1.3,42.7,0.0,300.0,0.0,-0.02,1.0,99.0,-6.0,26.0,0.0,30.02,1658.0,,,144.0,,,,,0.0,0.0,,,,,,,,,,,,,,,,,,,0.0,22.0,0.0,0.0,30.0,0.0,,0.0,29.6,,,23.0,0.0,0.0,-0.4,12.7,10.5,,,,,23.0,24.0,23.0,24.0,23.0,24.0,23.0,24.0,,,23.0,2.8,,29.6,3.0,0.0,,,0.93,0.834,0.0,21.9,,,,,,0.0,2026-04-24 15:47:53-07:00
62.06,1.0,9.0,2026-04-24 22:48:55,37.08164,-121.59959,307.0,0.0,114.7,-12.6,,,,,22:48:54,10.9,-1.3,42.7,0.0,300.0,0.0,-0.02,1.0,99.0,-22.0,26.0,0.0,30.02,1658.0,,,144.0,,,,,0.0,0.0,,,,,,,,,,,,,,,,,,,0.0,22.0,0.0,0.0,30.0,0.0,,0.0,29.5,,,23.0,0.0,0.0,-0.4,12.7,10.5,,,,,23.0,24.0,23.0,24.0,23.0,24.0,23.0,24.0,,,23.0,2.4,,29.5,3.0,0.0,,,0.929,0.833,0.0,21.9,,,,,,0.0,2026-04-24 15:47:53-07:00
63.06,1.0,9.0,2026-04-24 22:48:56,37.08164,-121.59959,307.0,0.0,114.7,-12.6,,,,,22:48:55,10.9,-1.3,42.7,0.0,300.0,0.0,-0.02,1.0,99.0,-64.0,26.0,0.0,30.02,1666.0,,,144.0,,,,,0.0,0.0,,,,,,,,,,,,,,,,,,,0.0,22.0,0.0,0.0,30.0,0.0,,0.0,29.4,,,23.0,0.0,0.0,-0.4,12.7,10.5,,,,,23.0,24.0,23.0,24.0,23.0,24.0,24.0,24.0,,,23.0,2.1,,29.4,3.0,0.0,,,0.929,0.833,0.0,21.9,,,,,,0.0,2026-04-24 15:47:53-07:00
64.06,1.0,9.0,2026-04-24 22:48:57,37.08164,-121.5996,307.0,0.0,114.7,-12.6,,,,,22:48:56,10.9,-1.3,42.7,0.0,299.0,0.0,-0.02,1.0,99.0,-82.0,26.0,0.0,30.02,1666.0,,,144.0,,,,,0.0,0.0,,,,,,,,,,,,,,,,,,,0.0,22.0,0.0,0.0,30.0,0.0,,0.0,29.4,,,23.0,0.0,0.0,-0.4,12.7,10.5,,,,,23.0,24.0,23.0,24.0,23.0,24.0,24.0,24.0,,,23.0,1.8,,29.4,3.0,0.0,,,0.93,0.83,0.0,21.9,,,,,,0.0,2026-04-24 15:47:53-07:00
65.06,1.0,9.0,2026-04-24 22:48:58,37.08164,-121.5996,307.0,0.0,114.7,-12.6,,,,,22:48:57,10.9,-1.3,42.8,0.0,299.0,0.0,-0.02,1.0,99.0,-82.0,26.0,0.0,30.02,1666.0,,,144.0,,,,,0.0,0.0,,,,,,,,,,,,,,,,,,,0.0,22.0,0.0,0.0,30.0,0.0,,0.0,29.3,,,23.0,0.0,0.0,-0.4,12.7,10.5,,,,,23.0,24.0,23.0,24.0,23.0,24.0,24.0,24.0,,,23.0,1.7,,29.3,3.0,0.0,,,0.93,0.83,0.0,21.9,,,,,,0.0,2026-04-24 15:47:53-07:00
66.06,1.0,9.0,2026-04-24 22:48:59,37.08164,-121.5996,307.0,0.0,114.7,-12.6,,,,,22:48:58,10.9,-1.3,42.7,0.0,296.0,0.0,-0.02,1.0,99.0,-115.0,26.0,0.0,30.02,1663.0,,,144.0,,,,,0.0,0.0,,,,,,,,,,,,,,,,,,,0.0,22.0,0.0,0.0,30.0,0.0,,0.0,29.2,,,23.0,0.0,0.0,-0.4,12.7,10.5,,,,,23.0,24.0,23.0,24.0,23.0,24.0,24.0,24.0,,,23.0,1.5,,29.2,3.0,0.0,,,0.929,0.831,0.0,21.9,,,,,,0.0,2026-04-24 15:47:53-07:00
67.06,1.0,9.0,2026-04-24 22:49:00,37.08164,-121.5996,307.0,0.0,114.7,-12.6,,,,,22:48:59,10.9,-1.3,42.7,0.0,294.0,0.0,-0.02,1.0,99.0,-108.0,26.0,0.0,30.02,1663.0,,,144.0,,,,,0.0,0.0,,,,,,,,,,,,,,,,,,,0.0,22.0,0.0,0.0,30.0,0.0,,0.0,29.1,,,23.0,0.0,0.0,-0.4,12.7,10.5,,,,,23.0,24.0,23.0,24.0,23.0,24.0,24.0,24.0,,,23.0,1.4,,29.1,3.0,0.0,,,0.93,0.831,0.0,21.9,,,,,,0.0,2026-04-24 15:47:53-07:00
68.06,1.0,9.0,2026-04-24 22:49:01,37.08165,-121.59961,309.0,0.0,114.7,-12.6,,,,,22:49:00,10.9,-1.3,42.7,0.0,294.0,0.0,-0.02,1.0,99.0,-78.0,26.0,0.0,30.02,1663.0,,,144.0,,,,,0.0,0.0,,,,,,,,,,,,,,,,,,,0.0,22.0,0.0,0.0,30.0,0.0,,0.0,29.0,,,23.0,0.0,0.0,-0.4,12.7,10.5,,,,,23.0,24.0,23.0,24.0,23.0,24.0,24.0,24.0,,,23.0,1.3,,29.0,3.0,0.0,,,0.93,0.831,0.0,21.9,,,,,,0.0,2026-04-24 15:47:53-07:00
69.06,1.0,9.0,2026-04-24 22:49:02,37.08165,-121.59961,309.0,0.0,114.7,-12.6,,,,,22:49:01,10.9,-1.2,42.6,0.0,293.0,-0.0,-0.02,1.0,99.0,-50.0,26.0,0.0,30.02,1658.0,,,144.0,,,,,0.0,0.0,,,,,,,,,,,,,,,,,,,0.0,22.0,0.0,0.0,30.0,0.0,,0.0,28.9,,,23.0,0.0,0.0,-0.4,12.7,10.5,,,,,23.0,24.0,23.0,24.0,23.0,24.0,23.0,24.0,,,23.0,1.2,,28.9,3.0,0.0,,,0.93,0.831,0.0,21.9,,,,,,0.0,2026-04-24 15:47:53-07:00
70.06,1.0,9.0,2026-04-24 22:49:03,37.08165,-121.59961,309.0,0.0,114.7,-12.6,,,,,22:49:02,10.9,-1.3,42.7,0.0,293.0,-0.0,-0.02,1.0,99.0,-40.0,26.0,0.0,30.02,1659.0,,,144.0,,,,,0.0,0.0,,,,,,,,,,,,,,,,,,,0.0,22.0,0.0,0.0,30.0,0.0,,0.0,28.8,,,23.0,0.0,0.0,-0.4,12.7,10.5,,,,,23.0,24.0,23.0,24.0,23.0,24.0,24.0,24.0,,,23.0,1.2,,28.8,3.0,0.0,,,0.929,0.831,0.0,21.9,,,,,,0.0,2026-04-24 15:47:53-07:00
71.06,1.0,9.0,2026-04-24 22:49:04,37.08165,-121.59961,309.0,0.0,114.7,-12.6,,,,,22:49:03,10.9,-1.2,42.7,0.0,293.0,0.0,-0.02,1.0,99.0,-8.0,26.0,0.0,30.02,1659.0,,,144.0,,,,,0.0,0.0,,,,,,,,,,,,,,,,,,,0.0,22.0,0.0,0.0,30.0,0.0,,0.0,28.7,,,23.0,0.0,0.0,-0.4,12.7,10.5,,,,,23.0,24.0,23.0,24.0,23.0,24.0,24.0,24.0,,,23.0,1.1,,28.7,3.0,0.0,,,0.929,0.831,0.0,21.9,,,,,,0.0,2026-04-24 15:47:53-07:00
72.06,1.0,9.0,2026-04-24 22:49:05,37.08165,-121.59961,309.0,0.0,114.7,-12.6,,,,,22:49:04,10.9,-1.2,42.8,0.0,293.0,0.1,-0.02,1.0,99.0,25.0,26.0,0.0,30.02,1659.0,,,144.0,,,,,0.0,0.0,,,,,,,,,,,,,,,,,,,0.0,22.0,0.0,0.0,30.0,0.0,,0.0,28.7,,,23.0,0.0,0.0,-0.4,12.7,10.5,,,,,23.0,24.0,23.0,24.0,23.0,24.0,23.0,24.0,,,23.0,1.1,,28.7,3.0,0.0,,,0.93,0.831,0.0,21.9,,,,,,0.0,2026-04-24 15:47:53-07:00
73.06,1.0,9.0,2026-04-24 22:49:06,37.08165,-121.59961,309.0,0.1,114.7,-12.6,,,,,22:49:05,11.0,-1.2,42.8,0.0,293.0,0.1,-0.02,1.0,99.0,20.0,26.0,0.0,30.02,1668.0,,,144.0,,,,,0.0,0.0,,,,,,,,,,,,,,,,,,,0.0,22.0,0.0,0.0,30.0,0.0,,0.0,28.6,,,23.0,0.0,0.0,-0.4,12.7,10.5,,,,,23.0,24.0,23.0,24.0,23.0,24.0,24.0,24.0,,,23.0,1.1,,28.6,3.0,0.0,,,0.93,0.83,0.0,21.9,,,,,,0.0,2026-04-24 15:47:53-07:00
74.06,1.0,9.0,2026-04-24 22:49:07,37.08165,-121.59961,309.0,0.0,114.7,-12.6,,,,,22:49:06,10.9,-1.2,42.8,0.0,293.0,0.0,-0.02,1.0,99.0,-5.0,26.0,0.0,30.02,1668.0,,,144.0,,,,,0.0,0.0,,,,,,,,,,,,,,,,,,,0.0,22.0,0.0,0.0,30.0,0.0,,0.0,28.5,,,23.0,0.0,0.0,-0.4,12.7,10.5,,,,,23.0,24.0,23.0,24.0,23.0,24.0,23.0,24.0,,,24.0,1.0,,28.5,3.0,0.0,,,0.93,0.834,0.0,21.9,,,,,,0.0,2026-04-24 15:47:53-07:00
75.06,1.0,9.0,2026-04-24 22:49:08,37.08165,-121.59961,309.0,0.0,114.7,-12.6,,,,,22:49:07,10.9,-1.2,42.8,0.0,293.0,0.0,-0.02,1.0,99.0,-31.0,26.0,0.0,30.02,1668.0,,,144.0,,,,,0.0,0.0,,,,,,,,,,,,,,,,,,,0.0,22.0,0.0,0.0,30.0,0.0,,0.0,28.4,,,23.0,0.0,0.0,-0.4,12.7,10.5,,,,,23.0,24.0,23.0,24.0,23.0,24.0,23.0,24.0,,,24.0,1.0,,28.4,3.0,0.0,,,0.93,0.833,0.0,21.9,,,,,,0.0,2026-04-24 15:47:53-07:00
76.06,1.0,9.0,2026-04-24 22:49:09,37.08165,-121.59961,309.0,0.0,114.7,-12.6,,,,,22:49:08,10.9,-1.2,42.8,0.0,292.0,0.0,-0.02,1.0,99.0,-65.0,26.0,0.0,30.02,1668.0,,,144.0,,,,,0.0,0.0,,,,,,,,,,,,,,,,,,,0.0,22.0,0.0,0.0,30.0,0.0,,0.0,28.3,,,23.0,0.0,0.0,-0.4,12.7,10.5,,,,,23.0,24.0,23.0,24.0,23.0,24.0,23.0,24.0,,,24.0,1.0,,28.3,3.0,0.0,,,0.93,0.83,0.0,21.9,,,,,,0.0,2026-04-24 15:47:53-07:00
77.06,1.0,9.0,2026-04-24 22:49:10,37.08165,-121.59961,309.0,0.0,114.7,-12.6,,,,,22:49:09,11.0,-1.2,42.8,0.0,291.0,0.0,-0.02,1.0,99.0,-56.0,26.0,0.0,30.02,1668.0,,,144.0,,,,,0.0,0.0,,,,,,,,,,,,,,,,,,,0.0,22.0,0.0,0.0,30.0,0.0,,0.0,28.3,,,23.0,0.0,0.0,-0.4,12.7,10.5,,,,,23.0,24.0,23.0,24.0,23.0,24.0,23.0,24.0,,,24.0,1.0,,28.3,3.0,0.001,,,0.93,0.831,0.0,21.9,,,,,,0.0,2026-04-24 15:47:53-07:00
78.06,1.0,9.0,2026-04-24 22:49:11,37.08165,-121.59961,309.0,0.0,114.7,-12.6,,,,,22:49:10,10.9,-1.2,42.8,0.0,291.0,0.0,-0.02,1.0,99.0,-22.0,26.0,0.0,30.02,1668.0,,,144.0,,,,,0.0,0.0,,,,,,,,,,,,,,,,,,,0.0,22.0,0.0,0.0,30.0,0.0,,0.0,28.2,,,23.0,0.0,0.0,-0.4,12.7,10.5,,,,,23.0,24.0,23.0,24.0,23.0,24.0,23.0,24.0,,,24.0,1.0,,28.2,3.0,0.0,,,0.93,0.831,0.0,21.9,,,,,,0.0,2026-04-24 15:47:53-07:00
79.06,1.0,9.0,2026-04-24 22:49:12,37.08165,-121.59961,309.0,0.0,114.7,-12.6,,,,,22:49:11,10.9,-1.2,42.8,0.0,291.0,0.0,-0.02,1.0,99.0,-4.0,26.0,0.0,30.02,1667.0,,,144.0,,,,,0.0,0.0,,,,,,,,,,,,,,,,,,,0.0,22.0,0.0,0.0,30.0,0.0,,0.0,28.1,,,23.0,0.0,0.0,-0.4,12.7,10.5,,,,,23.0,24.0,23.0,24.0,23.0,24.0,24.0,24.0,,,24.0,1.0,,28.1,3.0,0.0,,,0.929,0.831,0.0,21.7,,,,,,0.0,2026-04-24 15:47:53-07:00
80.06,1.0,9.0,2026-04-24 22:49:13,37.08165,-121.59961,309.0,0.0,114.7,-12.6,,,,,22:49:12,10.9,-1.2,42.7,0.0,291.0,-0.0,-0.02,1.0,99.0,18.0,26.0,0.0,30.02,1667.0,,,144.0,,,,,0.0,0.0,,,,,,,,,,,,,,,,,,,0.0,20.0,164.0,164.0,29.7,0.0,,0.0,28.2,,,23.0,0.0,0.0,-0.4,12.7,10.5,,,,,22.0,31.0,22.0,23.0,22.0,23.0,23.0,23.0,,,24.0,1.0,,28.2,3.0,0.0,,,0.929,0.853,0.2,19.5,,,,,,164.0,2026-04-24 15:47:53-07:00
81.06,1.0,9.0,2026-04-24 22:49:14,37.08165,-121.59961,309.0,0.0,114.7,-12.6,,,,,22:49:13,10.9,-1.2,42.7,0.0,291.0,-0.0,-0.02,1.0,99.0,16.0,26.0,0.0,30.02,1667.0,,,144.0,,,,,0.0,0.0,,,,,,,,,,,,,,,,,,,1.0,22.0,704.0,704.0,24.8,0.9,,0.9,24.2,,,23.0,0.0,0.0,-0.3,12.7,10.5,,,,,23.0,62.0,23.0,46.0,23.0,53.0,24.0,54.0,,,24.0,1.0,,24.2,3.0,0.001,,,0.931,0.864,1.5,21.6,,,,,,704.0,2026-04-24 15:47:53-07:00
82.06,1.0,9.0,2026-04-24 22:49:15,37.08165,-121.59961,309.0,0.0,114.7,-12.6,,,,,22:49:14,10.9,-1.2,42.8,0.0,291.0,0.0,-0.01,0.9,99.0,114.0,26.0,0.0,30.02,1676.0,,,144.0,,,,,0.0,0.0,,,,,,,,,,,,,,,,,,,4.0,22.0,843.0,843.0,22.0,2.0,,2.0,24.5,,,23.0,0.0,0.0,-0.3,12.7,10.5,,,,,23.0,87.0,23.0,72.0,23.0,102.0,24.0,101.0,,,24.0,1.0,,24.5,3.0,0.0,,,1.071,0.858,4.3,21.9,,,7.0,R,,843.0,2026-04-24 15:47:53-07:00
83.06,1.0,9.0,2026-04-24 22:49:16,37.08165,-121.59962,309.0,0.0,114.7,-12.6,,,,,22:49:15,11.0,-1.2,42.8,0.0,291.0,0.0,-0.02,1.0,99.0,83.0,26.0,0.0,30.02,1676.0,,,144.0,,,,,0.0,0.0,,,,,,,,,,,,,,,,,,,8.0,22.0,951.0,951.0,20.3,2.8,,2.8,24.8,,,23.0,0.0,0.0,-0.4,12.7,10.5,,,,,24.0,116.0,24.0,99.0,24.0,154.0,24.0,143.0,,,24.0,1.0,,24.8,3.0,0.0,,,1.014,0.858,8.4,21.9,,,,,,951.0,2026-04-24 15:47:53-07:00
84.06,1.0,9.0,2026-04-24 22:49:17,37.08165,-121.59962,309.0,0.0,114.7,-12.6,,,,,22:49:16,10.9,-1.1,42.8,0.0,291.0,-0.0,-0.02,1.0,99.0,100.0,26.0,0.0,30.02,1676.0,,,144.0,,,,,0.0,0.0,,,,,,,,,,,,,,,,,,,14.0,22.0,928.0,928.0,18.7,3.3,,3.3,24.9,,,23.0,0.0,0.0,-0.4,12.7,10.5,,,,,24.0,144.0,24.0,117.0,24.0,193.0,25.0,184.0,,,24.0,1.0,,24.9,3.0,0.0,,,0.94,0.876,14.0,21.9,,,,,,928.0,2026-04-24 15:47:53-07:00
85.06,1.0,9.0,2026-04-24 22:49:18,37.08165,-121.59962,309.0,0.0,114.7,-12.6,,,,,22:49:17,10.9,-1.1,42.9,0.0,291.0,0.0,-0.02,1.0,99.0,61.0,26.0,0.0,30.02,1677.0,,,144.0,,,,,0.0,0.0,,,,,,,,,,,,,,,,,,,22.0,22.0,945.0,945.0,18.3,3.5,,3.5,25.0,,,23.0,0.0,0.0,-0.3,12.7,10.5,,,,,24.0,176.0,24.0,140.0,24.0,226.0,25.0,218.0,,,24.0,1.0,,25.0,3.0,0.0,,,0.924,0.854,21.6,21.9,,,,,,945.0,2026-04-24 15:47:53-07:00
86.06,1.0,9.0,2026-04-24 22:49:19,37.08165,-121.59962,306.0,0.0,114.7,-12.6,,,,,22:49:18,10.8,-1.2,43.0,0.0,291.0,0.0,-0.02,1.0,99.0,61.0,26.0,0.0,30.02,1677.0,,,144.0,,,,,0.0,0.0,,,,,,,,,,,,,,,,,,,32.0,22.0,989.0,989.0,17.4,3.7,,3.7,25.3,,,23.0,0.0,0.0,-0.3,12.7,10.5,,,,,24.0,201.0,24.0,160.0,25.0,258.0,26.0,250.0,,,24.0,0.0,,25.3,3.0,0.0,,,0.928,0.839,32.2,21.9,,,,,,989.0,2026-04-24 15:47:53-07:00
87.06,1.0,9.0,2026-04-24 22:49:20,37.08165,-121.59962,306.0,0.0,114.7,-12.6,,,,,22:49:19,10.8,-1.1,43.0,0.0,293.0,0.0,-0.02,1.0,99.0,38.0,26.0,0.0,30.02,1679.0,,,144.0,,,,,0.0,0.0,,,,,,,,,,,,,,,,,,,46.0,22.0,1022.0,1022.0,16.7,3.7,,3.7,25.4,,,23.0,0.0,0.0,-0.3,12.7,10.5,,,,,24.0,232.0,24.0,181.0,25.0,287.0,26.0,277.0,,,24.0,0.0,,25.4,3.0,0.0,,,0.929,0.854,45.6,21.9,,,,,,1022.0,2026-04-24 15:47:53-07:00
88.06,1.0,9.0,2026-04-24 22:49:21,37.08165,-121.59962,306.0,0.0,114.7,-12.6,,,,,22:49:20,10.9,-1.2,42.9,0.0,293.0,0.0,-0.02,1.0,99.0,46.0,26.0,0.0,30.02,1679.0,,,144.0,,,,,0.0,0.0,,,,,,,,,,,,,,,,,,,59.0,22.0,1070.0,1070.0,15.9,3.6,,3.6,25.5,,,23.0,0.0,0.0,-0.3,12.7,10.5,,,,,25.0,269.0,24.0,209.0,25.0,315.0,27.0,303.0,,,24.0,0.0,,25.5,3.0,0.0,,,0.933,0.857,59.3,21.8,,,,,,1070.0,2026-04-24 15:47:53-07:00
89.06,1.0,9.0,2026-04-24 22:49:22,37.08165,-121.59962,306.0,0.0,114.7,-12.6,,,,,22:49:21,10.9,-1.2,42.9,0.0,293.0,-0.0,-0.02,1.0,99.0,31.0,26.0,0.0,30.02,1679.0,,,144.0,,,,,0.0,0.0,,,,,,,,,,,,,,,,,,,69.0,22.0,1071.0,1071.0,15.4,3.5,,3.5,25.5,,,23.0,0.0,0.0,-0.3,12.7,10.5,,,,,25.0,299.0,25.0,250.0,25.0,340.0,27.0,328.0,,,24.0,0.0,,25.5,3.0,0.0,,,0.934,0.852,69.0,21.8,,,,,,1071.0,2026-04-24 15:47:53-07:00
90.06,1.0,9.0,2026-04-24 22:49:23,37.08165,-121.59962,306.0,0.0,114.7,-12.6,,,,,22:49:22,10.9,-1.2,42.9,0.0,294.0,-0.0,-0.02,1.0,99.0,1.0,26.0,0.0,30.02,1680.0,,,144.0,,,,,0.0,0.0,,,,,,,,,,,,,,,,,,,74.0,22.0,1063.0,1063.0,14.9,3.4,,3.4,25.6,,,23.0,0.0,0.0,-0.3,12.7,10.5,,,,,25.0,325.0,25.0,287.0,26.0,362.0,28.0,350.0,,,24.0,0.0,,25.6,3.0,0.0,,,0.95,0.846,73.9,21.8,,,,,,1063.0,2026-04-24 15:47:53-07:00
91.06,1.0,9.0,2026-04-24 22:49:24,37.08165,-121.59962,306.0,0.1,114.7,-12.6,,,,,22:49:23,10.9,-1.2,42.9,0.0,294.0,0.0,-0.03,1.0,99.0,-5.0,26.0,0.0,30.02,1691.0,,,144.0,,,,,0.0,0.0,,,,,,,,,,,,,,,,,,,75.0,22.0,1046.0,1046.0,14.6,3.3,,3.3,25.6,,,23.0,0.0,0.0,-0.3,12.7,10.5,,,,,25.0,347.0,25.0,319.0,26.0,380.0,28.0,370.0,,,24.0,0.0,,25.6,3.0,0.0,,,0.93,0.837,75.3,21.8,,,,,,1046.0,2026-04-24 15:47:53-07:00
92.06,1.0,9.0,2026-04-24 22:49:25,37.08165,-121.59962,306.0,0.0,114.7,-12.6,,,,,22:49:24,11.0,-1.2,42.8,0.0,294.0,-0.0,-0.02,1.0,99.0,32.0,26.0,0.0,30.02,1691.0,,,144.0,,,,,0.0,0.0,,,,,,,,,,,,,,,,,,,75.0,23.0,999.0,999.0,14.5,3.2,,3.2,25.6,,,23.0,0.0,0.0,10.0,12.7,10.5,,,,,27.0,366.0,26.0,345.0,27.0,397.0,29.0,388.0,,,24.0,0.0,,25.6,3.0,0.001,,,0.934,0.839,75.4,23.0,,,,,,999.0,2026-04-24 15:47:53-07:00
93.06,1.0,9.0,2026-04-24 22:49:26,37.08165,-121.59962,306.0,0.0,114.7,-12.6,,,,,22:49:25,11.0,-1.2,42.7,0.0,294.0,-0.0,-0.02,1.0,99.0,-18.0,26.0,0.0,30.02,1691.0,,,144.0,,,,,0.0,0.0,,,,,,,,,,,,,,,,,,,75.0,23.0,997.0,997.0,14.6,3.2,,3.2,25.6,,,23.0,0.0,0.0,30.9,12.7,10.5,,,,,27.0,382.0,27.0,365.0,28.0,409.0,30.0,403.0,,,24.0,0.0,,25.6,3.0,0.001,,,0.93,0.848,74.9,23.0,,,,,,997.0,2026-04-24 15:47:53-07:00
94.06,1.0,9.0,2026-04-24 22:49:27,37.08165,-121.59962,306.0,0.0,114.7,-12.6,,,,,22:49:26,11.0,-1.2,42.6,0.0,294.0,-0.0,-0.02,1.0,99.0,-40.0,26.0,0.0,30.02,1700.0,,,144.0,,,,,0.0,0.0,,,,,,,,,,,,,,,,,,,75.0,23.0,986.0,986.0,14.6,3.1,,3.1,25.6,,,23.0,0.0,0.0,43.3,12.7,10.5,,,,,27.0,395.0,27.0,382.0,28.0,420.0,30.0,415.0,,,24.0,0.0,,25.6,3.0,0.001,,,0.93,0.842,74.6,23.0,,,,,,986.0,2026-04-24 15:47:53-07:00
95.06,1.0,9.0,2026-04-24 22:49:28,37.08165,-121.59962,306.0,0.0,114.7,-12.6,,,,,22:49:27,11.0,-1.2,42.6,0.0,294.0,0.0,-0.02,0.9,99.0,5.0,26.0,0.0,30.02,1700.0,,,144.0,,,,,0.0,0.0,,,,,,,,,,,,,,,,,,,74.0,23.0,990.0,990.0,14.7,3.1,,3.1,25.7,,,23.0,0.0,0.0,50.4,12.7,10.5,,,,,28.0,408.0,27.0,397.0,29.0,430.0,31.0,427.0,,,24.0,0.0,,25.7,3.0,0.0,,,0.93,0.844,74.3,23.0,,,,,,990.0,2026-04-24 15:47:53-07:00
96.06,1.0,9.0,2026-04-24 22:49:29,37.08165,-121.59962,306.0,0.1,114.7,-12.6,,,,,22:49:28,10.9,-1.1,42.6,0.0,294.0,0.0,-0.02,1.0,99.0,-39.0,26.0,0.0,30.02,1700.0,,,144.0,,,,,0.0,0.0,,,,,,,1.0,,,-1.0,,,,,,,,,74.0,23.0,990.0,990.0,14.7,3.0,,3.0,25.7,,,23.0,0.0,0.0,54.7,12.7,10.5,,,,,28.0,419.0,28.0,411.0,29.0,439.0,31.0,438.0,,,24.0,0.0,,25.7,3.0,0.0,,,0.93,0.844,74.0,23.0,,,,,,990.0,2026-04-24 15:47:53-07:00
97.06,1.0,9.0,2026-04-24 22:49:30,37.08165,-121.59962,307.0,0.0,114.7,-12.6,,,,,22:49:29,10.9,-1.1,42.6,0.0,294.0,0.0,-0.02,0.9,99.0,-69.0,26.0,0.0,30.02,1700.0,,,144.0,,,,,0.0,0.0,,,,,,,1.0,,,-2.0,,,,,,,,,74.0,23.0,991.0,991.0,14.6,3.0,,3.0,25.7,,,23.0,0.0,0.0,57.4,12.7,10.5,,,,,28.0,428.0,28.0,422.0,29.0,447.0,32.0,447.0,,,24.0,0.0,,25.7,3.0,0.0,,,0.933,0.837,74.1,23.0,,,,,,991.0,2026-04-24 15:47:53-07:00
98.06,1.0,9.0,2026-04-24 22:49:31,37.08164,-121.59962,308.0,0.1,114.7,-12.6,,,,,22:49:30,10.9,-1.1,42.6,0.0,294.0,0.0,-0.02,1.0,99.0,-39.0,26.0,0.0,30.02,1701.0,,,144.0,,,,,0.0,0.0,,,,,,,1.0,,,-2.0,,,,,,,,,74.0,23.0,989.0,989.0,14.7,3.0,,3.0,25.7,,,23.0,0.0,0.0,58.7,12.7,10.5,,,,,29.0,438.0,29.0,433.0,30.0,455.0,32.0,456.0,,,24.0,0.0,,25.7,3.0,0.0,,,0.93,0.841,73.8,23.0,,,,,,989.0,2026-04-24 15:47:53-07:00
99.06,1.0,9.0,2026-04-24 22:49:32,37.08164,-121.59962,309.0,0.1,114.7,-12.6,,,,,22:49:31,10.9,-1.1,42.6,0.0,294.0,0.0,-0.02,1.0,99.0,-75.0,26.0,0.0,30.02,1701.0,,,144.0,,,,,0.0,0.0,,,,,,,1.0,,,-3.0,,,,,1.0,0.0,0.0,1200.0,74.0,23.0,994.0,994.0,14.7,2.9,,2.9,25.7,,,23.0,0.0,0.0,59.5,12.7,10.5,,,,,29.0,445.0,29.0,443.0,30.0,460.0,33.0,463.0,,,24.0,0.0,,25.7,3.0,0.0,,,0.93,0.848,73.9,23.0,,,,,,994.0,2026-04-24 15:47:53-07:00
100.06,1.0,9.0,2026-04-24 22:49:33,37.08164,-121.59962,309.0,0.0,114.7,-12.6,,,,,22:49:32,10.9,-1.1,42.7,0.0,294.0,0.0,-0.02,1.0,99.0,-73.0,26.0,0.0,30.02,1701.0,,,144.0,,,,,0.0,0.0,,,,,,,1.0,,,-3.0,,,,,1.0,0.0,0.0,1200.0,74.0,23.0,995.0,995.0,14.6,2.9,,2.9,25.7,,,23.0,0.0,0.0,58.4,12.7,10.5,,,,,30.0,455.0,30.0,452.0,31.0,466.0,34.0,469.0,,,24.0,0.0,,25.7,3.0,0.0,,,0.93,0.842,73.7,22.9,,,,,,995.0,2026-04-24 15:47:53-07:00
101.06,1.0,9.0,2026-04-24 22:49:34,37.08164,-121.59962,309.0,0.0,114.7,-12.6,,,,,22:49:33,10.9,-1.1,42.7,0.0,294.0,0.0,-0.02,1.0,99.0,-64.0,26.0,0.0,30.02,1711.0,,,144.0,,,,,0.0,0.0,,,,,,,1.0,,,-3.0,,,,,1.0,0.0,0.0,1200.0,74.0,23.0,1002.0,1002.0,14.4,2.9,,2.9,25.7,,,23.0,0.0,0.0,53.5,12.7,10.5,,,,,30.0,462.0,30.0,460.0,31.0,471.0,34.0,477.0,,,24.0,0.0,,25.7,3.0,0.0,,,0.93,0.862,74.1,22.8,,,,,,1002.0,2026-04-24 15:47:53-07:00
102.06,1.0,9.0,2026-04-24 22:49:35,37.08164,-121.59962,309.0,0.0,114.7,-12.6,,,,,22:49:34,10.9,-1.1,42.7,0.0,294.0,0.0,-0.02,0.9,99.0,-33.0,26.0,0.0,30.02,1711.0,,,144.0,,,,,0.0,0.0,,,,,,,1.0,,,-3.0,,,,,,,,,75.0,23.0,1022.0,1022.0,14.2,2.9,,2.9,25.7,,,23.0,0.0,0.0,48.0,12.7,10.5,,,,,30.0,469.0,30.0,467.0,31.0,477.0,34.0,483.0,,,24.0,0.0,,25.7,3.0,0.0,,,0.93,0.852,74.6,22.6,,,,,,1022.0,2026-04-24 15:47:53-07:00
103.06,1.0,9.0,2026-04-24 22:49:36,37.08164,-121.59962,309.0,0.0,114.7,-12.6,,,,,22:49:35,10.9,-1.1,42.8,0.0,294.0,0.0,-0.02,1.0,99.0,-18.0,26.0,0.0,30.02,1711.0,,,144.0,,,,,0.0,0.0,,,,,,,1.0,,,-3.0,,,,,,,,,74.0,23.0,1011.0,1011.0,14.2,2.9,,2.9,25.7,,,23.0,0.0,0.0,42.7,12.7,10.5,,,,,31.0,474.0,31.0,474.0,32.0,483.0,35.0,489.0,,,24.0,0.0,,25.7,3.0,0.0,,,0.929,0.845,74.5,22.6,,,,,,1011.0,2026-04-24 15:47:53-07:00
104.06,1.0,9.0,2026-04-24 22:49:37,37.08164,-121.59962,309.0,0.0,114.7,-12.6,,,,,22:49:36,10.9,-1.2,42.8,0.0,294.0,-0.0,-0.02,1.0,99.0,-27.0,26.0,0.0,30.02,1711.0,,,144.0,,,,,0.0,0.0,,,,,,,1.0,,,-3.0,,,,,,,,,75.0,23.0,1028.0,1028.0,14.1,2.9,,2.9,25.8,,,23.0,0.0,0.0,37.9,12.7,10.5,,,,,31.0,480.0,31.0,481.0,32.0,488.0,36.0,493.0,,,24.0,0.0,,25.8,3.0,0.0,,,0.929,0.853,74.7,22.5,,,,,,1028.0,2026-04-24 15:47:53-07:00
105.06,2.0,9.0,2026-04-24 22:49:38,37.08163,-121.59962,306.0,0.0,114.7,-12.6,,,,,22:49:37,10.9,-1.1,42.8,0.0,294.0,0.0,-0.02,1.0,99.0,-42.0,26.0,0.0,30.02,1712.0,,,144.0,,,,,0.0,0.0,,,,,,,1.0,,,-3.0,,,,,,,,,75.0,22.0,1022.0,1022.0,14.1,2.9,,2.9,25.7,,,23.0,0.0,0.0,33.9,12.7,10.5,,,,,32.0,485.0,32.0,488.0,33.0,491.0,36.0,497.0,,,24.0,0.0,,25.7,3.0,0.0,,,0.93,0.845,74.8,22.5,,,,,,1022.0,2026-04-24 15:47:53-07:00
106.06,2.0,9.0,2026-04-24 22:49:39,37.08163,-121.59962,306.0,0.0,114.7,-12.6,,,,,22:49:38,10.9,-1.1,42.8,0.0,294.0,0.0,-0.02,1.0,99.0,5.0,26.0,0.0,30.02,1712.0,,,144.0,,,,,0.0,0.0,,,,,,,12.0,,,-3.0,,,,,,,,,75.0,22.0,1031.0,1031.0,13.9,2.9,,2.9,25.7,,,23.0,0.0,0.0,30.4,12.7,10.5,,,,,32.0,490.0,32.0,494.0,33.0,496.0,37.0,502.0,,,24.0,0.0,,25.7,3.0,0.0,,,0.929,0.858,74.8,22.4,,,,,,1031.0,2026-04-24 15:47:53-07:00
107.06,2.0,9.0,2026-04-24 22:49:40,37.08163,-121.59962,307.0,0.0,114.7,-12.6,,,,,22:49:39,10.9,-1.2,42.8,0.0,294.0,-0.0,-0.02,1.0,99.0,-6.0,26.0,0.0,30.02,1712.0,,,144.0,,,,,0.0,0.0,,,,,,,12.0,,,-3.0,,,,,,,,,75.0,22.0,1047.0,1047.0,13.9,2.9,,2.9,25.8,,,23.0,0.0,0.0,27.4,12.7,10.5,,,,,32.0,494.0,33.0,501.0,34.0,500.0,37.0,507.0,,,24.0,0.0,,25.8,3.0,0.0,,,0.929,0.857,75.0,22.4,,,,,,1047.0,2026-04-24 15:47:53-07:00
108.06,2.0,9.0,2026-04-24 22:49:41,37.08163,-121.59962,308.0,0.1,114.7,-12.6,,,,,22:49:40,10.9,-1.2,42.8,0.0,294.0,-0.0,-0.02,1.0,99.0,12.0,26.0,0.0,30.02,1720.0,,,144.0,,,,,0.0,0.0,,,,,,,13.0,,,-4.0,,,,,,,,,75.0,22.0,1045.0,1045.0,13.8,2.9,,2.9,25.8,,,23.0,0.0,0.0,24.8,12.7,10.5,,,,,33.0,498.0,33.0,506.0,34.0,504.0,38.0,511.0,,,24.0,0.0,,25.8,3.0,0.0,,,0.929,0.85,75.1,22.4,,,,,,1045.0,2026-04-24 15:47:53-07:00
109.06,2.0,9.0,2026-04-24 22:49:42,37.08163,-121.59962,307.0,0.0,114.7,-12.6,,,,,22:49:41,10.9,-1.2,42.7,0.0,294.0,-0.0,-0.02,1.0,99.0,8.0,26.0,0.0,30.02,1720.0,,,144.0,,,,,0.0,0.0,,,,,,,12.0,,,-5.0,,,,,,,,,75.0,22.0,1046.0,1046.0,13.7,2.9,,2.9,25.8,,,23.0,0.0,0.0,22.5,12.7,10.5,,,,,33.0,501.0,34.0,511.0,35.0,508.0,38.0,515.0,,,24.0,0.0,,25.8,3.0,0.0,,,0.93,0.846,75.1,22.4,,,,,,1046.0,2026-04-24 15:47:53-07:00
110.06,2.0,9.0,2026-04-24 22:49:43,37.08163,-121.59962,308.0,0.0,114.7,-12.6,,,,,22:49:42,10.9,-1.2,42.7,0.0,294.0,0.0,-0.02,1.0,99.0,-3.0,26.0,0.0,30.02,1720.0,,,144.0,,,,,0.0,0.0,,,,,,,13.0,,,-5.0,,,,,,,,,75.0,22.0,1051.0,1051.0,13.7,2.9,,2.9,25.8,,,23.0,0.0,0.0,20.5,12.7,10.5,,,,,34.0,504.0,34.0,516.0,35.0,511.0,39.0,518.0,,,24.0,0.0,,25.8,3.0,0.0,,,0.93,0.839,75.2,22.3,,,,,,1051.0,2026-04-24 15:47:53-07:00
111.06,2.0,9.0,2026-04-24 22:49:44,37.08163,-121.59962,308.0,0.0,114.7,-12.6,,,,,22:49:43,10.9,-1.3,42.6,0.0,294.0,0.0,-0.02,0.9,99.0,8.0,26.0,0.0,30.02,1721.0,,,144.0,,,,,0.0,0.0,,,,,,,12.0,,,-5.0,,,,,,,,,75.0,22.0,1049.0,1049.0,13.6,2.9,,2.9,25.8,,,23.0,0.0,0.0,18.5,12.7,10.5,,,,,34.0,508.0,35.0,520.0,36.0,515.0,39.0,521.0,,,24.0,0.0,,25.8,3.0,0.0,,,0.929,0.844,75.3,22.3,,,,,,1049.0,2026-04-24 15:47:53-07:00
112.06,2.0,9.0,2026-04-24 22:49:45,37.08163,-121.59962,308.0,0.0,114.7,-12.6,,,,,22:49:44,10.8,-1.2,42.6,0.0,294.0,-0.0,-0.02,1.0,99.0,13.0,26.0,0.0,30.02,1721.0,,,144.0,,,,,0.0,0.0,,,,,,,11.0,,,-5.0,,,,,,,,,76.0,22.0,1066.0,1066.0,13.6,2.9,,2.9,25.8,,,23.0,0.0,0.0,16.8,12.7,10.5,,,,,35.0,511.0,35.0,523.0,36.0,518.0,40.0,524.0,,,24.0,0.0,,25.8,3.0,0.0,,,0.93,0.847,75.5,22.3,,,,,,1066.0,2026-04-24 15:47:53-07:00
113.06,2.0,9.0,2026-04-24 22:49:46,37.08163,-121.59962,306.0,0.0,114.7,-12.6,,,,,22:49:45,10.9,-1.2,42.7,0.0,294.0,-0.0,-0.02,1.0,99.0,-14.0,26.0,0.0,30.02,1721.0,,,144.0,,,,,0.0,0.0,,,,,,,11.0,,,-5.0,,,,,,,,,76.0,22.0,1063.0,1063.0,13.4,2.9,,2.9,25.8,,,23.0,0.0,0.0,15.4,12.7,10.5,,,,,35.0,513.0,36.0,526.0,37.0,521.0,41.0,527.0,,,24.0,0.0,,25.8,3.0,0.0,,,0.931,0.84,75.6,22.3,,,,,,1063.0,2026-04-24 15:47:53-07:00
114.06,2.0,9.0,2026-04-24 22:49:47,37.08163,-121.59962,305.0,0.0,114.7,-12.6,,,,,22:49:46,10.9,-1.2,42.6,0.0,294.0,-0.0,-0.02,1.0,99.0,0.0,26.0,0.0,30.02,1721.0,,,144.0,,,,,0.0,0.0,,,,,,,4.0,,,49.0,,,,,,,,,76.0,22.0,1063.0,1063.0,13.4,2.9,,2.9,25.8,,,23.0,0.0,0.0,14.3,12.7,10.5,,,,,36.0,516.0,37.0,530.0,37.0,524.0,41.0,531.0,,,24.0,0.0,,25.8,3.0,0.0,,,0.93,0.845,75.6,22.3,,,,,,1063.0,2026-04-24 15:47:53-07:00
115.06,2.0,9.0,2026-04-24 22:49:48,37.08163,-121.59962,308.0,0.0,114.7,-12.6,,,,,22:49:47,10.9,-1.2,42.7,0.0,294.0,-0.0,-0.02,1.0,99.0,-38.0,26.0,0.0,30.02,1721.0,,,144.0,,,,,0.0,0.0,,,,,,,3.0,,,54.0,,,,,,,,,76.0,22.0,1072.0,1072.0,13.4,2.9,,2.9,25.8,,,23.0,0.0,0.0,13.4,12.7,10.5,,,,,36.0,520.0,37.0,533.0,38.0,527.0,42.0,534.0,,,24.0,0.0,,25.8,3.0,0.0,,,0.931,0.847,75.6,22.3,,,,,,1072.0,2026-04-24 15:47:53-07:00
116.06,2.0,9.0,2026-04-24 22:49:49,37.08163,-121.59962,308.0,0.1,114.7,-12.6,,,,,22:49:48,10.9,-1.2,42.7,0.0,294.0,-0.0,-0.02,1.0,99.0,-22.0,26.0,0.0,30.02,1722.0,,,144.0,,,,,0.0,0.0,,,,,,,3.0,,,54.0,,,,,,,,,76.0,22.0,1063.0,1063.0,13.3,2.8,,2.8,25.8,,,23.0,0.0,0.0,12.5,12.7,10.5,,,,,37.0,523.0,37.0,535.0,38.0,530.0,43.0,536.0,,,24.0,0.0,,25.8,3.0,0.0,,,0.934,0.845,75.6,22.3,,,,,,1063.0,2026-04-24 15:47:53-07:00
117.06,2.0,9.0,2026-04-24 22:49:50,37.08163,-121.59962,308.0,0.0,114.7,-12.6,,,,,22:49:49,10.9,-1.2,42.7,0.0,294.0,-0.0,-0.02,1.0,99.0,10.0,27.0,0.0,30.02,1722.0,,,144.0,,,,,0.0,0.0,,,,,,,3.0,,,54.0,,,,,,,,,75.0,22.0,1030.0,1030.0,13.3,2.8,,2.8,25.8,,,23.0,0.0,0.0,11.8,12.7,10.5,,,,,37.0,526.0,38.0,538.0,39.0,531.0,43.0,538.0,,,24.0,0.0,,25.8,3.0,0.0,,,0.93,0.847,75.0,22.3,,,,,,1030.0,2026-04-24 15:47:53-07:00
118.06,2.0,9.0,2026-04-24 22:49:51,37.08163,-121.59962,308.0,0.1,114.7,-12.6,,,,,22:49:50,10.9,-1.2,42.7,0.0,294.0,0.0,-0.02,1.0,99.0,32.0,27.0,0.0,30.02,1722.0,,,144.0,,,,,0.0,0.0,,,,,,,3.0,,,54.0,,,,,,,,,74.0,22.0,986.0,986.0,13.4,2.8,,2.8,25.8,,,23.0,0.0,0.0,11.2,12.7,10.5,,,,,38.0,529.0,38.0,541.0,39.0,532.0,44.0,540.0,,,24.0,0.0,,25.8,3.0,0.0,,,0.929,0.847,74.5,22.3,,,,,,986.0,2026-04-24 15:47:53-07:00
119.06,2.0,9.0,2026-04-24 22:49:52,37.08163,-121.59963,311.0,0.0,114.7,-12.6,,,,,22:49:51,10.9,-1.2,42.7,0.0,294.0,0.0,-0.02,1.0,99.0,20.0,27.0,0.0,30.02,1731.0,,,144.0,,,,,0.0,0.0,,,,,,,3.0,,,53.0,,,,,,,,,73.0,22.0,949.0,949.0,13.7,2.7,,2.7,25.8,,,23.0,0.0,0.0,11.0,12.7,10.5,,,,,38.0,532.0,39.0,541.0,40.0,532.0,44.0,540.0,,,24.0,0.0,,25.8,3.0,0.0,,,0.93,0.846,72.7,22.3,,,,,,949.0,2026-04-24 15:47:53-07:00
120.06,2.0,9.0,2026-04-24 22:49:53,37.08162,-121.59962,311.0,0.0,114.7,-12.6,,,,,22:49:52,10.9,-1.2,42.6,0.0,294.0,-0.0,-0.02,1.0,99.0,49.0,27.0,0.0,30.02,1731.0,,,144.0,,,,,0.0,0.0,,,,,,,3.0,,,53.0,,,,,,,,,72.0,22.0,929.0,929.0,13.8,2.7,,2.7,25.8,,,23.0,0.0,0.0,10.7,12.7,10.5,,,,,39.0,533.0,40.0,541.0,41.0,530.0,45.0,539.0,,,24.0,0.0,,25.8,3.0,0.0,,,0.93,0.847,71.9,22.3,,,,,,929.0,2026-04-24 15:47:53-07:00
121.06,2.0,9.0,2026-04-24 22:49:54,37.08162,-121.59962,311.0,0.0,114.7,-12.6,,,,,22:49:53,10.9,-1.2,42.6,0.0,294.0,-0.0,-0.02,1.0,99.0,59.0,27.0,0.0,30.02,1731.0,,,144.0,,,,,0.0,0.0,,,,,,,3.0,,,53.0,,,,,,,,,71.0,22.0,925.0,925.0,13.9,2.6,,2.6,25.8,,,23.0,0.0,0.0,10.5,12.7,10.5,,,,,39.0,535.0,40.0,542.0,41.0,529.0,45.0,538.0,,,24.0,0.0,,25.8,3.0,0.0,,,0.931,0.844,71.4,22.4,,,,,,925.0,2026-04-24 15:47:53-07:00
122.06,2.0,9.0,2026-04-24 22:49:55,37.08162,-121.59962,312.0,0.1,114.7,-12.6,,,,,22:49:54,10.9,-1.2,42.7,0.0,294.0,-0.0,-0.02,0.9,99.0,60.0,27.0,0.0,30.02,1722.0,,,144.0,,,,,0.0,0.0,,,,,,,3.0,,,53.0,,,,,,,,,71.0,22.0,938.0,938.0,14.0,2.6,,2.6,25.8,,,23.0,0.0,0.0,10.1,12.7,10.5,,,,,39.0,537.0,40.0,544.0,41.0,528.0,46.0,537.0,,,24.0,0.0,,25.8,3.0,0.0,,,0.93,0.837,71.2,22.4,,,,,,938.0,2026-04-24 15:47:53-07:00
123.06,2.0,9.0,2026-04-24 22:49:56,37.08162,-121.59962,312.0,0.2,114.7,-12.6,,,,,22:49:55,10.9,-1.2,42.6,0.0,294.0,-0.0,-0.02,1.0,99.0,35.0,27.0,0.0,30.02,1722.0,,,144.0,,,,,0.0,0.0,,,,,,,3.0,,,53.0,,,,,1.0,1.0,0.0,1200.0,71.0,22.0,951.0,951.0,14.0,2.5,,2.5,25.8,,,23.0,0.0,0.0,9.8,12.7,10.5,,,,,40.0,540.0,41.0,545.0,42.0,528.0,46.0,536.0,,,24.0,0.0,,25.8,3.0,0.0,,,0.929,0.858,71.4,22.4,,,,,,951.0,2026-04-24 15:47:53-07:00
124.06,2.0,9.0,2026-04-24 22:49:57,37.08162,-121.59962,313.0,0.2,114.7,-12.6,,,,,22:49:56,11.0,-1.3,42.5,0.0,294.0,-0.0,-0.02,1.0,99.0,62.0,27.0,0.0,30.02,1722.0,,,144.0,,,,,0.0,0.0,,,,,,,3.0,,,53.0,,,,,1.0,0.0,0.0,1200.0,72.0,22.0,949.0,949.0,13.9,2.5,,2.5,25.8,,,23.0,0.0,0.0,9.5,12.7,10.5,,,,,40.0,542.0,41.0,546.0,42.0,528.0,47.0,536.0,,,24.0,0.0,,25.8,3.0,0.0,,,1.091,0.841,71.6,22.4,,,,,,949.0,2026-04-24 15:47:53-07:00
125.06,2.0,9.0,2026-04-24 22:49:58,37.08162,-121.59962,310.0,0.3,114.7,-12.6,,,,,22:49:57,11.0,-1.3,42.4,0.0,294.0,-0.0,-0.03,1.0,99.0,95.0,27.0,0.0,30.02,1731.0,,,144.0,,,,,0.0,0.0,,,,,,,3.0,,,53.0,,,,,1.0,0.0,0.0,1200.0,71.0,22.0,938.0,938.0,13.9,2.5,,2.5,25.8,,,23.0,0.0,0.0,9.3,12.7,10.5,,,,,41.0,544.0,42.0,547.0,43.0,528.0,48.0,537.0,,,24.0,0.0,,25.8,3.0,0.0,,,1.093,0.857,71.3,22.4,,,,,,938.0,2026-04-24 15:47:53-07:00
126.06,2.0,9.0,2026-04-24 22:49:59,37.08162,-121.59962,309.0,0.3,114.7,-12.6,,,,,22:49:58,11.0,-1.4,42.3,0.0,296.0,-0.1,-0.02,1.0,99.0,104.0,27.0,0.0,30.02,1731.0,,,144.0,,,,,0.0,0.0,,,,,,,3.0,,,53.0,,,,,1.0,0.0,0.0,1200.0,71.0,22.0,953.0,953.0,13.8,2.5,,2.5,25.9,,,23.0,0.0,0.0,9.0,12.7,10.5,,,,,41.0,546.0,43.0,549.0,43.0,529.0,48.0,537.0,,,24.0,0.0,,25.9,3.0,0.0,,,1.093,0.859,71.5,22.4,,,,,,953.0,2026-04-24 15:47:53-07:00
127.06,2.0,9.0,2026-04-24 22:50:00,37.08162,-121.59962,309.0,0.1,114.7,-12.6,,,,,22:49:59,10.9,-1.4,42.3,0.0,297.0,-0.1,-0.02,1.0,99.0,68.0,27.0,0.0,30.02,1731.0,,,144.0,,,,,0.0,0.0,,,,,,,3.0,,,53.0,,,,,1.0,0.0,0.0,1200.0,72.0,22.0,958.0,958.0,13.6,2.5,,2.5,25.9,,,23.0,0.0,0.0,8.8,12.7,10.5,,,,,42.0,548.0,43.0,550.0,44.0,530.0,49.0,537.0,,,24.0,0.0,,25.9,3.0,0.0,,,1.091,0.848,71.7,22.4,,,,,,958.0,2026-04-24 15:47:53-07:00
128.06,2.0,9.0,2026-04-24 22:50:01,37.08161,-121.59961,312.0,0.1,114.7,-12.6,,,,,22:50:00,10.9,-1.4,42.3,0.0,298.0,-0.0,-0.03,1.0,99.0,57.0,27.0,0.0,30.02,1736.0,,,144.0,,,,,0.0,0.0,,,,,,,3.0,,,53.0,,,,,1.0,0.0,0.0,1200.0,72.0,22.0,945.0,945.0,13.5,2.5,,2.5,25.9,,,23.0,0.0,0.0,8.7,12.7,10.5,,,,,42.0,550.0,43.0,550.0,44.0,530.0,49.0,539.0,,,24.0,0.0,,25.9,3.0,0.0,,,1.093,0.856,71.7,22.4,,,,,,945.0,2026-04-24 15:47:53-07:00
129.06,2.0,9.0,2026-04-24 22:50:02,37.08161,-121.59961,312.0,0.1,114.7,-12.6,,,,,22:50:01,10.9,-1.3,42.4,0.0,298.0,0.0,-0.02,1.0,99.0,22.0,27.0,0.0,30.02,1736.0,,,144.0,,,,,0.0,0.0,,,,,,,3.0,,,53.0,,,,,1.0,0.0,0.0,1200.0,72.0,22.0,950.0,950.0,13.6,2.4,,2.4,25.9,,,23.0,0.0,0.0,8.5,12.7,10.5,,,,,43.0,550.0,44.0,551.0,45.0,532.0,50.0,541.0,,,24.0,0.0,,25.9,3.0,0.0,,,1.093,0.852,71.7,22.4,,,,,,950.0,2026-04-24 15:47:53-07:00
130.06,2.0,9.0,2026-04-24 22:50:03,37.08161,-121.5996,311.0,0.3,114.7,-12.6,,,,,22:50:02,10.9,-1.4,42.3,0.0,298.0,-0.0,-0.02,0.9,99.0,11.0,27.0,0.0,30.02,1736.0,,,144.0,,,,,0.0,0.0,,,,,,,3.0,,,53.0,,,,,1.0,0.0,0.0,1200.0,72.0,22.0,953.0,953.0,13.6,2.4,,2.4,25.9,,,23.0,0.0,0.0,8.4,12.7,10.5,,,,,43.0,551.0,44.0,552.0,45.0,532.0,50.0,542.0,,,24.0,0.0,,25.9,3.0,0.0,,,1.091,0.864,71.6,22.4,,,,,,953.0,2026-04-24 15:47:53-07:00
131.06,2.0,9.0,2026-04-24 22:50:04,37.08161,-121.5996,314.0,0.6,114.7,-12.6,,,,,22:50:03,11.0,-1.3,42.2,0.0,298.0,-0.0,-0.02,0.9,99.0,5.0,27.0,0.0,30.02,1737.0,,,144.0,,,,,0.0,0.0,,,,,,,3.0,,,53.0,,,,,1.0,0.0,0.0,1200.0,72.0,22.0,961.0,961.0,13.5,2.4,,2.4,25.9,,,23.0,0.0,0.0,8.2,12.7,10.5,,,,,44.0,552.0,45.0,553.0,46.0,533.0,51.0,543.0,,,24.0,0.0,,25.9,3.0,0.0,,,1.085,0.858,71.8,22.4,,,,,,961.0,2026-04-24 15:47:53-07:00
132.06,2.0,9.0,2026-04-24 22:50:05,37.08161,-121.59959,314.0,0.9,114.7,-12.6,,,,,22:50:04,11.1,-1.4,42.2,0.0,298.0,0.0,-0.02,1.0,99.0,-8.0,27.0,0.0,30.02,1737.0,,,144.0,,,,,0.0,0.0,,,,,,,3.0,,,53.0,,,,,1.0,0.0,0.0,1200.0,72.0,22.0,963.0,963.0,13.3,2.4,,2.4,25.9,,,23.0,0.0,0.0,8.1,12.7,10.5,,,,,44.0,553.0,45.0,553.0,47.0,534.0,51.0,544.0,,,24.0,0.0,,25.9,3.0,0.0,,,1.01,0.844,72.1,22.5,,,,,,963.0,2026-04-24 15:47:53-07:00
133.06,2.0,9.0,2026-04-24 22:50:06,37.08161,-121.59959,314.0,1.3,75.2,-12.6,,,,,22:50:05,11.3,-1.3,42.8,0.0,298.0,0.3,-0.02,1.0,99.0,5.0,27.0,0.0,30.02,1737.0,,,144.0,,,,,0.0,0.0,,,,,,,3.0,,,53.0,,,,,1.0,0.0,0.0,1200.0,72.0,22.0,955.0,955.0,13.3,2.4,,2.4,25.9,,,23.0,0.0,0.0,7.9,12.7,10.5,,,,,45.0,554.0,46.0,554.0,47.0,534.0,52.0,545.0,,,24.0,0.0,,25.9,3.0,0.0,,,0.929,0.867,71.8,22.5,,,,,,955.0,2026-04-24 15:47:53-07:00
134.06,2.0,9.0,2026-04-24 22:50:07,37.08162,-121.59959,315.0,1.5,56.4,-12.6,,,,,22:50:06,11.5,-1.4,43.9,0.0,298.0,0.9,-0.02,1.0,99.0,-24.0,27.0,0.0,30.02,1737.0,,,144.0,,,,,0.0,0.0,,,,,,,3.0,,,53.0,,,,,1.0,0.0,0.0,1200.0,72.0,22.0,951.0,951.0,13.3,2.3,,2.3,25.9,,,23.0,0.0,0.0,7.7,12.7,10.5,,,,,45.0,555.0,47.0,555.0,47.0,535.0,52.0,545.0,,,24.0,0.0,,25.9,3.0,0.0,,,1.024,0.839,71.7,22.5,,,,,,951.0,2026-04-24 15:47:53-07:00
135.06,2.0,9.0,2026-04-24 22:50:08,37.08162,-121.59958,315.0,1.6,55.3,-12.6,,,,,22:50:07,11.5,-1.4,45.1,0.0,298.0,1.1,-0.03,1.0,99.0,3.0,27.0,0.0,30.02,1737.0,,,144.0,,,,,0.0,0.0,,,,,,,3.0,,,53.0,,,,,1.0,0.0,0.0,1200.0,72.0,23.0,965.0,965.0,13.3,2.3,,2.3,25.9,,,23.0,0.0,0.0,7.6,12.7,10.5,,,,,46.0,556.0,47.0,556.0,48.0,536.0,53.0,545.0,,,24.0,0.0,,25.9,3.0,0.0,,,0.938,0.841,71.6,22.5,,,,,,965.0,2026-04-24 15:47:53-07:00
136.06,2.0,9.0,2026-04-24 22:50:09,37.08162,-121.59956,315.0,1.8,56.7,-12.6,,,,,22:50:08,11.5,-1.4,46.6,0.0,298.0,1.4,-0.03,1.0,99.0,8.0,27.0,0.0,30.02,1737.0,,,144.0,,,,,0.0,0.0,,,,,,,3.0,,,53.0,,,,,1.0,0.0,0.0,1200.0,71.0,23.0,949.0,949.0,13.2,2.3,,2.3,25.9,,,23.0,0.0,0.0,7.5,12.7,10.5,,,,,46.0,557.0,48.0,556.0,49.0,537.0,54.0,547.0,,,24.0,0.0,,25.9,3.0,0.0,,,0.82,0.863,71.4,22.5,,,,,,949.0,2026-04-24 15:47:53-07:00
137.06,2.0,9.0,2026-04-24 22:50:10,37.08163,-121.59956,313.0,2.2,58.6,-12.6,,,,,22:50:09,10.8,-1.4,48.7,0.0,298.0,1.7,-0.02,1.1,99.0,25.0,27.0,0.0,30.02,1737.0,,,144.0,,,,,0.0,0.0,,,,,,,2.0,,,53.0,,,,,1.0,0.0,0.0,1200.0,71.0,23.0,939.0,939.0,13.4,2.3,,2.3,25.9,,,23.0,0.0,0.0,7.4,12.7,10.5,,,,,46.0,558.0,48.0,556.0,49.0,537.0,54.0,548.0,,,24.0,0.0,,25.9,3.0,0.0,,,0.935,0.836,71.1,22.5,,,,,,939.0,2026-04-24 15:47:53-07:00
138.06,2.0,9.0,2026-04-24 22:50:11,37.08163,-121.59955,313.0,2.5,58.0,-12.6,,,,,22:50:10,10.4,-1.2,51.8,0.0,298.0,2.2,-0.02,1.0,99.0,8.0,27.0,0.0,30.02,1737.0,,,144.0,,,,,0.0,0.0,,,,,,,2.0,,,53.0,,,,,1.0,0.0,0.0,1200.0,71.0,23.0,938.0,938.0,13.4,2.3,,2.3,25.9,,,23.0,0.0,0.0,7.3,12.7,10.5,,,,,47.0,558.0,49.0,557.0,50.0,537.0,55.0,548.0,,,24.0,0.0,,25.9,3.0,0.0,,,0.957,0.836,71.0,22.6,,,,,,938.0,2026-04-24 15:47:53-07:00
139.06,2.0,9.0,2026-04-24 22:50:12,37.08164,-121.59953,313.0,3.0,64.3,-12.6,,,,,22:50:11,10.6,-1.4,53.2,0.0,298.0,1.8,-0.04,1.0,99.0,-29.0,27.0,0.0,30.02,1737.0,,,144.0,,,,,0.0,0.0,,,,,,,2.0,,,53.0,,,,,1.0,0.0,0.0,1200.0,71.0,23.0,940.0,940.0,13.4,2.3,,2.3,25.9,,,23.0,0.0,0.0,7.2,12.7,10.5,,,,,48.0,558.0,49.0,557.0,50.0,538.0,55.0,548.0,,,24.0,0.0,,25.9,3.0,0.0,,,0.934,0.862,70.8,22.6,,,,,,940.0,2026-04-24 15:47:53-07:00
140.06,2.0,9.0,2026-04-24 22:50:13,37.08165,-121.59952,313.0,2.4,67.5,-12.6,,,,,22:50:12,10.4,-1.1,53.2,0.0,298.0,0.5,-0.02,0.9,99.0,-22.0,27.0,0.0,29.98,1737.0,,,144.0,,,,,0.0,0.0,,,,,,,2.0,,,53.0,,,,,1.0,0.0,0.0,1200.0,71.0,23.0,937.0,937.0,13.4,2.3,,2.3,25.9,,,23.0,0.0,0.0,7.1,12.7,10.5,,,,,48.0,558.0,50.0,558.0,51.0,538.0,56.0,549.0,,,24.0,0.0,,25.9,3.0,0.0,,,1.246,0.852,70.8,22.6,,,,,,937.0,2026-04-24 15:47:53-07:00
141.06,2.0,9.0,2026-04-24 22:50:14,37.08168,-121.59963,312.0,2.0,69.2,-12.6,,,,,22:50:13,10.4,-0.9,53.2,0.0,298.0,0.0,-0.02,1.1,99.0,-19.0,27.0,0.0,29.89,1737.0,,,144.0,,,,,0.0,0.0,,,,,,,2.0,,,53.0,,,,,1.0,0.0,0.0,1200.0,71.0,23.0,942.0,942.0,13.4,2.3,,2.3,25.9,,,23.0,0.0,0.0,7.0,12.7,10.5,,,,,49.0,559.0,51.0,558.0,51.0,539.0,57.0,550.0,,,24.0,0.0,,25.9,3.0,0.0,,,1.245,0.826,70.8,22.6,,,,,,942.0,2026-04-24 15:47:53-07:00
142.06,2.0,9.0,2026-04-24 22:50:15,37.08168,-121.59962,309.0,1.9,65.7,-12.6,,,,,22:50:14,10.6,-0.8,53.1,0.0,298.0,0.0,-0.02,1.0,99.0,-12.0,27.0,0.0,29.89,1737.0,,,144.0,,,,,0.0,0.0,,,,,,,2.0,,,53.0,,,,,1.0,0.0,0.0,1200.0,71.0,23.0,933.0,933.0,13.4,2.2,,2.2,25.9,,,23.0,0.0,0.0,6.9,12.7,10.5,,,,,49.0,559.0,51.0,558.0,52.0,539.0,57.0,552.0,,,24.0,0.0,,25.9,3.0,0.0,,,1.09,0.825,70.7,22.6,,,,,,933.0,2026-04-24 15:47:53-07:00
143.06,2.0,9.0,2026-04-24 22:50:16,37.08169,-121.59962,315.0,2.4,64.3,-12.6,,,,,22:50:15,9.9,-0.9,53.1,0.0,298.0,-0.0,-0.02,1.0,99.0,-51.0,27.0,0.0,29.89,1737.0,,,144.0,,,,,0.0,0.0,,,,,,,2.0,,,53.0,,,,,1.0,0.0,0.0,1200.0,71.0,23.0,936.0,936.0,13.5,2.2,,2.2,25.9,,,23.0,0.0,0.0,6.8,12.7,10.5,,,,,50.0,560.0,51.0,559.0,52.0,540.0,57.0,553.0,,,24.0,0.0,,25.9,3.0,0.0,,,1.012,0.836,70.6,22.6,,,,,,936.0,2026-04-24 15:47:53-07:00
