Session Time,GPS Fix Quality,Number of Satellites,GPS Date & Time,Latitude (deg),Longitude (deg),GPS Altitude (feet),Ground Speed (knots),Ground Track (deg),Mag Var (deg),Cross Track Error (NM),Destination Waypoint ID,Range to Destination (NM),Bearing to Destination (deg),System Time,Pitch (deg),Roll (deg),Magnetic Heading (deg),Indicated Airspeed (knots),Pressure Altitude (ft),Turn Rate (deg/s),Lateral Accel (g),Vertical Accel(g),Angle of Attack (%),Vertical Speed (ft/min),OAT (deg C),True Airspeed (knots),Barometer Setting (inHg),Density Altitude (ft),Wind Direction (deg),Wind Speed (knots),Heading Bug (deg),Altitude Bug (ft),Airspeed Bug (knots),Vertical Speed Bug (ft/min),Course (deg),CDI Source Type,CDI Source Port,CDI Scale (NM),CDI Deflection (%),Glideslope (%),AP Engaged,AP Roll Mode,AP Roll Force,AP Roll Position (steps),AP Roll Slip (bool),AP Pitch Force,AP Pitch Position (steps),AP Pitch Slip (bool),AP Yaw Force,AP Yaw Position,AP Yaw Slip (bool),Transponder Status,Transponder Reply (bool),Transponder Identing (bool),Transponder Code (octal),Oil Pressure (PSI),Oil Temp (deg C),RPM L,RPM R,Manifold Pressure (inHg),Fuel Flow 1 (gal/hr),Fuel Flow 2 (gal/hr),Total Fuel Flow (gal/hr),Fuel Pressure (PSI),Fuel Level L (gal),Fuel Level R (gal),Fuel Remaining (gal),Volts 1,Volts 2,Amps,Hobbs Time,Tach Time,Thermocouple 1 (deg C),Thermocouple 2 (deg C),Thermocouple 3 (deg C),Thermocouple 4 (deg C),CHT 4 (deg C),EGT 4 (deg C),CHT 3 (deg C),EGT 3 (deg C),CHT 2 (deg C),EGT 2 (deg C),CHT 1 (deg C),EGT 1 (deg C),Thermocouple 13 (deg C),Thermocouple 14 (deg C),ELEV POSITION (%),CO PPM PRESSURE (PSI),GP Input 3,FUEL PRESSURE (PSI),AILERN POSITION (%),CANOPY CONTACT (V),GP Input 7,GP Input 8,LEFT LEVEL (Sensor V),RIGHT LEVEL (Sensor V),OIL PRESSURE (PSI),OIL TEMPERATURE (deg C),GP Input 13,Contacts,Percent Power,EGT Leaning State,Unnamed: 103,RPM,AVG_CHT (deg C),CHT_Delta_T (deg C),OIL_Delta_T (deg C),OAT (deg F),Oil Temp (deg F),Thermocouple 1 (deg F),Thermocouple 2 (deg F),Thermocouple 3 (deg F),Thermocouple 4 (deg F),CHT 4 (deg F),EGT 4 (deg F),CHT 3 (deg F),EGT 3 (deg F),CHT 2 (deg F),EGT 2 (deg F),CHT 1 (deg F),EGT 1 (deg F),Thermocouple 13 (deg F),Thermocouple 14 (deg F),OIL TEMPERATURE (deg F),AVG_CHT (deg F),CHT_Delta_T (deg F),OIL_Delta_T (deg F),Fuel Flow Integral,Distance Traveled,MPG,Max CHT,Flight ID
6.06,0.0,0.0,2026-01-10 22:05:33,37.08202,-121.59979,0.0,0.1,341.1,-17.1,0.0,,0.0,0.0,0.0,11.0,-0.9,51.3,0.0,-160.0,0.0,-0.01,1.0,0.0,-84.0,15.0,0.0,30.44,-176.0,0.0,0.0,241.0,0.0,0.0,0.0,0.0,0.0,0.0,0.0,0.0,0.0,0.0,0.0,0.0,0.0,0.0,0.0,0.0,0.0,0.0,0.0,0.0,0.0,0.0,0.0,0.0,0.0,30.0,0.0,0.0,30.5,0.0,0.0,0.0,0.6,0.0,0.0,37.7,0.0,0.0,-0.6,0.8,0.3,0.0,0.0,0.0,0.0,35.0,24.0,35.0,25.0,35.0,26.0,34.0,25.0,0.0,0.0,-2.0,254.4,0.0,0.6,-9.0,0.0,0.0,0.0,0.653,0.732,0.0,30.3,0.0,0.0,0.0,,0.0,0.0,34.75,19.75,15.3,59.0,86.0,0.0,0.0,0.0,0.0,95.0,75.2,95.0,77.0,95.0,78.8,93.2,77.0,0.0,0.0,86.53999999999999,94.55,67.55,59.540000000000006,0.0,0.0,0.0,327.2,2026-01-10 14:05:33-08:00
7.06,1.0,5.0,2026-01-10 22:05:34,37.08199,-121.59982,306.0,0.1,341.1,-12.6,0.0,,0.0,0.0,0.0,11.0,-0.9,51.3,0.0,-161.0,-0.0,-0.02,1.0,0.0,-92.0,15.0,0.0,30.44,-173.0,0.0,0.0,241.0,0.0,0.0,0.0,0.0,0.0,0.0,0.0,0.0,0.0,0.0,0.0,0.0,0.0,0.0,0.0,0.0,0.0,0.0,0.0,0.0,0.0,0.0,0.0,0.0,0.0,30.0,0.0,0.0,30.5,0.0,0.0,0.0,0.6,0.0,0.0,37.7,0.0,0.0,-0.6,0.8,0.3,0.0,0.0,0.0,0.0,35.0,24.0,35.0,25.0,35.0,26.0,34.0,25.0,0.0,0.0,-2.0,254.4,0.0,0.6,-9.0,0.0,0.0,0.0,0.653,0.732,0.0,30.3,0.0,0.0,0.0,,0.0,0.0,34.75,19.75,15.3,59.0,86.0,0.0,0.0,0.0,0.0,95.0,75.2,95.0,77.0,95.0,78.8,93.2,77.0,0.0,0.0,86.53999999999999,94.55,67.55,59.540000000000006,0.0,0.16866666666666666,0.0,327.2,2026-01-10 14:05:33-08:00
8.06,1.0,5.0,2026-01-10 22:05:35,37.08199,-121.59982,285.0,0.0,341.1,-12.6,0.0,,0.0,0.0,0.0,11.0,-0.9,51.3,0.0,-162.0,0.0,-0.02,1.0,0.0,-86.0,15.0,0.0,30.44,-173.0,0.0,0.0,241.0,0.0,0.0,0.0,0.0,0.0,0.0,0.0,0.0,0.0,0.0,0.0,0.0,0.0,0.0,0.0,0.0,0.0,0.0,0.0,0.0,0.0,0.0,0.0,0.0,0.0,30.0,0.0,0.0,30.5,0.0,0.0,0.0,0.6,0.0,0.0,37.7,0.0,0.0,-0.6,0.8,0.3,0.0,0.0,0.0,0.0,35.0,24.0,35.0,25.0,35.0,26.0,34.0,25.0,0.0,0.0,-2.0,254.4,0.0,0.6,-9.0,0.0,0.0,0.0,0.653,0.732,0.0,30.3,0.0,0.0,0.0,,0.0,0.0,34.75,19.75,15.3,59.0,86.0,0.0,0.0,0.0,0.0,95.0,75.2,95.0,77.0,95.0,78.8,93.2,77.0,0.0,0.0,86.53999999999999,94.55,67.55,59.540000000000006,0.0,0.25300000000000006,0.0,327.2,2026-01-10 14:05:33-08:00
9.06,1.0,9.0,2026-01-10 22:05:36,37.0816,-121.59971,422.0,0.0,341.1,-12.6,0.0,,0.0,0.0,0.0,11.0,-0.8,51.3,0.0,-162.0,0.0,-0.02,1.0,0.0,-58.0,15.0,0.0,30.44,-173.0,0.0,0.0,241.0,0.0,0.0,0.0,0.0,0.0,0.0,0.0,0.0,0.0,0.0,0.0,0.0,0.0,0.0,0.0,0.0,0.0,0.0,0.0,0.0,0.0,0.0,0.0,0.0,0.0,30.0,0.0,0.0,30.5,0.0,0.0,0.0,0.6,0.0,0.0,37.7,0.0,0.0,-0.6,0.8,0.3,0.0,0.0,0.0,0.0,35.0,24.0,35.0,25.0,35.0,26.0,34.0,25.0,0.0,0.0,-2.0,254.4,0.0,0.6,-9.0,0.0,0.0,0.0,0.653,0.732,0.0,30.3,0.0,0.0,0.0,,0.0,0.0,34.75,19.75,15.3,59.0,86.0,0.0,0.0,0.0,0.0,95.0,75.2,95.0,77.0,95.0,78.8,93.2,77.0,0.0,0.0,86.53999999999999,94.55,67.55,59.540000000000006,0.0,0.25300000000000006,0.0,327.2,2026-01-10 14:05:33-08:00
10.06,1.0,9.0,2026-01-10 22:05:37,37.0816,-121.59971,436.0,0.0,341.1,-12.6,0.0,,0.0,0.0,0.0,11.0,-0.9,51.3,0.0,-163.0,0.0,-0.02,1.0,0.0,-58.0,15.0,0.0,30.44,-174.0,0.0,0.0,241.0,0.0,0.0,0.0,0.0,0.0,0.0,0.0,0.0,0.0,0.0,0.0,0.0,0.0,0.0,0.0,0.0,0.0,0.0,0.0,0.0,0.0,0.0,0.0,0.0,0.0,30.0,0.0,0.0,30.5,0.0,0.0,0.0,0.6,0.0,0.0,37.7,0.0,0.0,-0.6,0.8,0.3,0.0,0.0,0.0,0.0,35.0,25.0,35.0,25.0,35.0,26.0,34.0,25.0,0.0,0.0,-2.0,254.4,0.0,0.6,-9.0,0.0,0.0,0.0,0.653,0.732,0.0,30.3,0.0,0.0,0.0,,0.0,0.0,34.75,19.75,15.3,59.0,86.0,0.0,0.0,0.0,0.0,95.0,77.0,95.0,77.0,95.0,78.8,93.2,77.0,0.0,0.0,86.53999999999999,94.55,67.55,59.540000000000006,0.0,0.25300000000000006,0.0,327.2,2026-01-10 14:05:33-08:00
11.06,1.0,9.0,2026-01-10 22:05:38,37.0816,-121.59971,435.0,0.0,341.1,-12.6,0.0,,0.0,0.0,0.0,11.0,-0.9,51.3,0.0,-164.0,-0.0,-0.02,1.0,0.0,-44.0,15.0,0.0,30.44,-174.0,0.0,0.0,241.0,0.0,0.0,0.0,0.0,0.0,0.0,0.0,0.0,0.0,0.0,0.0,0.0,0.0,0.0,0.0,0.0,0.0,0.0,0.0,0.0,0.0,0.0,0.0,0.0,0.0,30.0,0.0,0.0,30.5,0.0,0.0,0.0,0.6,0.0,0.0,37.7,0.0,0.0,-0.6,0.8,0.3,0.0,0.0,0.0,0.0,35.0,24.0,35.0,25.0,35.0,26.0,34.0,25.0,0.0,0.0,-2.0,254.4,0.0,0.6,-9.0,0.0,0.0,0.0,0.653,0.732,0.0,30.3,0.0,0.0,0.0,,0.0,0.0,34.75,19.75,15.3,59.0,86.0,0.0,0.0,0.0,0.0,95.0,75.2,95.0,77.0,95.0,78.8,93.2,77.0,0.0,0.0,86.53999999999999,94.55,67.55,59.540000000000006,0.0,0.25300000000000006,0.0,327.2,2026-01-10 14:05:33-08:00
12.06,1.0,9.0,2026-01-10 22:05:39,37.0816,-121.59972,434.0,0.0,341.1,-12.6,0.0,,0.0,0.0,0.0,11.0,-0.9,51.2,0.0,-164.0,-0.0,-0.02,1.0,0.0,-33.0,15.0,0.0,30.44,-174.0,0.0,0.0,241.0,0.0,0.0,0.0,0.0,0.0,0.0,0.0,0.0,0.0,0.0,0.0,0.0,0.0,0.0,0.0,0.0,0.0,0.0,0.0,0.0,0.0,0.0,0.0,0.0,0.0,30.0,0.0,0.0,30.5,0.0,0.0,0.0,0.6,0.0,0.0,37.7,0.0,0.0,-0.6,0.8,0.3,0.0,0.0,0.0,0.0,35.0,24.0,35.0,25.0,35.0,26.0,34.0,25.0,0.0,0.0,-2.0,254.4,0.0,0.6,-9.0,0.0,0.0,0.0,0.653,0.732,0.0,30.3,0.0,0.0,0.0,,0.0,0.0,34.75,19.75,15.3,59.0,86.0,0.0,0.0,0.0,0.0,95.0,75.2,95.0,77.0,95.0,78.8,93.2,77.0,0.0,0.0,86.53999999999999,94.55,67.55,59.540000000000006,0.0,0.25300000000000006,0.0,327.2,2026-01-10 14:05:33-08:00
13.06,1.0,9.0,2026-01-10 22:05:40,37.0816,-121.59972,434.0,0.0,341.1,-12.6,0.0,,0.0,0.0,0.0,11.1,-0.9,51.2,0.0,-165.0,0.0,-0.02,1.0,0.0,-35.0,15.0,0.0,30.44,-176.0,0.0,0.0,241.0,0.0,0.0,0.0,0.0,0.0,0.0,0.0,0.0,0.0,0.0,0.0,0.0,0.0,0.0,0.0,0.0,0.0,0.0,0.0,0.0,0.0,0.0,0.0,0.0,0.0,30.0,0.0,0.0,30.5,0.0,0.0,0.0,0.6,0.0,0.0,37.7,0.0,0.0,-0.6,0.8,0.3,0.0,0.0,0.0,0.0,35.0,24.0,35.0,25.0,35.0,26.0,34.0,25.0,0.0,0.0,-2.0,254.4,0.0,0.6,-9.0,0.0,0.0,0.0,0.653,0.732,0.0,30.3,0.0,0.0,0.0,,0.0,0.0,34.75,19.75,15.3,59.0,86.0,0.0,0.0,0.0,0.0,95.0,75.2,95.0,77.0,95.0,78.8,93.2,77.0,0.0,0.0,86.53999999999999,94.55,67.55,59.540000000000006,0.0,0.25300000000000006,0.0,327.2,2026-01-10 14:05:33-08:00
14.06,1.0,9.0,2026-01-10 22:05:41,37.08163,-121.59972,434.0,0.0,341.1,-12.6,0.0,,0.0,0.0,0.0,11.0,-0.9,51.2,0.0,-166.0,-0.0,-0.02,1.0,0.0,-38.0,15.0,0.0,30.44,-176.0,0.0,0.0,241.0,0.0,0.0,0.0,0.0,0.0,0.0,0.0,0.0,0.0,0.0,0.0,0.0,0.0,0.0,0.0,0.0,0.0,0.0,0.0,0.0,0.0,0.0,0.0,0.0,0.0,30.0,0.0,0.0,30.5,0.0,0.0,0.0,0.6,0.0,0.0,37.7,0.0,0.0,-0.6,0.8,0.3,0.0,0.0,0.0,0.0,35.0,24.0,35.0,25.0,35.0,26.0,34.0,25.0,0.0,0.0,-2.0,254.4,0.0,0.6,-9.0,0.0,0.0,0.0,0.653,0.732,0.0,30.3,0.0,0.0,0.0,,0.0,0.0,34.75,19.75,15.3,59.0,86.0,0.0,0.0,0.0,0.0,95.0,75.2,95.0,77.0,95.0,78.8,93.2,77.0,0.0,0.0,86.53999999999999,94.55,67.55,59.540000000000006,0.0,0.25300000000000006,0.0,327.2,2026-01-10 14:05:33-08:00
15.06,1.0,10.0,2026-01-10 22:05:42,37.08159,-121.59972,432.0,0.0,341.1,-12.6,0.0,,0.0,0.0,0.0,11.0,-0.9,51.2,0.0,-167.0,0.0,-0.02,1.0,0.0,-72.0,15.0,0.0,30.44,-176.0,0.0,0.0,241.0,0.0,0.0,0.0,0.0,0.0,0.0,0.0,0.0,0.0,0.0,0.0,0.0,0.0,0.0,0.0,0.0,0.0,0.0,0.0,0.0,0.0,0.0,0.0,0.0,0.0,30.0,0.0,0.0,30.5,0.0,0.0,0.0,0.6,0.0,0.0,37.7,0.0,0.0,-0.6,0.8,0.3,0.0,0.0,0.0,0.0,35.0,24.0,35.0,25.0,35.0,26.0,34.0,25.0,0.0,0.0,-2.0,254.4,0.0,0.6,-9.0,0.0,0.0,0.0,0.653,0.732,0.0,30.3,0.0,0.0,0.0,,0.0,0.0,34.75,19.75,15.3,59.0,86.0,0.0,0.0,0.0,0.0,95.0,75.2,95.0,77.0,95.0,78.8,93.2,77.0,0.0,0.0,86.53999999999999,94.55,67.55,59.540000000000006,0.0,0.25300000000000006,0.0,327.2,2026-01-10 14:05:33-08:00
16.06,1.0,10.0,2026-01-10 22:05:43,37.08159,-121.59972,434.0,0.0,341.1,-12.6,0.0,,0.0,0.0,0.0,11.1,-0.9,51.2,0.0,-169.0,0.0,-0.02,1.0,0.0,-91.0,15.0,0.0,30.44,-181.0,0.0,0.0,241.0,0.0,0.0,0.0,0.0,0.0,0.0,0.0,0.0,0.0,0.0,0.0,0.0,0.0,0.0,0.0,0.0,0.0,0.0,0.0,0.0,0.0,0.0,0.0,0.0,0.0,30.0,0.0,0.0,30.5,0.0,0.0,0.0,0.6,0.0,0.0,37.7,0.0,0.0,-0.6,0.8,0.3,0.0,0.0,0.0,0.0,35.0,25.0,35.0,25.0,35.0,26.0,34.0,25.0,0.0,0.0,-2.0,254.4,0.0,0.6,-9.0,0.0,0.0,0.0,0.653,0.732,0.0,30.3,0.0,0.0,0.0,,0.0,0.0,34.75,19.75,15.3,59.0,86.0,0.0,0.0,0.0,0.0,95.0,77.0,95.0,77.0,95.0,78.8,93.2,77.0,0.0,0.0,86.53999999999999,94.55,67.55,59.540000000000006,0.0,0.25300000000000006,0.0,327.2,2026-01-10 14:05:33-08:00
17.06,1.0,10.0,2026-01-10 22:05:44,37.08159,-121.59972,434.0,0.0,341.1,-12.6,0.0,,0.0,0.0,0.0,11.1,-0.9,51.2,0.0,-170.0,-0.0,-0.02,1.0,0.0,-75.0,15.0,0.0,30.44,-181.0,0.0,0.0,241.0,0.0,0.0,0.0,0.0,0.0,0.0,0.0,0.0,0.0,0.0,0.0,0.0,0.0,0.0,0.0,0.0,0.0,0.0,0.0,0.0,0.0,0.0,0.0,0.0,0.0,30.0,0.0,0.0,30.5,0.0,0.0,0.0,0.6,0.0,0.0,37.7,0.0,0.0,-0.6,0.8,0.3,0.0,0.0,0.0,0.0,35.0,24.0,35.0,25.0,35.0,26.0,34.0,25.0,0.0,0.0,-2.0,254.4,0.0,0.6,-9.0,0.0,0.0,0.0,0.653,0.732,0.0,30.3,0.0,0.0,0.0,,0.0,0.0,34.75,19.75,15.3,59.0,86.0,0.0,0.0,0.0,0.0,95.0,75.2,95.0,77.0,95.0,78.8,93.2,77.0,0.0,0.0,86.53999999999999,94.55,67.55,59.540000000000006,0.0,0.25300000000000006,0.0,327.2,2026-01-10 14:05:33-08:00
18.06,1.0,10.0,2026-01-10 22:05:45,37.08159,-121.59972,434.0,0.0,341.1,-12.6,0.0,,0.0,0.0,0.0,11.0,-0.9,51.2,0.0,-170.0,0.0,-0.02,1.0,0.0,-45.0,15.0,0.0,30.44,-181.0,0.0,0.0,241.0,0.0,0.0,0.0,0.0,0.0,0.0,0.0,0.0,0.0,0.0,0.0,0.0,0.0,0.0,0.0,0.0,0.0,0.0,0.0,0.0,0.0,0.0,0.0,0.0,0.0,30.0,0.0,0.0,30.5,0.0,0.0,0.0,0.6,0.0,0.0,37.7,0.0,0.0,-0.6,0.8,0.3,0.0,0.0,0.0,0.0,35.0,24.0,35.0,25.0,35.0,26.0,34.0,25.0,0.0,0.0,-2.0,254.4,0.0,0.6,-9.0,0.0,0.0,0.0,0.653,0.732,0.0,30.3,0.0,0.0,0.0,,0.0,0.0,34.75,19.75,15.3,59.0,86.0,0.0,0.0,0.0,0.0,95.0,75.2,95.0,77.0,95.0,78.8,93.2,77.0,0.0,0.0,86.53999999999999,94.55,67.55,59.540000000000006,0.0,0.25300000000000006,0.0,327.2,2026-01-10 14:05:33-08:00
19.06,1.0,10.0,2026-01-10 22:05:46,37.08159,-121.59972,434.0,0.0,341.1,-12.6,0.0,,0.0,0.0,0.0,11.0,-0.9,51.2,0.0,-171.0,0.0,-0.02,1.0,0.0,-35.0,15.0,0.0,30.44,-184.0,0.0,0.0,241.0,0.0,0.0,0.0,0.0,0.0,0.0,0.0,0.0,0.0,0.0,0.0,0.0,0.0,0.0,0.0,0.0,0.0,0.0,0.0,0.0,0.0,0.0,0.0,0.0,0.0,30.0,0.0,0.0,30.5,0.0,0.0,0.0,0.4,0.0,0.0,37.7,0.0,0.0,-0.6,0.8,0.3,0.0,0.0,0.0,0.0,35.0,24.0,35.0,25.0,35.0,26.0,34.0,25.0,0.0,0.0,-2.0,254.4,0.0,0.4,-9.0,0.0,0.0,0.0,0.653,0.732,0.0,30.3,0.0,0.0,0.0,,0.0,0.0,34.75,19.75,15.3,59.0,86.0,0.0,0.0,0.0,0.0,95.0,75.2,95.0,77.0,95.0,78.8,93.2,77.0,0.0,0.0,86.53999999999999,94.55,67.55,59.540000000000006,0.0,0.25300000000000006,0.0,327.2,2026-01-10 14:05:33-08:00
20.06,1.0,10.0,2026-01-10 22:05:47,37.08159,-121.59972,435.0,0.0,341.1,-12.6,0.0,,0.0,0.0,0.0,11.0,-0.9,51.2,0.0,-171.0,0.0,-0.02,1.0,0.0,-39.0,15.0,0.0,30.44,-182.0,0.0,0.0,241.0,0.0,0.0,0.0,0.0,0.0,0.0,0.0,0.0,0.0,0.0,0.0,0.0,0.0,0.0,0.0,0.0,0.0,0.0,0.0,0.0,0.0,0.0,0.0,0.0,0.0,30.0,0.0,0.0,30.5,0.0,0.0,0.0,0.2,0.0,0.0,37.7,0.0,0.0,-0.6,0.8,0.3,0.0,0.0,0.0,0.0,35.0,24.0,35.0,25.0,35.0,26.0,34.0,25.0,0.0,0.0,-2.0,254.4,0.0,0.2,-9.0,0.0,0.0,0.0,0.653,0.732,0.0,30.3,0.0,0.0,0.0,,0.0,0.0,34.75,19.75,15.3,59.0,86.0,0.0,0.0,0.0,0.0,95.0,75.2,95.0,77.0,95.0,78.8,93.2,77.0,0.0,0.0,86.53999999999999,94.55,67.55,59.540000000000006,0.0,0.25300000000000006,0.0,327.2,2026-01-10 14:05:33-08:00
21.06,1.0,10.0,2026-01-10 22:05:48,37.08159,-121.59972,435.0,0.0,341.1,-12.6,0.0,,0.0,0.0,0.0,11.0,-0.9,51.3,0.0,-171.0,0.0,-0.02,1.0,0.0,-15.0,15.0,0.0,30.44,-182.0,0.0,0.0,241.0,0.0,0.0,0.0,0.0,0.0,0.0,0.0,0.0,0.0,0.0,0.0,0.0,0.0,0.0,0.0,0.0,0.0,0.0,0.0,0.0,0.0,0.0,0.0,0.0,0.0,30.0,0.0,0.0,30.5,0.0,0.0,0.0,0.0,0.0,0.0,37.7,0.0,0.0,-0.6,0.8,0.3,0.0,0.0,0.0,0.0,35.0,24.0,35.0,25.0,35.0,26.0,34.0,25.0,0.0,0.0,-2.0,254.4,0.0,0.0,-9.0,0.0,0.0,0.0,0.653,0.732,0.0,30.3,0.0,0.0,0.0,,0.0,0.0,34.75,19.75,15.3,59.0,86.0,0.0,0.0,0.0,0.0,95.0,75.2,95.0,77.0,95.0,78.8,93.2,77.0,0.0,0.0,86.53999999999999,94.55,67.55,59.540000000000006,0.0,0.25300000000000006,0.0,327.2,2026-01-10 14:05:33-08:00
22.06,1.0,10.0,2026-01-10 22:05:49,37.08159,-121.59972,435.0,0.0,341.1,-12.6,0.0,,0.0,0.0,0.0,11.0,-0.9,51.2,0.0,-171.0,0.0,-0.02,1.0,0.0,-8.0,15.0,0.0,30.44,-182.0,0.0,0.0,241.0,0.0,0.0,0.0,0.0,0.0,0.0,0.0,0.0,0.0,0.0,0.0,0.0,0.0,0.0,0.0,0.0,0.0,0.0,0.0,0.0,0.0,0.0,0.0,0.0,0.0,30.0,0.0,0.0,30.5,0.0,0.0,0.0,0.0,0.0,0.0,37.7,0.0,0.0,-0.6,0.8,0.3,0.0,0.0,0.0,0.0,35.0,24.0,35.0,25.0,35.0,26.0,34.0,25.0,0.0,0.0,-2.0,254.4,0.0,0.0,-9.0,0.0,0.0,0.0,0.653,0.732,0.0,30.3,0.0,0.0,0.0,,0.0,0.0,34.75,19.75,15.3,59.0,86.0,0.0,0.0,0.0,0.0,95.0,75.2,95.0,77.0,95.0,78.8,93.2,77.0,0.0,0.0,86.53999999999999,94.55,67.55,59.540000000000006,0.0,0.25300000000000006,0.0,327.2,2026-01-10 14:05:33-08:00
23.06,1.0,10.0,2026-01-10 22:05:50,37.08158,-121.59972,436.0,0.0,341.1,-12.6,0.0,,0.0,0.0,0.0,11.0,-0.9,51.2,0.0,-171.0,0.0,-0.02,1.0,0.0,6.0,15.0,0.0,30.44,-175.0,0.0,0.0,241.0,0.0,0.0,0.0,0.0,0.0,0.0,0.0,0.0,0.0,0.0,0.0,0.0,0.0,0.0,0.0,0.0,0.0,0.0,0.0,0.0,0.0,0.0,0.0,0.0,0.0,30.0,0.0,0.0,30.5,0.0,0.0,0.0,0.0,0.0,0.0,37.7,0.0,0.0,-0.6,0.8,0.3,0.0,0.0,0.0,0.0,35.0,24.0,35.0,25.0,35.0,26.0,34.0,25.0,0.0,0.0,-2.0,254.4,0.0,0.0,-9.0,0.0,0.0,0.0,0.653,0.731,0.0,30.3,0.0,0.0,0.0,,0.0,0.0,34.75,19.75,15.3,59.0,86.0,0.0,0.0,0.0,0.0,95.0,75.2,95.0,77.0,95.0,78.8,93.2,77.0,0.0,0.0,86.53999999999999,94.55,67.55,59.540000000000006,0.0,0.25300000000000006,0.0,327.2,2026-01-10 14:05:33-08:00
24.06,1.0,10.0,2026-01-10 22:05:51,37.08158,-121.59972,436.0,0.0,341.1,-12.6,0.0,,0.0,0.0,0.0,11.0,-0.9,51.2,0.0,-171.0,0.0,-0.02,1.0,0.0,0.0,15.0,0.0,30.44,-175.0,0.0,0.0,241.0,0.0,0.0,0.0,0.0,0.0,0.0,0.0,0.0,0.0,0.0,0.0,0.0,0.0,0.0,0.0,0.0,0.0,0.0,0.0,0.0,0.0,0.0,0.0,0.0,0.0,30.0,0.0,0.0,30.5,0.0,0.0,0.0,0.0,0.0,0.0,37.7,0.0,0.0,-0.6,0.8,0.3,0.0,0.0,0.0,0.0,35.0,24.0,35.0,25.0,35.0,26.0,34.0,25.0,0.0,0.0,-2.0,254.4,0.0,0.0,-9.0,0.0,0.0,0.0,0.653,0.731,0.0,30.3,0.0,0.0,0.0,,0.0,0.0,34.75,19.75,15.3,59.0,86.0,0.0,0.0,0.0,0.0,95.0,75.2,95.0,77.0,95.0,78.8,93.2,77.0,0.0,0.0,86.53999999999999,94.55,67.55,59.540000000000006,0.0,0.25300000000000006,0.0,327.2,2026-01-10 14:05:33-08:00
25.06,1.0,10.0,2026-01-10 22:05:52,37.08158,-121.59972,436.0,0.0,341.1,-12.6,0.0,,0.0,0.0,0.0,11.0,-0.9,51.2,0.0,-171.0,0.0,-0.02,1.0,0.0,9.0,15.0,0.0,30.44,-175.0,0.0,0.0,241.0,0.0,0.0,0.0,0.0,0.0,0.0,0.0,0.0,0.0,0.0,0.0,0.0,0.0,0.0,0.0,0.0,0.0,0.0,0.0,0.0,0.0,0.0,0.0,0.0,0.0,30.0,0.0,0.0,30.5,0.0,0.0,0.0,0.0,0.0,0.0,37.7,0.0,0.0,-0.6,0.8,0.3,0.0,0.0,0.0,0.0,35.0,24.0,35.0,25.0,35.0,26.0,34.0,25.0,0.0,0.0,-2.0,254.4,0.0,0.0,-9.0,0.0,0.0,0.0,0.653,0.731,0.0,30.3,0.0,0.0,0.0,,0.0,0.0,34.75,19.75,15.3,59.0,86.0,0.0,0.0,0.0,0.0,95.0,75.2,95.0,77.0,95.0,78.8,93.2,77.0,0.0,0.0,86.53999999999999,94.55,67.55,59.540000000000006,0.0,0.25300000000000006,0.0,327.2,2026-01-10 14:05:33-08:00
26.06,1.0,10.0,2026-01-10 22:05:53,37.08158,-121.59972,436.0,0.0,341.1,-12.6,0.0,,0.0,0.0,0.0,11.0,-0.9,51.2,0.0,-171.0,-0.0,-0.02,1.0,0.0,35.0,15.0,0.0,30.44,-174.0,0.0,0.0,241.0,0.0,0.0,0.0,0.0,0.0,0.0,0.0,0.0,0.0,0.0,0.0,0.0,0.0,0.0,0.0,0.0,0.0,0.0,0.0,0.0,0.0,0.0,0.0,0.0,0.0,30.0,0.0,0.0,30.5,0.0,0.0,0.0,0.0,0.0,0.0,37.7,0.0,0.0,-0.6,0.8,0.3,0.0,0.0,0.0,0.0,35.0,24.0,35.0,25.0,35.0,26.0,34.0,25.0,0.0,0.0,-2.0,254.4,0.0,0.0,-8.0,0.0,0.0,0.0,0.653,0.731,0.0,30.3,0.0,0.0,0.0,,0.0,0.0,34.75,19.75,15.3,59.0,86.0,0.0,0.0,0.0,0.0,95.0,75.2,95.0,77.0,95.0,78.8,93.2,77.0,0.0,0.0,86.53999999999999,94.55,67.55,59.540000000000006,0.0,0.25300000000000006,0.0,327.2,2026-01-10 14:05:33-08:00
27.06,1.0,10.0,2026-01-10 22:05:54,37.08158,-121.59972,437.0,0.1,341.1,-12.6,0.0,,0.0,0.0,0.0,11.0,-0.9,51.2,0.0,-171.0,-0.0,-0.02,1.0,0.0,4.0,15.0,0.0,30.44,-174.0,0.0,0.0,241.0,0.0,0.0,0.0,0.0,0.0,0.0,0.0,0.0,0.0,0.0,0.0,0.0,0.0,0.0,0.0,0.0,0.0,0.0,0.0,0.0,0.0,0.0,0.0,0.0,0.0,30.0,0.0,0.0,30.5,0.0,0.0,0.0,0.0,0.0,0.0,37.7,0.0,0.0,-0.6,0.8,0.3,0.0,0.0,0.0,0.0,35.0,24.0,35.0,25.0,35.0,26.0,34.0,25.0,0.0,0.0,-2.0,254.4,0.0,0.0,-9.0,0.0,0.0,0.0,0.653,0.732,0.0,30.3,0.0,0.0,0.0,,0.0,0.0,34.75,19.75,15.3,59.0,86.0,0.0,0.0,0.0,0.0,95.0,75.2,95.0,77.0,95.0,78.8,93.2,77.0,0.0,0.0,86.53999999999999,94.55,67.55,59.540000000000006,0.0,0.3373333333333334,0.0,327.2,2026-01-10 14:05:33-08:00
28.06,1.0,10.0,2026-01-10 22:05:55,37.08158,-121.59972,437.0,0.0,341.1,-12.6,0.0,,0.0,0.0,0.0,11.0,-0.9,51.3,0.0,-171.0,0.0,-0.02,1.0,0.0,-28.0,15.0,0.0,30.44,-174.0,0.0,0.0,241.0,0.0,0.0,0.0,0.0,0.0,0.0,0.0,0.0,0.0,0.0,0.0,0.0,0.0,0.0,0.0,0.0,0.0,0.0,0.0,0.0,0.0,0.0,0.0,0.0,0.0,30.0,0.0,0.0,30.5,0.0,0.0,0.0,0.0,0.0,0.0,37.7,0.0,0.0,-0.6,0.8,0.3,0.0,0.0,0.0,0.0,35.0,24.0,35.0,25.0,35.0,26.0,34.0,25.0,0.0,0.0,-2.0,254.4,0.0,0.0,-9.0,0.0,0.0,0.0,0.653,0.731,0.0,30.3,0.0,0.0,0.0,,0.0,0.0,34.75,19.75,15.3,59.0,86.0,0.0,0.0,0.0,0.0,95.0,75.2,95.0,77.0,95.0,78.8,93.2,77.0,0.0,0.0,86.53999999999999,94.55,67.55,59.540000000000006,0.0,0.42166666666666675,0.0,327.2,2026-01-10 14:05:33-08:00
29.06,1.0,10.0,2026-01-10 22:05:56,37.08158,-121.59972,437.0,0.0,341.1,-12.6,0.0,,0.0,0.0,0.0,11.0,-0.9,51.3,0.0,-172.0,0.0,-0.02,1.0,0.0,-18.0,15.0,0.0,30.44,-174.0,0.0,0.0,241.0,0.0,0.0,0.0,0.0,0.0,0.0,0.0,0.0,0.0,0.0,0.0,0.0,0.0,0.0,0.0,0.0,0.0,0.0,0.0,0.0,0.0,0.0,0.0,0.0,0.0,30.0,0.0,0.0,30.5,0.0,0.0,0.0,0.0,0.0,0.0,37.7,0.0,0.0,-0.6,0.8,0.3,0.0,0.0,0.0,0.0,35.0,24.0,35.0,25.0,35.0,26.0,34.0,25.0,0.0,0.0,-2.0,254.4,0.0,0.0,-9.0,0.0,0.0,0.0,0.653,0.731,0.0,30.3,0.0,0.0,0.0,,0.0,0.0,34.75,19.75,15.3,59.0,86.0,0.0,0.0,0.0,0.0,95.0,75.2,95.0,77.0,95.0,78.8,93.2,77.0,0.0,0.0,86.53999999999999,94.55,67.55,59.540000000000006,0.0,0.42166666666666675,0.0,327.2,2026-01-10 14:05:33-08:00
30.06,1.0,10.0,2026-01-10 22:05:57,37.08158,-121.59972,437.0,0.0,341.1,-12.6,0.0,,0.0,0.0,0.0,11.0,-0.8,51.3,0.0,-174.0,0.0,-0.02,1.0,0.0,-68.0,15.0,0.0,30.44,-174.0,0.0,0.0,241.0,0.0,0.0,0.0,0.0,0.0,0.0,0.0,0.0,0.0,0.0,0.0,0.0,0.0,0.0,0.0,0.0,0.0,0.0,0.0,0.0,0.0,0.0,0.0,0.0,0.0,30.0,0.0,0.0,30.5,0.0,0.0,0.0,0.0,0.0,0.0,37.7,0.0,0.0,-0.6,0.8,0.3,0.0,0.0,0.0,0.0,35.0,24.0,35.0,25.0,35.0,26.0,34.0,25.0,0.0,0.0,-2.0,254.4,0.0,0.0,-9.0,0.0,0.0,0.0,0.653,0.731,0.0,30.3,0.0,0.0,0.0,,0.0,0.0,34.75,19.75,15.3,59.0,86.0,0.0,0.0,0.0,0.0,95.0,75.2,95.0,77.0,95.0,78.8,93.2,77.0,0.0,0.0,86.53999999999999,94.55,67.55,59.540000000000006,0.0,0.42166666666666675,0.0,327.2,2026-01-10 14:05:33-08:00
31.06,1.0,10.0,2026-01-10 22:05:58,37.08158,-121.59972,437.0,0.0,341.1,-12.6,0.0,,0.0,0.0,0.0,11.0,-0.9,51.3,0.0,-176.0,0.0,-0.01,1.0,0.0,-82.0,15.0,0.0,30.44,-174.0,0.0,0.0,241.0,0.0,0.0,0.0,0.0,0.0,0.0,0.0,0.0,0.0,0.0,0.0,0.0,0.0,0.0,0.0,0.0,0.0,0.0,0.0,0.0,0.0,0.0,0.0,0.0,0.0,30.0,0.0,0.0,30.5,0.0,0.0,0.0,0.0,0.0,0.0,37.7,0.0,0.0,-0.6,0.8,0.3,0.0,0.0,0.0,0.0,35.0,24.0,35.0,25.0,35.0,26.0,34.0,25.0,0.0,0.0,-2.0,254.4,0.0,0.0,-9.0,0.0,0.0,0.0,0.653,0.731,0.0,30.3,0.0,0.0,0.0,,0.0,0.0,34.75,19.75,15.3,59.0,86.0,0.0,0.0,0.0,0.0,95.0,75.2,95.0,77.0,95.0,78.8,93.2,77.0,0.0,0.0,86.53999999999999,94.55,67.55,59.540000000000006,0.0,0.42166666666666675,0.0,327.2,2026-01-10 14:05:33-08:00
32.06,1.0,10.0,2026-01-10 22:05:59,37.08159,-121.59972,437.0,0.0,341.1,-12.6,0.0,,0.0,0.0,0.0,11.0,-0.9,51.3,0.0,-176.0,0.0,-0.02,1.0,0.0,-61.0,15.0,0.0,30.44,-170.0,0.0,0.0,241.0,0.0,0.0,0.0,0.0,0.0,0.0,0.0,0.0,0.0,0.0,0.0,0.0,0.0,0.0,0.0,0.0,0.0,0.0,0.0,0.0,0.0,0.0,0.0,0.0,0.0,30.0,0.0,0.0,30.5,0.0,0.0,0.0,0.0,0.0,0.0,37.7,0.0,0.0,-0.6,0.8,0.3,0.0,0.0,0.0,0.0,35.0,24.0,35.0,25.0,35.0,26.0,34.0,25.0,0.0,0.0,-2.0,254.4,0.0,0.0,-9.0,0.0,0.0,0.0,0.653,0.731,0.0,30.3,0.0,0.0,0.0,,0.0,0.0,34.75,19.75,15.3,59.0,86.0,0.0,0.0,0.0,0.0,95.0,75.2,95.0,77.0,95.0,78.8,93.2,77.0,0.0,0.0,86.53999999999999,94.55,67.55,59.540000000000006,0.0,0.42166666666666675,0.0,327.2,2026-01-10 14:05:33-08:00
33.06,1.0,10.0,2026-01-10 22:06:00,37.08159,-121.59972,437.0,0.1,341.1,-12.6,0.0,,0.0,0.0,0.0,11.0,-0.9,51.2,0.0,-177.0,0.0,-0.01,1.0,0.0,-65.0,15.0,0.0,30.44,-170.0,0.0,0.0,241.0,0.0,0.0,0.0,0.0,0.0,0.0,0.0,0.0,0.0,0.0,0.0,0.0,0.0,0.0,0.0,0.0,0.0,0.0,0.0,0.0,0.0,0.0,0.0,0.0,0.0,30.0,0.0,0.0,30.5,0.0,0.0,0.0,0.0,0.0,0.0,37.7,0.0,0.0,-0.6,0.8,0.3,0.0,0.0,0.0,0.0,35.0,24.0,35.0,25.0,35.0,26.0,34.0,25.0,0.0,0.0,-2.0,254.4,0.0,0.0,-9.0,0.0,0.0,0.0,0.653,0.731,0.0,30.3,0.0,0.0,0.0,,0.0,0.0,34.75,19.75,15.3,59.0,86.0,0.0,0.0,0.0,0.0,95.0,75.2,95.0,77.0,95.0,78.8,93.2,77.0,0.0,0.0,86.53999999999999,94.55,67.55,59.540000000000006,0.0,0.506,0.0,327.2,2026-01-10 14:05:33-08:00
34.06,1.0,10.0,2026-01-10 22:06:01,37.08159,-121.59972,437.0,0.0,341.1,-12.6,0.0,,0.0,0.0,0.0,11.0,-0.8,51.3,0.0,-179.0,0.0,-0.02,1.0,0.0,-84.0,15.0,0.0,30.44,-170.0,0.0,0.0,241.0,0.0,0.0,0.0,0.0,0.0,0.0,0.0,0.0,0.0,0.0,0.0,0.0,0.0,0.0,0.0,0.0,0.0,0.0,0.0,0.0,0.0,0.0,0.0,0.0,0.0,30.0,0.0,0.0,30.5,0.0,0.0,0.0,0.0,0.0,0.0,37.7,0.0,0.0,-0.6,0.8,0.3,0.0,0.0,0.0,0.0,35.0,24.0,35.0,25.0,35.0,26.0,34.0,25.0,0.0,0.0,-2.0,254.4,0.0,0.0,-9.0,0.0,0.0,0.0,0.653,0.731,0.0,30.3,0.0,0.0,0.0,,0.0,0.0,34.75,19.75,15.3,59.0,86.0,0.0,0.0,0.0,0.0,95.0,75.2,95.0,77.0,95.0,78.8,93.2,77.0,0.0,0.0,86.53999999999999,94.55,67.55,59.540000000000006,0.0,0.5903333333333334,0.0,327.2,2026-01-10 14:05:33-08:00
35.06,1.0,10.0,2026-01-10 22:06:02,37.08159,-121.59972,436.0,0.0,341.1,-12.6,0.0,,0.0,0.0,0.0,11.0,-0.8,51.3,0.0,-180.0,0.0,-0.02,1.0,0.0,-92.0,15.0,0.0,30.44,-172.0,0.0,0.0,241.0,0.0,0.0,0.0,0.0,0.0,0.0,0.0,0.0,0.0,0.0,0.0,0.0,0.0,0.0,0.0,0.0,0.0,0.0,0.0,0.0,0.0,0.0,0.0,0.0,0.0,30.0,0.0,0.0,30.5,0.0,0.0,0.0,0.0,0.0,0.0,37.7,0.0,0.0,-0.6,0.8,0.3,0.0,0.0,0.0,0.0,35.0,24.0,35.0,25.0,35.0,26.0,34.0,25.0,0.0,0.0,-2.0,254.4,0.0,0.0,-9.0,0.0,0.0,0.0,0.653,0.731,0.0,30.3,0.0,0.0,0.0,,0.0,0.0,34.75,19.75,15.3,59.0,86.0,0.0,0.0,0.0,0.0,95.0,75.2,95.0,77.0,95.0,78.8,93.2,77.0,0.0,0.0,86.53999999999999,94.55,67.55,59.540000000000006,0.0,0.5903333333333334,0.0,327.2,2026-01-10 14:05:33-08:00
36.06,1.0,10.0,2026-01-10 22:06:03,37.08159,-121.59972,436.0,0.0,341.1,-12.6,0.0,,0.0,0.0,0.0,11.0,-0.8,51.3,0.0,-183.0,0.0,-0.02,1.0,0.0,-102.0,15.0,0.0,30.44,-172.0,0.0,0.0,241.0,0.0,0.0,0.0,0.0,0.0,0.0,0.0,0.0,0.0,0.0,0.0,0.0,0.0,0.0,0.0,0.0,0.0,0.0,0.0,0.0,0.0,0.0,0.0,0.0,0.0,30.0,0.0,0.0,30.5,0.0,0.0,0.0,0.0,0.0,0.0,37.7,0.0,0.0,-0.6,0.8,0.3,0.0,0.0,0.0,0.0,35.0,24.0,35.0,25.0,35.0,26.0,34.0,25.0,0.0,0.0,-2.0,254.4,0.0,0.0,-9.0,0.0,0.0,0.0,0.653,0.731,0.0,30.3,0.0,0.0,0.0,,0.0,0.0,34.75,19.75,15.3,59.0,86.0,0.0,0.0,0.0,0.0,95.0,75.2,95.0,77.0,95.0,78.8,93.2,77.0,0.0,0.0,86.53999999999999,94.55,67.55,59.540000000000006,0.0,0.5903333333333334,0.0,327.2,2026-01-10 14:05:33-08:00
37.06,1.0,10.0,2026-01-10 22:06:04,37.08159,-121.59972,436.0,0.0,341.1,-12.6,0.0,,0.0,0.0,0.0,11.0,-0.9,51.3,0.0,-185.0,0.0,-0.02,1.0,0.0,-103.0,15.0,0.0,30.44,-172.0,0.0,0.0,241.0,0.0,0.0,0.0,0.0,0.0,0.0,0.0,0.0,0.0,0.0,0.0,0.0,0.0,0.0,0.0,0.0,0.0,0.0,0.0,0.0,0.0,0.0,0.0,0.0,0.0,30.0,0.0,0.0,30.5,0.0,0.0,0.0,0.0,0.0,0.0,37.7,0.0,0.0,-0.6,0.8,0.3,0.0,0.0,0.0,0.0,35.0,24.0,35.0,25.0,35.0,26.0,34.0,25.0,0.0,0.0,-2.0,254.4,0.0,0.0,-9.0,0.0,0.0,0.0,0.653,0.731,0.0,30.3,0.0,0.0,0.0,,0.0,0.0,34.75,19.75,15.3,59.0,86.0,0.0,0.0,0.0,0.0,95.0,75.2,95.0,77.0,95.0,78.8,93.2,77.0,0.0,0.0,86.53999999999999,94.55,67.55,59.540000000000006,0.0,0.5903333333333334,0.0,327.2,2026-01-10 14:05:33-08:00
38.06,1.0,10.0,2026-01-10 22:06:05,37.08159,-121.59972,435.0,0.0,341.1,-12.6,0.0,,0.0,0.0,0.0,11.0,-0.9,51.3,0.0,-185.0,0.0,-0.02,1.0,0.0,-85.0,15.0,0.0,30.44,-179.0,0.0,0.0,241.0,0.0,0.0,0.0,0.0,0.0,0.0,0.0,0.0,0.0,0.0,0.0,0.0,0.0,0.0,0.0,0.0,0.0,0.0,0.0,0.0,0.0,0.0,0.0,0.0,0.0,30.0,0.0,0.0,30.5,0.0,0.0,0.0,0.0,0.0,0.0,37.7,0.0,0.0,-0.6,0.8,0.3,0.0,0.0,0.0,0.0,35.0,25.0,35.0,25.0,35.0,26.0,34.0,25.0,0.0,0.0,-2.0,254.4,0.0,0.0,-9.0,0.0,0.0,0.0,0.653,0.731,0.0,30.3,0.0,0.0,0.0,,0.0,0.0,34.75,19.75,15.3,59.0,86.0,0.0,0.0,0.0,0.0,95.0,77.0,95.0,77.0,95.0,78.8,93.2,77.0,0.0,0.0,86.53999999999999,94.55,67.55,59.540000000000006,0.0,0.5903333333333334,0.0,327.2,2026-01-10 14:05:33-08:00
39.06,1.0,10.0,2026-01-10 22:06:06,37.08159,-121.59972,435.0,0.0,341.1,-12.6,0.0,,0.0,0.0,0.0,11.0,-0.9,51.3,0.0,-188.0,0.0,-0.02,1.0,0.0,-99.0,15.0,0.0,30.44,-179.0,0.0,0.0,241.0,0.0,0.0,0.0,0.0,0.0,0.0,0.0,0.0,0.0,0.0,0.0,0.0,0.0,0.0,0.0,0.0,0.0,0.0,0.0,0.0,0.0,0.0,0.0,0.0,0.0,30.0,0.0,0.0,30.5,0.0,0.0,0.0,0.0,0.0,0.0,37.7,0.0,0.0,-0.6,0.8,0.3,0.0,0.0,0.0,0.0,35.0,25.0,35.0,25.0,35.0,26.0,34.0,25.0,0.0,0.0,-2.0,254.4,0.0,0.0,-9.0,0.0,0.0,0.0,0.653,0.731,0.0,30.3,0.0,0.0,0.0,,0.0,0.0,34.75,19.75,15.3,59.0,86.0,0.0,0.0,0.0,0.0,95.0,77.0,95.0,77.0,95.0,78.8,93.2,77.0,0.0,0.0,86.53999999999999,94.55,67.55,59.540000000000006,0.0,0.5903333333333334,0.0,327.2,2026-01-10 14:05:33-08:00
40.06,1.0,10.0,2026-01-10 22:06:07,37.0816,-121.59972,434.0,0.0,341.1,-12.6,0.0,,0.0,0.0,0.0,11.0,-0.9,51.2,0.0,-189.0,0.0,-0.02,1.0,0.0,-88.0,15.0,0.0,30.44,-179.0,0.0,0.0,241.0,0.0,0.0,0.0,0.0,0.0,0.0,0.0,0.0,0.0,0.0,0.0,0.0,0.0,0.0,0.0,0.0,0.0,0.0,0.0,0.0,0.0,0.0,0.0,0.0,0.0,30.0,0.0,0.0,30.5,0.0,0.0,0.0,0.0,0.0,0.0,37.7,0.0,0.0,-0.6,0.8,0.3,0.0,0.0,0.0,0.0,35.0,25.0,35.0,25.0,35.0,26.0,34.0,25.0,0.0,0.0,-2.0,254.4,0.0,0.0,-9.0,0.0,0.0,0.0,0.653,0.731,0.0,30.3,0.0,0.0,0.0,,0.0,0.0,34.75,19.75,15.3,59.0,86.0,0.0,0.0,0.0,0.0,95.0,77.0,95.0,77.0,95.0,78.8,93.2,77.0,0.0,0.0,86.53999999999999,94.55,67.55,59.540000000000006,0.0,0.5903333333333334,0.0,327.2,2026-01-10 14:05:33-08:00
41.06,1.0,10.0,2026-01-10 22:06:08,37.0816,-121.59972,434.0,0.0,341.1,-12.6,0.0,,0.0,0.0,0.0,11.1,-0.9,51.2,0.0,-190.0,0.0,-0.02,1.0,0.0,-65.0,15.0,0.0,30.44,-184.0,0.0,0.0,241.0,0.0,0.0,0.0,0.0,0.0,0.0,0.0,0.0,0.0,0.0,0.0,0.0,0.0,0.0,0.0,0.0,0.0,0.0,0.0,0.0,0.0,0.0,0.0,0.0,0.0,30.0,0.0,0.0,30.5,0.4,0.0,0.4,8.7,0.0,0.0,37.7,0.0,0.0,-0.6,0.8,0.3,0.0,0.0,0.0,0.0,35.0,25.0,35.0,25.0,35.0,26.0,34.0,25.0,0.0,0.0,-2.0,254.3,0.0,8.7,-9.0,0.0,0.0,0.0,0.653,0.731,0.0,30.3,0.0,0.0,0.0,,0.0,0.0,34.75,19.75,15.3,59.0,86.0,0.0,0.0,0.0,0.0,95.0,77.0,95.0,77.0,95.0,78.8,93.2,77.0,0.0,0.0,86.53999999999999,94.55,67.55,59.540000000000006,5.555555555555556e-05,0.5903333333333334,0.0,327.2,2026-01-10 14:05:33-08:00
42.06,1.0,10.0,2026-01-10 22:06:09,37.0816,-121.59972,434.0,0.0,341.1,-12.6,0.0,,0.0,0.0,0.0,11.1,-0.9,51.1,0.0,-190.0,-0.0,-0.02,1.0,0.0,-57.0,16.0,0.0,30.44,-184.0,0.0,0.0,241.0,0.0,0.0,0.0,0.0,0.0,0.0,0.0,0.0,0.0,0.0,0.0,0.0,0.0,0.0,0.0,0.0,0.0,0.0,0.0,0.0,0.0,0.0,0.0,0.0,0.0,30.0,0.0,0.0,30.5,1.1,0.0,1.1,30.7,0.0,0.0,37.7,0.0,0.0,-0.5,0.8,0.3,0.0,0.0,0.0,0.0,35.0,25.0,35.0,25.0,35.0,26.0,34.0,25.0,0.0,0.0,-2.0,236.5,0.0,30.7,-9.0,0.0,0.0,0.0,0.653,0.731,0.0,30.3,0.0,0.0,0.0,,0.0,0.0,34.75,18.75,14.3,60.8,86.0,0.0,0.0,0.0,0.0,95.0,77.0,95.0,77.0,95.0,78.8,93.2,77.0,0.0,0.0,86.53999999999999,94.55,65.75,57.74,0.0002638888888888889,0.5903333333333334,0.0,327.2,2026-01-10 14:05:33-08:00
43.06,1.0,10.0,2026-01-10 22:06:10,37.0816,-121.59972,433.0,0.0,341.1,-12.6,0.0,,0.0,0.0,0.0,11.1,-1.0,51.1,0.0,-191.0,0.0,-0.02,1.0,0.0,-61.0,16.0,0.0,30.44,-184.0,0.0,0.0,241.0,0.0,0.0,0.0,0.0,0.0,0.0,0.0,0.0,0.0,0.0,0.0,0.0,0.0,0.0,0.0,0.0,0.0,0.0,0.0,0.0,0.0,0.0,0.0,0.0,0.0,30.0,0.0,0.0,30.5,1.5,0.0,1.5,34.1,0.0,0.0,37.7,0.0,0.0,-0.5,0.8,0.3,0.0,0.0,0.0,0.0,35.0,25.0,35.0,25.0,35.0,26.0,34.0,25.0,0.0,0.0,-2.0,184.1,0.0,34.1,-9.0,0.0,0.0,0.0,0.653,0.731,0.0,30.3,0.0,0.0,0.0,,0.0,0.0,34.75,18.75,14.3,60.8,86.0,0.0,0.0,0.0,0.0,95.0,77.0,95.0,77.0,95.0,78.8,93.2,77.0,0.0,0.0,86.53999999999999,94.55,65.75,57.74,0.0006250000000000001,0.5903333333333334,0.0,327.2,2026-01-10 14:05:33-08:00
44.06,1.0,10.0,2026-01-10 22:06:11,37.0816,-121.59972,433.0,0.1,341.1,-12.6,0.0,,0.0,0.0,0.0,11.1,-0.9,51.1,0.0,-192.0,0.0,-0.02,1.0,0.0,-49.0,16.0,0.0,30.44,-176.0,0.0,0.0,241.0,0.0,0.0,0.0,0.0,0.0,0.0,0.0,0.0,0.0,0.0,0.0,0.0,0.0,0.0,0.0,0.0,0.0,0.0,0.0,0.0,0.0,0.0,0.0,0.0,0.0,30.0,0.0,0.0,30.5,1.3,0.0,1.3,34.0,0.0,0.0,37.7,0.0,0.0,-0.5,0.8,0.3,0.0,0.0,0.0,0.0,35.0,25.0,35.0,25.0,35.0,26.0,34.0,25.0,0.0,0.0,-2.0,143.3,0.0,34.0,-9.0,0.0,0.0,0.0,0.653,0.731,0.0,30.3,0.0,0.0,0.0,,0.0,0.0,34.75,18.75,14.3,60.8,86.0,0.0,0.0,0.0,0.0,95.0,77.0,95.0,77.0,95.0,78.8,93.2,77.0,0.0,0.0,86.53999999999999,94.55,65.75,57.74,0.001013888888888889,0.6746666666666667,0.07692307692307693,327.2,2026-01-10 14:05:33-08:00
45.06,1.0,10.0,2026-01-10 22:06:12,37.0816,-121.59972,432.0,0.0,341.1,-12.6,0.0,,0.0,0.0,0.0,11.1,-0.9,51.2,0.0,-192.0,0.0,-0.02,1.0,0.0,-12.0,16.0,0.0,30.44,-179.0,0.0,0.0,241.0,0.0,0.0,0.0,0.0,0.0,0.0,0.0,0.0,0.0,0.0,0.0,0.0,0.0,0.0,0.0,0.0,0.0,0.0,0.0,0.0,0.0,0.0,0.0,0.0,0.0,30.0,0.0,0.0,30.5,1.3,0.0,1.3,33.6,0.0,0.0,37.7,0.0,0.0,-0.6,0.8,0.3,0.0,0.0,0.0,0.0,35.0,25.0,35.0,25.0,35.0,26.0,34.0,25.0,0.0,0.0,-2.0,111.6,0.0,33.6,-9.0,0.0,0.0,0.0,0.653,0.731,0.0,30.3,0.0,0.0,0.0,,0.0,0.0,34.75,18.75,14.3,60.8,86.0,0.0,0.0,0.0,0.0,95.0,77.0,95.0,77.0,95.0,78.8,93.2,77.0,0.0,0.0,86.53999999999999,94.55,65.75,57.74,0.0013750000000000001,0.759,0.0,327.2,2026-01-10 14:05:33-08:00
46.06,1.0,10.0,2026-01-10 22:06:13,37.0816,-121.59972,432.0,0.1,341.1,-12.6,0.0,,0.0,0.0,0.0,11.1,-0.9,51.1,0.0,-192.0,0.0,-0.02,1.0,0.0,10.0,16.0,0.0,30.44,-179.0,0.0,0.0,241.0,0.0,0.0,0.0,0.0,0.0,0.0,0.0,0.0,0.0,0.0,0.0,0.0,0.0,0.0,0.0,0.0,0.0,0.0,0.0,0.0,0.0,0.0,0.0,0.0,0.0,30.0,0.0,0.0,30.5,1.3,0.0,1.3,33.4,0.0,0.0,37.7,0.0,0.0,-0.6,0.8,0.3,0.0,0.0,0.0,0.0,35.0,25.0,35.0,25.0,35.0,26.0,34.0,25.0,0.0,0.0,-2.0,87.0,0.0,33.4,-9.0,0.0,0.0,0.0,0.653,0.731,0.0,30.2,0.0,0.0,0.0,,0.0,0.0,34.75,18.75,14.2,60.8,86.0,0.0,0.0,0.0,0.0,95.0,77.0,95.0,77.0,95.0,78.8,93.2,77.0,0.0,0.0,86.36,94.55,65.75,57.56,0.0017361111111111112,0.8433333333333334,0.07692307692307693,327.2,2026-01-10 14:05:33-08:00
47.06,1.0,10.0,2026-01-10 22:06:14,37.0816,-121.59972,432.0,0.0,341.1,-12.6,0.0,,0.0,0.0,0.0,11.1,-0.9,51.1,0.0,-192.0,0.0,-0.02,1.0,0.0,6.0,16.0,0.0,30.44,-179.0,0.0,0.0,241.0,0.0,0.0,0.0,0.0,0.0,0.0,0.0,0.0,0.0,0.0,0.0,0.0,0.0,0.0,0.0,0.0,0.0,0.0,0.0,0.0,0.0,0.0,0.0,0.0,0.0,30.0,0.0,0.0,30.5,0.0,0.0,0.0,33.2,0.0,0.0,37.7,0.0,0.0,-0.6,0.8,0.3,0.0,0.0,0.0,0.0,35.0,25.0,35.0,25.0,35.0,26.0,34.0,25.0,0.0,0.0,-2.0,67.8,0.0,33.2,-9.0,0.0,0.0,0.0,0.653,0.731,0.0,30.3,0.0,0.0,0.0,,0.0,0.0,34.75,18.75,14.3,60.8,86.0,0.0,0.0,0.0,0.0,95.0,77.0,95.0,77.0,95.0,78.8,93.2,77.0,0.0,0.0,86.53999999999999,94.55,65.75,57.74,0.0019166666666666668,0.9276666666666666,0.0,327.2,2026-01-10 14:05:33-08:00
48.06,1.0,10.0,2026-01-10 22:06:15,37.0816,-121.59972,431.0,0.0,341.1,-12.6,0.0,,0.0,0.0,0.0,11.1,-0.9,51.2,0.0,-192.0,0.0,-0.02,1.0,0.0,-35.0,16.0,0.0,30.44,-177.0,0.0,0.0,241.0,0.0,0.0,0.0,0.0,0.0,0.0,0.0,0.0,0.0,0.0,0.0,0.0,0.0,0.0,0.0,0.0,0.0,0.0,0.0,0.0,0.0,0.0,0.0,0.0,0.0,30.0,0.0,0.0,30.5,0.0,0.0,0.0,33.0,0.0,0.0,37.7,0.0,0.0,-0.6,0.8,0.3,0.0,0.0,0.0,0.0,35.0,25.0,35.0,25.0,35.0,26.0,34.0,25.0,0.0,0.0,-2.0,52.9,0.0,33.0,-9.0,0.0,0.0,0.0,0.653,0.731,0.0,30.2,0.0,0.0,0.0,,0.0,0.0,34.75,18.75,14.2,60.8,86.0,0.0,0.0,0.0,0.0,95.0,77.0,95.0,77.0,95.0,78.8,93.2,77.0,0.0,0.0,86.36,94.55,65.75,57.56,0.0019166666666666668,0.9276666666666666,0.0,327.2,2026-01-10 14:05:33-08:00
49.06,1.0,10.0,2026-01-10 22:06:16,37.0816,-121.59972,431.0,0.0,341.1,-12.6,0.0,,0.0,0.0,0.0,11.0,-0.9,51.2,0.0,-192.0,0.0,-0.02,1.0,0.0,2.0,16.0,0.0,30.44,-177.0,0.0,0.0,241.0,0.0,0.0,0.0,0.0,0.0,0.0,0.0,0.0,0.0,0.0,0.0,0.0,0.0,0.0,0.0,0.0,0.0,0.0,0.0,0.0,0.0,0.0,0.0,0.0,0.0,30.0,0.0,0.0,30.5,0.0,0.0,0.0,32.8,0.0,0.0,37.7,0.0,0.0,-0.6,0.8,0.3,0.0,0.0,0.0,0.0,35.0,25.0,35.0,25.0,35.0,26.0,34.0,25.0,0.0,0.0,-2.0,41.3,0.0,32.8,-9.0,0.0,0.0,0.0,0.653,0.73,0.0,30.2,0.0,0.0,0.0,,0.0,0.0,34.75,18.75,14.2,60.8,86.0,0.0,0.0,0.0,0.0,95.0,77.0,95.0,77.0,95.0,78.8,93.2,77.0,0.0,0.0,86.36,94.55,65.75,57.56,0.0019166666666666668,0.9276666666666666,0.0,327.2,2026-01-10 14:05:33-08:00
50.06,1.0,10.0,2026-01-10 22:06:17,37.0816,-121.59972,431.0,0.0,341.1,-12.6,0.0,,0.0,0.0,0.0,11.0,-0.9,51.2,0.0,-192.0,0.0,-0.02,1.0,0.0,-45.0,16.0,0.0,30.44,-177.0,0.0,0.0,241.0,0.0,0.0,0.0,0.0,0.0,0.0,0.0,0.0,0.0,0.0,0.0,0.0,0.0,0.0,0.0,0.0,0.0,0.0,0.0,0.0,0.0,0.0,0.0,0.0,0.0,30.0,0.0,0.0,30.5,0.0,0.0,0.0,32.6,0.0,0.0,37.7,0.0,0.0,-0.6,0.8,0.3,0.0,0.0,0.0,0.0,35.0,25.0,35.0,25.0,35.0,26.0,34.0,25.0,0.0,0.0,-2.0,32.3,0.0,32.6,-9.0,0.0,0.0,0.0,0.653,0.728,0.0,30.2,0.0,0.0,0.0,,0.0,0.0,34.75,18.75,14.2,60.8,86.0,0.0,0.0,0.0,0.0,95.0,77.0,95.0,77.0,95.0,78.8,93.2,77.0,0.0,0.0,86.36,94.55,65.75,57.56,0.0019166666666666668,0.9276666666666666,0.0,327.2,2026-01-10 14:05:33-08:00
51.06,1.0,10.0,2026-01-10 22:06:18,37.0816,-121.59972,430.0,0.0,341.1,-12.6,0.0,,0.0,0.0,0.0,11.0,-0.9,51.2,0.0,-194.0,0.0,-0.02,1.0,0.0,-48.0,16.0,0.0,30.44,-179.0,0.0,0.0,241.0,0.0,0.0,0.0,0.0,0.0,0.0,0.0,0.0,0.0,0.0,0.0,0.0,0.0,0.0,0.0,0.0,0.0,0.0,0.0,0.0,0.0,0.0,0.0,0.0,0.0,30.0,0.0,0.0,30.5,0.0,0.0,0.0,32.4,0.0,0.0,37.7,0.0,0.0,-0.6,0.8,0.3,0.0,0.0,0.0,0.0,35.0,25.0,35.0,25.0,35.0,26.0,34.0,25.0,0.0,0.0,-2.0,25.4,0.0,32.4,-9.0,0.0,0.0,0.0,0.653,0.726,0.0,30.2,0.0,0.0,0.0,,0.0,0.0,34.75,18.75,14.2,60.8,86.0,0.0,0.0,0.0,0.0,95.0,77.0,95.0,77.0,95.0,78.8,93.2,77.0,0.0,0.0,86.36,94.55,65.75,57.56,0.0019166666666666668,0.9276666666666666,0.0,327.2,2026-01-10 14:05:33-08:00
52.06,1.0,10.0,2026-01-10 22:06:19,37.0816,-121.59972,430.0,0.0,341.1,-12.6,0.0,,0.0,0.0,0.0,11.0,-0.9,51.2,0.0,-194.0,0.0,-0.02,1.0,0.0,-23.0,16.0,0.0,30.44,-179.0,0.0,0.0,241.0,0.0,0.0,0.0,0.0,0.0,0.0,0.0,0.0,0.0,0.0,0.0,0.0,0.0,0.0,0.0,0.0,0.0,0.0,0.0,0.0,0.0,0.0,0.0,0.0,0.0,26.0,133.0,133.0,30.5,0.0,0.0,0.0,32.5,0.0,0.0,37.7,0.0,0.0,-0.6,0.8,0.3,0.0,0.0,0.0,0.0,31.0,20.0,31.0,21.0,31.0,21.0,31.0,21.0,0.0,0.0,-2.0,19.9,0.0,32.5,-9.0,0.0,0.0,0.0,0.652,0.725,0.0,26.1,0.0,0.0,0.0,,0.0,133.0,31.0,15.0,10.100000000000001,60.8,78.8,0.0,0.0,0.0,0.0,87.8,68.0,87.8,69.8,87.8,69.8,87.8,69.8,0.0,0.0,78.98,87.8,59.0,50.18,0.0019166666666666668,0.9276666666666666,0.0,327.2,2026-01-10 14:05:33-08:00
53.06,1.0,10.0,2026-01-10 22:06:20,37.0816,-121.59972,430.0,0.1,341.1,-12.6,0.0,,0.0,0.0,0.0,11.0,-0.9,51.2,0.0,-194.0,0.0,-0.01,1.0,0.0,-16.0,16.0,0.0,30.44,-179.0,0.0,0.0,241.0,0.0,0.0,0.0,0.0,0.0,0.0,0.0,0.0,0.0,0.0,0.0,0.0,0.0,0.0,0.0,0.0,0.0,0.0,0.0,0.0,0.0,0.0,0.0,0.0,0.0,27.0,211.0,211.0,29.9,0.0,0.0,0.0,32.3,0.0,0.0,37.7,0.0,0.0,-0.6,0.8,0.3,0.0,0.0,0.0,0.0,33.0,21.0,33.0,22.0,32.0,23.0,32.0,24.0,0.0,0.0,-2.0,15.7,0.0,32.3,-9.0,0.0,0.0,0.0,0.653,0.725,0.0,27.3,0.0,0.0,0.0,,0.0,211.0,32.5,16.5,11.3,60.8,80.6,0.0,0.0,0.0,0.0,91.4,69.8,91.4,71.6,89.6,73.4,89.6,75.2,0.0,0.0,81.14,90.5,61.7,52.34,0.0019166666666666668,1.012,0.0,327.2,2026-01-10 14:05:33-08:00
54.06,1.0,10.0,2026-01-10 22:06:21,37.0816,-121.59972,429.0,0.0,341.1,-12.6,0.0,,0.0,0.0,0.0,11.0,-0.9,51.2,0.0,-194.0,0.0,-0.01,1.0,0.0,-21.0,16.0,0.0,30.44,-178.0,0.0,0.0,241.0,0.0,0.0,0.0,0.0,0.0,0.0,0.0,0.0,0.0,0.0,0.0,0.0,0.0,0.0,0.0,0.0,0.0,0.0,0.0,0.0,0.0,0.0,0.0,0.0,4.0,30.0,671.0,671.0,23.3,0.9,0.0,0.9,27.2,0.0,0.0,37.7,0.0,0.0,-0.6,0.8,0.3,0.0,0.0,0.0,0.0,35.0,45.0,35.0,44.0,35.0,67.0,35.0,58.0,0.0,0.0,-2.0,12.4,0.0,27.2,-9.0,0.0,0.0,0.0,0.663,0.726,3.8,30.3,0.0,0.0,0.0,,0.0,671.0,35.0,19.0,14.3,60.8,86.0,0.0,0.0,0.0,0.0,95.0,113.0,95.0,111.2,95.0,152.6,95.0,136.4,0.0,0.0,86.53999999999999,95.0,66.2,57.74,0.002041666666666667,1.0963333333333334,0.0,327.2,2026-01-10 14:05:33-08:00
55.06,1.0,10.0,2026-01-10 22:06:22,37.0816,-121.59972,429.0,0.1,341.1,-12.6,0.0,,0.0,0.0,0.0,11.0,-0.9,51.2,0.0,-194.0,0.1,-0.02,1.0,0.0,36.0,16.0,0.0,30.44,-178.0,0.0,0.0,241.0,0.0,0.0,0.0,0.0,0.0,0.0,0.0,0.0,0.0,0.0,0.0,0.0,0.0,0.0,0.0,0.0,0.0,0.0,0.0,0.0,0.0,0.0,0.0,0.0,13.0,30.0,834.0,834.0,20.8,1.9,0.0,1.9,25.2,0.0,0.0,37.7,0.0,0.0,-0.6,0.8,0.3,0.0,0.0,0.0,0.0,35.0,74.0,35.0,49.0,35.0,108.0,35.0,87.0,0.0,0.0,-2.0,9.9,0.0,25.2,-9.0,0.0,0.0,0.0,0.667,0.725,13.1,30.3,0.0,0.0,0.0,,0.0,834.0,35.0,19.0,14.3,60.8,86.0,0.0,0.0,0.0,0.0,95.0,165.2,95.0,120.2,95.0,226.4,95.0,188.6,0.0,0.0,86.53999999999999,95.0,66.2,57.74,0.0024305555555555556,1.1806666666666668,0.052631578947368425,327.2,2026-01-10 14:05:33-08:00
56.06,1.0,10.0,2026-01-10 22:06:23,37.0816,-121.59972,429.0,0.0,341.1,-12.6,0.0,,0.0,0.0,0.0,11.1,-0.8,51.2,0.0,-194.0,0.0,-0.01,1.0,0.0,52.0,16.0,0.0,30.44,-178.0,0.0,0.0,241.0,0.0,0.0,0.0,0.0,0.0,0.0,0.0,0.0,0.0,0.0,0.0,0.0,0.0,0.0,0.0,0.0,0.0,0.0,0.0,0.0,0.0,0.0,0.0,0.0,32.0,30.0,877.0,877.0,19.4,2.7,0.0,2.7,25.5,0.0,0.0,37.7,0.0,0.0,-0.6,0.8,0.3,0.0,0.0,0.0,0.0,35.0,100.0,35.0,60.0,35.0,158.0,36.0,119.0,0.0,0.0,-2.0,7.9,0.0,25.5,-9.0,0.0,0.0,0.0,0.664,0.725,32.0,30.3,0.0,0.0,0.0,,0.0,877.0,35.25,19.25,14.3,60.8,86.0,0.0,0.0,0.0,0.0,95.0,212.0,95.0,140.0,95.0,316.4,96.8,246.2,0.0,0.0,86.53999999999999,95.45,66.65,57.74,0.0030694444444444445,1.2650000000000001,0.0,327.2,2026-01-10 14:05:33-08:00
57.06,1.0,10.0,2026-01-10 22:06:24,37.0816,-121.59972,429.0,0.0,341.1,-12.6,0.0,,0.0,0.0,0.0,11.1,-0.9,51.2,0.0,-194.0,0.0,-0.02,1.0,0.0,72.0,16.0,0.0,30.44,-170.0,0.0,0.0,241.0,0.0,0.0,0.0,0.0,0.0,0.0,0.0,0.0,0.0,0.0,0.0,0.0,0.0,0.0,0.0,0.0,0.0,0.0,0.0,0.0,0.0,0.0,0.0,0.0,56.0,30.0,943.0,943.0,18.4,3.3,0.0,3.3,25.6,0.0,0.0,37.7,0.0,0.0,-0.6,0.8,0.3,0.0,0.0,0.0,0.0,35.0,123.0,36.0,79.0,35.0,199.0,36.0,150.0,0.0,0.0,-2.0,6.3,0.0,25.6,-9.0,0.0,0.0,0.0,0.662,0.724,55.9,30.3,0.0,0.0,0.0,,0.0,943.0,35.5,19.5,14.3,60.8,86.0,0.0,0.0,0.0,0.0,95.0,253.4,96.8,174.2,95.0,390.2,96.8,302.0,0.0,0.0,86.53999999999999,95.9,67.1,57.74,0.003902777777777778,1.2650000000000001,0.0,327.2,2026-01-10 14:05:33-08:00
58.06,1.0,10.0,2026-01-10 22:06:25,37.0816,-121.59972,428.0,0.0,341.1,-12.6,0.0,,0.0,0.0,0.0,11.0,-0.9,51.2,0.0,-194.0,0.0,-0.02,1.0,0.0,62.0,16.0,0.0,30.44,-170.0,0.0,0.0,241.0,0.0,0.0,0.0,0.0,0.0,0.0,0.0,0.0,0.0,0.0,0.0,0.0,0.0,0.0,0.0,0.0,0.0,0.0,0.0,0.0,0.0,0.0,0.0,0.0,65.0,30.0,985.0,985.0,17.5,3.5,0.0,3.5,25.7,0.0,0.0,37.7,0.0,0.0,-0.6,0.8,0.3,0.0,0.0,0.0,0.0,36.0,152.0,36.0,101.0,36.0,234.0,37.0,177.0,0.0,0.0,-2.0,5.1,0.0,25.7,-9.0,0.0,0.0,0.0,0.665,0.723,64.9,30.2,0.0,0.0,0.0,,0.0,985.0,36.25,20.25,14.2,60.8,86.0,0.0,0.0,0.0,0.0,96.8,305.6,96.8,213.8,96.8,453.2,98.6,350.6,0.0,0.0,86.36,97.25,68.45,57.56,0.004847222222222222,1.2650000000000001,0.0,327.2,2026-01-10 14:05:33-08:00
59.06,1.0,10.0,2026-01-10 22:06:26,37.0816,-121.59972,428.0,0.0,341.1,-12.6,0.0,,0.0,0.0,0.0,11.0,-0.9,51.2,0.0,-194.0,0.0,-0.02,1.0,0.0,78.0,16.0,0.0,30.44,-170.0,0.0,0.0,241.0,0.0,0.0,0.0,0.0,0.0,0.0,0.0,0.0,0.0,0.0,0.0,0.0,0.0,0.0,0.0,0.0,0.0,0.0,0.0,0.0,0.0,0.0,0.0,0.0,68.0,30.0,1049.0,1049.0,16.5,3.6,0.0,3.6,25.9,0.0,0.0,37.7,0.0,0.0,-0.6,0.8,0.3,0.0,0.0,0.0,0.0,36.0,185.0,36.0,128.0,36.0,266.0,38.0,204.0,0.0,0.0,-2.0,4.2,0.0,25.9,-9.0,0.0,0.0,0.0,0.662,0.724,67.8,30.2,0.0,0.0,0.0,,0.0,1049.0,36.5,20.5,14.2,60.8,86.0,0.0,0.0,0.0,0.0,96.8,365.0,96.8,262.4,96.8,510.8,100.4,399.2,0.0,0.0,86.36,97.7,68.9,57.56,0.005833333333333334,1.2650000000000001,0.0,327.2,2026-01-10 14:05:33-08:00
60.06,1.0,10.0,2026-01-10 22:06:27,37.0816,-121.59972,428.0,0.0,341.1,-12.6,0.0,,0.0,0.0,0.0,11.0,-0.9,51.2,0.0,-194.0,-0.0,-0.02,0.9,0.0,78.0,16.0,0.0,30.44,-168.0,0.0,0.0,241.0,0.0,0.0,0.0,0.0,0.0,0.0,0.0,0.0,0.0,0.0,0.0,0.0,0.0,0.0,0.0,0.0,0.0,0.0,0.0,0.0,0.0,0.0,0.0,0.0,69.0,30.0,1095.0,1095.0,15.8,3.5,0.0,3.5,25.9,0.0,0.0,37.7,0.0,0.0,-0.6,0.8,0.3,0.0,0.0,0.0,0.0,36.0,229.0,36.0,154.0,36.0,297.0,38.0,229.0,0.0,0.0,-2.0,3.5,0.0,25.9,-9.0,0.0,0.0,0.0,0.662,0.724,69.3,30.2,0.0,0.0,0.0,,0.0,1095.0,36.5,20.5,14.2,60.8,86.0,0.0,0.0,0.0,0.0,96.8,444.2,96.8,309.2,96.8,566.6,100.4,444.2,0.0,0.0,86.36,97.7,68.9,57.56,0.006819444444444445,1.2650000000000001,0.0,327.2,2026-01-10 14:05:33-08:00
61.06,1.0,10.0,2026-01-10 22:06:28,37.08161,-121.59972,428.0,0.1,341.1,-12.6,0.0,,0.0,0.0,0.0,11.0,-0.9,51.2,0.0,-194.0,-0.0,-0.02,1.0,0.0,65.0,16.0,0.0,30.44,-168.0,0.0,0.0,241.0,0.0,0.0,0.0,0.0,0.0,0.0,0.0,0.0,0.0,0.0,0.0,0.0,0.0,0.0,0.0,0.0,0.0,0.0,0.0,0.0,0.0,0.0,0.0,0.0,71.0,30.0,1118.0,1118.0,15.2,3.5,0.0,3.5,26.0,0.0,0.0,37.7,0.0,0.0,-0.6,0.8,0.3,0.0,0.0,0.0,0.0,36.0,267.0,36.0,183.0,37.0,326.0,39.0,252.0,0.0,0.0,-2.0,2.9,0.0,26.0,-9.0,0.0,0.0,0.0,0.659,0.723,70.5,30.2,0.0,0.0,0.0,,0.0,1118.0,37.0,21.0,14.2,60.8,86.0,0.0,0.0,0.0,0.0,96.8,512.6,96.8,361.4,98.6,618.8,102.2,485.6,0.0,0.0,86.36,98.6,69.8,57.56,0.007791666666666667,1.3493333333333333,0.028571428571428574,327.2,2026-01-10 14:05:33-08:00
62.06,1.0,10.0,2026-01-10 22:06:29,37.08161,-121.59972,428.0,0.0,341.1,-12.6,0.0,,0.0,0.0,0.0,11.0,-0.9,51.2,0.0,-194.0,-0.0,-0.02,1.0,0.0,60.0,16.0,0.0,30.44,-168.0,0.0,0.0,241.0,0.0,0.0,0.0,0.0,0.0,0.0,0.0,0.0,0.0,0.0,0.0,0.0,0.0,0.0,0.0,0.0,0.0,0.0,0.0,0.0,0.0,0.0,0.0,0.0,71.0,30.0,1142.0,1142.0,14.8,3.4,0.0,3.4,26.0,0.0,0.0,37.7,0.0,0.0,-0.6,0.8,0.3,0.0,0.0,0.0,0.0,37.0,299.0,37.0,212.0,37.0,352.0,40.0,275.0,0.0,0.0,-2.0,2.5,0.0,26.0,-9.0,0.0,0.0,0.0,0.659,0.723,71.1,30.2,0.0,0.0,0.0,,0.0,1142.0,37.75,21.75,14.2,60.8,86.0,0.0,0.0,0.0,0.0,98.6,570.2,98.6,413.6,98.6,665.6,104.0,527.0,0.0,0.0,86.36,99.95,71.15,57.56,0.00875,1.4336666666666666,0.0,327.2,2026-01-10 14:05:33-08:00
63.06,1.0,10.0,2026-01-10 22:06:30,37.08161,-121.59972,427.0,0.0,341.1,-12.6,0.0,,0.0,0.0,0.0,11.0,-0.9,51.2,0.0,-193.0,0.0,-0.02,1.0,0.0,23.0,16.0,0.0,30.44,-166.0,0.0,0.0,241.0,0.0,0.0,0.0,0.0,0.0,0.0,0.0,0.0,0.0,0.0,0.0,0.0,0.0,0.0,0.0,0.0,0.0,0.0,0.0,0.0,0.0,0.0,0.0,0.0,71.0,30.0,1135.0,1135.0,14.4,3.4,0.0,3.4,26.0,0.0,0.0,37.7,0.0,0.0,-0.6,0.8,0.3,0.0,0.0,0.0,0.0,37.0,328.0,37.0,244.0,38.0,375.0,40.0,297.0,0.0,0.0,-2.0,2.2,0.0,26.0,-9.0,0.0,0.0,0.0,0.658,0.723,71.4,30.2,0.0,0.0,0.0,,0.0,1135.0,38.0,22.0,14.2,60.8,86.0,0.0,0.0,0.0,0.0,98.6,622.4,98.6,471.2,100.4,707.0,104.0,566.6,0.0,0.0,86.36,100.4,71.6,57.56,0.009694444444444445,1.4336666666666666,0.0,327.2,2026-01-10 14:05:33-08:00
64.06,1.0,10.0,2026-01-10 22:06:31,37.08161,-121.59972,427.0,0.0,341.1,-12.6,0.0,,0.0,0.0,0.0,11.0,-0.8,51.2,0.0,-193.0,-0.0,-0.02,1.0,0.0,15.0,16.0,0.0,30.44,-166.0,0.0,0.0,241.0,0.0,0.0,0.0,0.0,0.0,0.0,0.0,0.0,0.0,0.0,0.0,0.0,0.0,0.0,0.0,0.0,0.0,0.0,0.0,0.0,0.0,0.0,0.0,0.0,71.0,30.0,1147.0,1147.0,14.2,3.3,0.0,3.3,26.1,0.0,0.0,37.7,0.0,0.0,-0.6,0.8,0.3,0.0,0.0,0.0,0.0,38.0,351.0,38.0,273.0,38.0,395.0,41.0,316.0,0.0,0.0,-2.0,1.9,0.0,26.1,-9.0,0.0,0.0,0.0,0.658,0.724,71.4,30.2,0.0,0.0,0.0,,0.0,1147.0,38.75,22.75,14.2,60.8,86.0,0.0,0.0,0.0,0.0,100.4,663.8,100.4,523.4,100.4,743.0,105.8,600.8,0.0,0.0,86.36,101.75,72.95,57.56,0.010625,1.4336666666666666,0.0,327.2,2026-01-10 14:05:33-08:00
65.06,1.0,10.0,2026-01-10 22:06:32,37.08161,-121.59972,427.0,0.0,341.1,-12.6,0.0,,0.0,0.0,0.0,11.0,-0.8,51.3,0.0,-193.0,0.0,-0.02,1.0,0.0,15.0,16.0,0.0,30.44,-166.0,0.0,0.0,241.0,0.0,0.0,0.0,0.0,0.0,0.0,0.0,0.0,0.0,0.0,0.0,0.0,0.0,0.0,0.0,0.0,0.0,0.0,0.0,0.0,0.0,0.0,0.0,0.0,72.0,30.0,1155.0,1155.0,14.1,3.3,0.0,3.3,26.1,0.0,0.0,37.7,0.0,0.0,-0.6,0.8,0.3,0.0,0.0,0.0,0.0,38.0,372.0,38.0,301.0,38.0,414.0,41.0,334.0,0.0,0.0,-2.0,1.7,0.0,26.1,-9.0,0.0,0.0,0.0,0.657,0.724,71.6,30.2,0.0,0.0,0.0,,0.0,1155.0,38.75,22.75,14.2,60.8,86.0,0.0,0.0,0.0,0.0,100.4,701.6,100.4,573.8,100.4,777.2,105.8,633.2,0.0,0.0,86.36,101.75,72.95,57.56,0.011541666666666667,1.4336666666666666,0.0,327.2,2026-01-10 14:05:33-08:00
66.06,1.0,10.0,2026-01-10 22:06:33,37.08161,-121.59972,427.0,0.0,341.1,-12.6,0.0,,0.0,0.0,0.0,11.0,-0.8,51.3,0.0,-193.0,0.0,-0.02,1.0,0.0,8.0,16.0,0.0,30.44,-156.0,0.0,0.0,241.0,0.0,0.0,0.0,0.0,0.0,0.0,0.0,0.0,0.0,0.0,0.0,0.0,0.0,0.0,0.0,0.0,0.0,0.0,0.0,0.0,0.0,0.0,0.0,0.0,72.0,30.0,1157.0,1157.0,13.9,3.3,0.0,3.3,26.1,0.0,0.0,37.7,0.0,0.0,-0.6,0.8,0.3,0.0,0.0,0.0,0.0,39.0,390.0,38.0,325.0,39.0,430.0,42.0,351.0,0.0,0.0,-2.0,1.5,0.0,26.1,-9.0,0.0,0.0,0.0,0.662,0.724,71.9,30.2,0.0,0.0,0.0,,0.0,1157.0,39.5,23.5,14.2,60.8,86.0,0.0,0.0,0.0,0.0,102.2,734.0,100.4,617.0,102.2,806.0,107.6,663.8,0.0,0.0,86.36,103.1,74.3,57.56,0.012458333333333333,1.4336666666666666,0.0,327.2,2026-01-10 14:05:33-08:00
67.06,1.0,10.0,2026-01-10 22:06:34,37.08161,-121.59973,428.0,0.1,341.1,-12.6,0.0,,0.0,0.0,0.0,11.0,-0.8,51.2,0.0,-193.0,-0.0,-0.01,1.0,0.0,-25.0,16.0,0.0,30.44,-156.0,0.0,0.0,241.0,0.0,0.0,0.0,0.0,0.0,0.0,0.0,0.0,0.0,0.0,0.0,0.0,0.0,0.0,0.0,0.0,0.0,0.0,0.0,0.0,0.0,0.0,0.0,0.0,72.0,30.0,1171.0,1171.0,13.8,3.3,0.0,3.3,26.1,0.0,0.0,37.7,0.0,0.0,-0.6,0.8,0.3,0.0,0.0,0.0,0.0,40.0,408.0,39.0,347.0,40.0,445.0,42.0,365.0,0.0,0.0,-2.0,1.4,0.0,26.1,-9.0,0.0,0.0,0.0,0.658,0.724,72.2,30.3,0.0,0.0,0.0,,0.0,1171.0,40.25,24.25,14.3,60.8,86.0,0.0,0.0,0.0,0.0,104.0,766.4,102.2,656.6,104.0,833.0,107.6,689.0,0.0,0.0,86.53999999999999,104.45,75.65,57.74,0.013375,1.518,0.030303030303030307,327.2,2026-01-10 14:05:33-08:00
68.06,1.0,10.0,2026-01-10 22:06:35,37.08161,-121.59973,428.0,0.0,341.1,-12.6,0.0,,0.0,0.0,0.0,11.0,-0.9,51.2,0.0,-193.0,-0.0,-0.02,0.9,0.0,-10.0,16.0,0.0,30.44,-156.0,0.0,0.0,241.0,0.0,0.0,0.0,0.0,0.0,0.0,0.0,0.0,0.0,0.0,0.0,0.0,0.0,0.0,0.0,0.0,0.0,0.0,0.0,0.0,0.0,0.0,0.0,0.0,73.0,30.0,1180.0,1180.0,13.7,3.2,0.0,3.2,26.1,0.0,0.0,37.7,0.0,0.0,-0.6,0.8,0.3,0.0,0.0,0.0,0.0,40.0,423.0,39.0,366.0,40.0,458.0,43.0,380.0,0.0,0.0,-2.0,1.3,0.0,26.1,-9.0,0.0,0.0,0.0,0.658,0.724,72.5,30.3,0.0,0.0,0.0,,0.0,1180.0,40.5,24.5,14.3,60.8,86.0,0.0,0.0,0.0,0.0,104.0,793.4,102.2,690.8,104.0,856.4,109.4,716.0,0.0,0.0,86.53999999999999,104.9,76.1,57.74,0.014277777777777778,1.6023333333333334,0.0,327.2,2026-01-10 14:05:33-08:00
69.06,1.0,10.0,2026-01-10 22:06:36,37.08162,-121.59972,421.0,0.0,341.1,-12.6,0.0,,0.0,0.0,0.0,11.0,-0.9,51.1,0.0,-193.0,-0.0,-0.01,0.9,0.0,-8.0,16.0,0.0,30.44,-155.0,0.0,0.0,241.0,0.0,0.0,0.0,0.0,0.0,0.0,0.0,0.0,0.0,0.0,0.0,0.0,0.0,0.0,0.0,0.0,0.0,0.0,0.0,0.0,0.0,0.0,0.0,0.0,72.0,32.0,1155.0,1155.0,13.7,3.2,0.0,3.2,26.1,0.0,0.0,37.7,0.0,0.0,11.3,0.8,0.3,0.0,0.0,0.0,0.0,42.0,437.0,42.0,385.0,42.0,470.0,45.0,394.0,0.0,0.0,-2.0,1.2,0.0,26.1,-9.0,0.0,0.0,0.0,0.658,0.724,72.2,32.1,0.0,0.0,0.0,,0.0,1155.0,42.75,26.75,16.1,60.8,89.6,0.0,0.0,0.0,0.0,107.6,818.6,107.6,725.0,107.6,878.0,113.0,741.2,0.0,0.0,89.78,108.95,80.15,60.980000000000004,0.015166666666666667,1.6023333333333334,0.0,327.2,2026-01-10 14:05:33-08:00
70.06,1.0,10.0,2026-01-10 22:06:37,37.08162,-121.59972,421.0,0.1,341.1,-12.6,0.0,,0.0,0.0,0.0,11.0,-0.9,51.1,0.0,-193.0,-0.0,-0.01,1.0,0.0,-25.0,16.0,0.0,30.44,-155.0,0.0,0.0,241.0,0.0,0.0,0.0,0.0,0.0,0.0,0.0,0.0,0.0,0.0,0.0,0.0,0.0,0.0,0.0,0.0,0.0,0.0,0.0,0.0,0.0,0.0,0.0,0.0,72.0,32.0,1149.0,1149.0,13.7,3.2,0.0,3.2,26.1,0.0,0.0,37.7,0.0,0.0,34.2,0.8,0.3,0.0,0.0,0.0,0.0,43.0,446.0,42.0,400.0,43.0,479.0,46.0,404.0,0.0,0.0,-2.0,1.2,0.0,26.1,-9.0,0.0,0.0,0.0,0.657,0.724,71.7,32.0,0.0,0.0,0.0,,0.0,1149.0,43.5,27.5,16.0,60.8,89.6,0.0,0.0,0.0,0.0,109.4,834.8,107.6,752.0,109.4,894.2,114.8,759.2,0.0,0.0,89.6,110.3,81.5,60.8,0.016055555555555556,1.6866666666666668,0.03125,327.2,2026-01-10 14:05:33-08:00
71.06,1.0,10.0,2026-01-10 22:06:38,37.08162,-121.59972,421.0,0.0,341.1,-12.6,0.0,,0.0,0.0,0.0,11.0,-0.9,51.1,0.0,-193.0,0.0,-0.01,1.0,0.0,-22.0,16.0,0.0,30.44,-155.0,0.0,0.0,241.0,0.0,0.0,0.0,0.0,0.0,0.0,0.0,0.0,0.0,0.0,0.0,0.0,0.0,0.0,0.0,0.0,0.0,0.0,0.0,0.0,0.0,0.0,0.0,1200.0,71.0,32.0,1134.0,1134.0,13.9,3.2,0.0,3.2,26.1,0.0,0.0,37.7,0.0,0.0,47.7,0.8,0.3,0.0,0.0,0.0,0.0,43.0,457.0,43.0,413.0,43.0,489.0,46.0,414.0,0.0,0.0,-2.0,1.1,0.0,26.1,-9.0,0.0,0.0,0.0,0.656,0.724,71.3,32.0,0.0,0.0,0.0,,0.0,1134.0,43.75,27.75,16.0,60.8,89.6,0.0,0.0,0.0,0.0,109.4,854.6,109.4,775.4,109.4,912.2,114.8,777.2,0.0,0.0,89.6,110.75,81.95,60.8,0.016944444444444446,1.771,0.0,327.2,2026-01-10 14:05:33-08:00
72.06,1.0,10.0,2026-01-10 22:06:39,37.08162,-121.59972,422.0,0.0,341.1,-12.6,0.0,,0.0,0.0,0.0,11.0,-0.8,51.0,0.0,-193.0,0.0,-0.02,1.0,0.0,4.0,16.0,0.0,30.44,-145.0,0.0,0.0,241.0,0.0,0.0,0.0,0.0,0.0,0.0,0.0,0.0,0.0,0.0,0.0,0.0,0.0,0.0,0.0,0.0,0.0,0.0,0.0,0.0,0.0,0.0,0.0,1200.0,71.0,32.0,1144.0,1144.0,14.0,3.2,0.0,3.2,26.1,0.0,0.0,37.7,0.0,0.0,55.9,0.8,0.3,0.0,0.0,0.0,0.0,44.0,466.0,43.0,425.0,43.0,497.0,47.0,424.0,0.0,0.0,-2.0,1.1,0.0,26.1,-9.0,0.0,0.0,0.0,0.656,0.723,71.4,32.1,0.0,0.0,0.0,,0.0,1144.0,44.25,28.25,16.1,60.8,89.6,0.0,0.0,0.0,0.0,111.2,870.8,109.4,797.0,109.4,926.6,116.6,795.2,0.0,0.0,89.78,111.65,82.85,60.980000000000004,0.017833333333333333,1.771,0.0,327.2,2026-01-10 14:05:33-08:00
73.06,1.0,10.0,2026-01-10 22:06:40,37.08162,-121.59973,422.0,0.1,341.1,-12.6,0.0,,0.0,0.0,0.0,11.0,-0.8,51.0,0.0,-193.0,-0.0,-0.01,1.0,0.0,-21.0,16.0,0.0,30.44,-145.0,0.0,0.0,241.0,0.0,0.0,0.0,0.0,0.0,0.0,0.0,0.0,0.0,0.0,0.0,0.0,0.0,0.0,0.0,0.0,0.0,0.0,0.0,0.0,0.0,0.0,0.0,1200.0,71.0,32.0,1133.0,1133.0,13.9,3.2,0.0,3.2,26.1,0.0,0.0,37.7,0.0,0.0,59.6,0.8,0.3,0.0,0.0,0.0,0.0,45.0,474.0,43.0,436.0,44.0,504.0,47.0,433.0,0.0,0.0,-2.0,1.1,0.0,26.1,-9.0,0.0,0.0,0.0,0.656,0.724,71.3,31.9,0.0,0.0,0.0,,0.0,1133.0,44.75,28.75,15.899999999999999,60.8,89.6,0.0,0.0,0.0,0.0,113.0,885.2,109.4,816.8,111.2,939.2,116.6,811.4,0.0,0.0,89.41999999999999,112.55,83.75,60.62,0.018722222222222223,1.8553333333333333,0.03125,327.2,2026-01-10 14:05:33-08:00
74.06,1.0,10.0,2026-01-10 22:06:41,37.08162,-121.59973,423.0,0.0,341.1,-12.6,0.0,,0.0,0.0,0.0,11.0,-0.9,51.1,0.0,-193.0,0.0,-0.01,0.9,0.0,-29.0,16.0,0.0,30.44,-145.0,0.0,0.0,241.0,0.0,0.0,0.0,0.0,0.0,0.0,0.0,0.0,0.0,0.0,0.0,0.0,0.0,0.0,0.0,0.0,0.0,0.0,0.0,0.0,0.0,0.0,0.0,1200.0,71.0,32.0,1146.0,1146.0,13.9,3.2,0.0,3.2,26.1,0.0,0.0,37.7,0.0,0.0,58.4,0.8,0.3,0.0,0.0,0.0,0.0,45.0,481.0,44.0,446.0,44.0,511.0,48.0,442.0,0.0,0.0,-2.0,1.0,0.0,26.1,-9.0,0.0,0.0,0.0,0.656,0.723,71.3,31.8,0.0,0.0,0.0,,0.0,1146.0,45.25,29.25,15.8,60.8,89.6,0.0,0.0,0.0,0.0,113.0,897.8,111.2,834.8,111.2,951.8,118.4,827.6,0.0,0.0,89.24,113.45,84.65,60.440000000000005,0.01961111111111111,1.9396666666666667,0.0,327.2,2026-01-10 14:05:33-08:00
75.06,1.0,10.0,2026-01-10 22:06:42,37.08162,-121.59973,423.0,0.0,341.1,-12.6,0.0,,0.0,0.0,0.0,11.0,-0.9,51.0,0.0,-193.0,0.0,-0.02,1.0,0.0,-29.0,16.0,0.0,30.44,-145.0,0.0,0.0,241.0,0.0,0.0,0.0,0.0,0.0,0.0,0.0,0.0,0.0,0.0,0.0,0.0,0.0,0.0,0.0,0.0,0.0,0.0,0.0,0.0,0.0,0.0,0.0,0.0,71.0,32.0,1126.0,1126.0,13.8,3.2,0.0,3.2,26.1,0.0,0.0,37.7,0.0,0.0,55.2,0.8,0.3,0.0,0.0,0.0,0.0,45.0,488.0,44.0,455.0,45.0,517.0,48.0,451.0,0.0,0.0,-2.0,1.0,0.0,26.1,-9.0,0.0,0.0,0.0,0.656,0.723,71.1,31.7,0.0,0.0,0.0,,0.0,1126.0,45.5,29.5,15.7,60.8,89.6,0.0,0.0,0.0,0.0,113.0,910.4,111.2,851.0,113.0,962.6,118.4,843.8,0.0,0.0,89.06,113.9,85.1,60.26,0.0205,1.9396666666666667,0.0,327.2,2026-01-10 14:05:33-08:00
76.06,1.0,10.0,2026-01-10 22:06:43,37.08162,-121.59973,423.0,0.0,341.1,-12.6,0.0,,0.0,0.0,0.0,11.0,-0.9,51.1,0.0,-193.0,0.0,-0.01,1.0,0.0,-118.0,16.0,0.0,30.44,-144.0,0.0,0.0,241.0,0.0,0.0,0.0,0.0,0.0,0.0,0.0,0.0,0.0,0.0,0.0,0.0,0.0,0.0,0.0,0.0,0.0,0.0,0.0,0.0,0.0,0.0,0.0,0.0,70.0,32.0,1099.0,1099.0,13.8,3.1,0.0,3.1,26.1,0.0,0.0,37.7,0.0,0.0,51.3,0.8,0.3,0.0,0.0,0.0,0.0,46.0,494.0,45.0,465.0,45.0,522.0,48.0,457.0,0.0,0.0,-2.0,1.0,0.0,26.1,-9.0,0.0,0.0,0.0,0.656,0.723,70.2,31.6,0.0,0.0,0.0,,0.0,1099.0,46.0,30.0,15.600000000000001,60.8,89.6,0.0,0.0,0.0,0.0,114.8,921.2,113.0,869.0,113.0,971.6,118.4,854.6,0.0,0.0,88.88000000000001,114.8,86.0,60.08,0.021375,1.9396666666666667,0.0,327.2,2026-01-10 14:05:33-08:00
77.06,1.0,10.0,2026-01-10 22:06:44,37.08162,-121.59973,424.0,0.0,341.1,-12.6,0.0,,0.0,0.0,0.0,11.0,-0.9,51.1,0.0,-193.0,0.0,-0.02,1.0,0.0,-67.0,16.0,0.0,30.44,-144.0,0.0,0.0,241.0,0.0,0.0,0.0,0.0,0.0,0.0,0.0,0.0,0.0,0.0,0.0,0.0,0.0,0.0,0.0,0.0,0.0,0.0,0.0,0.0,0.0,0.0,0.0,0.0,70.0,31.0,1104.0,1104.0,13.8,3.1,0.0,3.1,26.1,0.0,0.0,37.7,0.0,0.0,47.3,0.8,0.3,0.0,0.0,0.0,0.0,46.0,498.0,45.0,474.0,45.0,525.0,49.0,462.0,0.0,0.0,-2.0,1.0,0.0,26.1,-9.0,0.0,0.0,0.0,0.656,0.723,70.0,31.5,0.0,0.0,0.0,,0.0,1104.0,46.25,30.25,15.5,60.8,87.8,0.0,0.0,0.0,0.0,114.8,928.4,113.0,885.2,113.0,977.0,120.2,863.6,0.0,0.0,88.7,115.25,86.45,59.9,0.022236111111111113,1.9396666666666667,0.0,327.2,2026-01-10 14:05:33-08:00
78.06,1.0,10.0,2026-01-10 22:06:45,37.08162,-121.59973,424.0,0.0,341.1,-12.6,0.0,,0.0,0.0,0.0,11.0,-0.9,51.1,0.0,-194.0,0.0,-0.02,1.0,0.0,-62.0,16.0,0.0,30.44,-144.0,0.0,0.0,241.0,0.0,0.0,0.0,0.0,0.0,0.0,0.0,0.0,0.0,0.0,0.0,0.0,0.0,0.0,0.0,0.0,0.0,0.0,0.0,0.0,0.0,0.0,0.0,0.0,69.0,31.0,1058.0,1058.0,13.7,3.0,0.0,3.0,26.2,0.0,0.0,37.7,0.0,0.0,43.6,0.8,0.3,0.0,0.0,0.0,0.0,47.0,503.0,46.0,482.0,46.0,529.0,49.0,467.0,0.0,0.0,-2.0,1.0,0.0,26.2,-9.0,0.0,0.0,0.0,0.656,0.723,69.4,31.4,0.0,0.0,0.0,,0.0,1058.0,47.0,31.0,15.399999999999999,60.8,87.8,0.0,0.0,0.0,0.0,116.6,937.4,114.8,899.6,114.8,984.2,120.2,872.6,0.0,0.0,88.52,116.6,87.8,59.72,0.023083333333333334,1.9396666666666667,0.0,327.2,2026-01-10 14:05:33-08:00
79.06,1.0,10.0,2026-01-10 22:06:46,37.08162,-121.59973,425.0,0.0,341.1,-12.6,0.0,,0.0,0.0,0.0,11.1,-0.9,51.1,0.0,-195.0,0.0,-0.02,1.0,0.0,-64.0,16.0,0.0,30.44,-138.0,0.0,0.0,241.0,0.0,0.0,0.0,0.0,0.0,0.0,0.0,0.0,0.0,0.0,0.0,0.0,0.0,0.0,0.0,0.0,0.0,0.0,0.0,0.0,0.0,0.0,0.0,0.0,68.0,31.0,1044.0,1044.0,13.7,3.0,0.0,3.0,26.2,0.0,0.0,37.7,0.0,0.0,40.1,0.8,0.3,0.0,0.0,0.0,0.0,47.0,507.0,46.0,488.0,46.0,531.0,50.0,470.0,0.0,0.0,-2.0,1.0,0.0,26.2,-9.0,0.0,0.0,0.0,0.656,0.721,68.4,31.3,0.0,0.0,0.0,,0.0,1044.0,47.25,31.25,15.3,60.8,87.8,0.0,0.0,0.0,0.0,116.6,944.6,114.8,910.4,114.8,987.8,122.0,878.0,0.0,0.0,88.34,117.05,88.25,59.540000000000006,0.023916666666666666,1.9396666666666667,0.0,327.2,2026-01-10 14:05:33-08:00
80.06,1.0,10.0,2026-01-10 22:06:47,37.08162,-121.59973,425.0,0.0,341.1,-12.6,0.0,,0.0,0.0,0.0,11.1,-0.9,51.0,0.0,-197.0,0.0,-0.02,1.0,0.0,-87.0,16.0,0.0,30.44,-138.0,0.0,0.0,241.0,0.0,0.0,0.0,0.0,0.0,0.0,0.0,0.0,0.0,0.0,0.0,0.0,0.0,0.0,0.0,0.0,0.0,0.0,0.0,0.0,0.0,0.0,0.0,0.0,68.0,31.0,1046.0,1046.0,13.6,2.9,0.0,2.9,26.2,0.0,0.0,37.7,0.0,0.0,36.8,0.8,0.3,0.0,0.0,0.0,0.0,47.0,511.0,46.0,494.0,47.0,534.0,50.0,475.0,0.0,0.0,-2.0,1.0,0.0,26.2,-9.0,0.0,0.0,0.0,0.656,0.721,68.3,31.3,0.0,0.0,0.0,,0.0,1046.0,47.5,31.5,15.3,60.8,87.8,0.0,0.0,0.0,0.0,116.6,951.8,114.8,921.2,116.6,993.2,122.0,887.0,0.0,0.0,88.34,117.5,88.7,59.540000000000006,0.02473611111111111,1.9396666666666667,0.0,327.2,2026-01-10 14:05:33-08:00
81.06,1.0,10.0,2026-01-10 22:06:48,37.08162,-121.59973,425.0,0.0,341.1,-12.6,0.0,,0.0,0.0,0.0,11.1,-0.9,51.0,0.0,-197.0,0.0,-0.02,1.0,0.0,-73.0,16.0,0.0,30.44,-138.0,0.0,0.0,241.0,0.0,0.0,0.0,0.0,0.0,0.0,0.0,0.0,0.0,0.0,0.0,0.0,0.0,0.0,0.0,0.0,0.0,0.0,0.0,0.0,0.0,0.0,0.0,0.0,68.0,31.0,1039.0,1039.0,13.6,2.9,0.0,2.9,26.2,0.0,0.0,37.7,0.0,0.0,33.7,0.8,0.3,0.0,0.0,0.0,0.0,48.0,515.0,47.0,500.0,47.0,535.0,51.0,479.0,0.0,0.0,-2.0,1.0,0.0,26.2,-9.0,0.0,0.0,0.0,0.656,0.723,68.2,31.2,0.0,0.0,0.0,,0.0,1039.0,48.25,32.25,15.2,60.8,87.8,0.0,0.0,0.0,0.0,118.4,959.0,116.6,932.0,116.6,995.0,123.8,894.2,0.0,0.0,88.16,118.85,90.05,59.36,0.025541666666666667,1.9396666666666667,0.0,327.2,2026-01-10 14:05:33-08:00
82.06,1.0,10.0,2026-01-10 22:06:49,37.08162,-121.59973,426.0,0.0,341.1,-12.6,0.0,,0.0,0.0,0.0,11.1,-0.9,51.0,0.0,-197.0,0.0,-0.02,1.0,0.0,-39.0,16.0,0.0,30.44,-140.0,0.0,0.0,241.0,0.0,0.0,0.0,0.0,0.0,0.0,0.0,0.0,0.0,0.0,0.0,0.0,0.0,0.0,0.0,0.0,0.0,0.0,0.0,0.0,0.0,0.0,0.0,0.0,68.0,31.0,1050.0,1050.0,13.6,2.8,0.0,2.8,26.2,0.0,0.0,37.7,0.0,0.0,30.9,0.8,0.3,0.0,0.0,0.0,0.0,48.0,518.0,47.0,506.0,48.0,536.0,52.0,482.0,0.0,0.0,-2.0,1.0,0.0,26.2,-9.0,0.0,0.0,0.0,0.654,0.723,68.3,31.1,0.0,0.0,0.0,,0.0,1050.0,48.75,32.75,15.100000000000001,60.8,87.8,0.0,0.0,0.0,0.0,118.4,964.4,116.6,942.8,118.4,996.8,125.6,899.6,0.0,0.0,87.98,119.75,90.95,59.18,0.026333333333333334,1.9396666666666667,0.0,327.2,2026-01-10 14:05:33-08:00
83.06,1.0,10.0,2026-01-10 22:06:50,37.08162,-121.59973,426.0,0.0,341.1,-12.6,0.0,,0.0,0.0,0.0,11.0,-0.9,51.0,0.0,-197.0,0.0,-0.02,1.0,0.0,-25.0,16.0,0.0,30.44,-138.0,0.0,0.0,241.0,0.0,0.0,0.0,0.0,0.0,0.0,0.0,0.0,0.0,0.0,0.0,0.0,0.0,0.0,0.0,0.0,0.0,0.0,0.0,0.0,0.0,0.0,0.0,0.0,68.0,31.0,1056.0,1056.0,13.4,2.8,0.0,2.8,26.2,0.0,0.0,37.7,0.0,0.0,28.3,0.8,0.3,0.0,0.0,0.0,0.0,49.0,522.0,47.0,510.0,48.0,539.0,52.0,486.0,0.0,0.0,-2.0,1.0,0.0,26.2,-9.0,0.0,0.0,0.0,0.654,0.721,68.5,31.1,0.0,0.0,0.0,,0.0,1056.0,49.0,33.0,15.100000000000001,60.8,87.8,0.0,0.0,0.0,0.0,120.2,971.6,116.6,950.0,118.4,1002.2,125.6,906.8,0.0,0.0,87.98,120.2,91.4,59.18,0.02711111111111111,1.9396666666666667,0.0,327.2,2026-01-10 14:05:33-08:00
84.06,1.0,10.0,2026-01-10 22:06:51,37.08162,-121.59973,426.0,0.0,341.1,-12.6,0.0,,0.0,0.0,0.0,11.0,-0.9,51.1,0.0,-197.0,0.0,-0.02,1.0,0.0,12.0,16.0,0.0,30.44,-138.0,0.0,0.0,241.0,0.0,0.0,0.0,0.0,0.0,0.0,0.0,0.0,0.0,0.0,0.0,0.0,0.0,0.0,0.0,0.0,0.0,0.0,0.0,0.0,0.0,0.0,0.0,0.0,69.0,31.0,1056.0,1056.0,13.3,2.7,0.0,2.7,26.2,0.0,0.0,37.7,0.0,0.0,25.7,0.8,0.3,0.0,0.0,0.0,0.0,49.0,524.0,48.0,515.0,48.0,540.0,53.0,490.0,0.0,0.0,-2.0,1.0,0.0,26.2,-9.0,0.0,0.0,0.0,0.664,0.721,68.7,31.0,0.0,0.0,0.0,,0.0,1056.0,49.5,33.5,15.0,60.8,87.8,0.0,0.0,0.0,0.0,120.2,975.2,118.4,959.0,118.4,1004.0,127.4,914.0,0.0,0.0,87.8,121.1,92.3,59.0,0.027875,1.9396666666666667,0.0,327.2,2026-01-10 14:05:33-08:00
85.06,1.0,10.0,2026-01-10 22:06:52,37.08162,-121.59973,427.0,0.0,341.1,-12.6,0.0,,0.0,0.0,0.0,11.1,-0.9,51.0,0.0,-197.0,0.0,-0.02,1.0,0.0,27.0,16.0,0.0,30.44,-138.0,0.0,0.0,241.0,0.0,0.0,0.0,0.0,0.0,0.0,0.0,0.0,0.0,0.0,0.0,0.0,0.0,0.0,0.0,0.0,0.0,0.0,0.0,0.0,0.0,0.0,0.0,0.0,68.0,31.0,993.0,993.0,13.2,2.7,0.0,2.7,26.2,0.0,0.0,37.7,0.0,0.0,23.5,0.8,0.3,0.0,0.0,0.0,0.0,49.0,528.0,48.0,520.0,49.0,542.0,53.0,493.0,0.0,0.0,-2.0,1.0,0.0,26.2,-9.0,0.0,0.0,0.0,0.665,0.723,68.2,31.0,0.0,0.0,0.0,,0.0,993.0,49.75,33.75,15.0,60.8,87.8,0.0,0.0,0.0,0.0,120.2,982.4,118.4,968.0,120.2,1007.6,127.4,919.4,0.0,0.0,87.8,121.55,92.75,59.0,0.028625,1.9396666666666667,0.0,327.2,2026-01-10 14:05:33-08:00
86.06,1.0,10.0,2026-01-10 22:06:53,37.08162,-121.59973,427.0,0.0,341.1,-12.6,0.0,,0.0,0.0,0.0,11.1,-0.9,51.0,0.0,-197.0,0.0,-0.02,1.0,0.0,45.0,16.0,0.0,30.44,-138.0,0.0,0.0,241.0,0.0,0.0,0.0,0.0,0.0,0.0,0.0,0.0,0.0,0.0,0.0,0.0,0.0,0.0,0.0,0.0,0.0,0.0,0.0,0.0,0.0,0.0,0.0,0.0,66.0,31.0,972.0,972.0,13.3,2.6,0.0,2.6,26.2,0.0,0.0,37.7,0.0,0.0,21.6,0.8,0.3,0.0,0.0,0.0,0.0,50.0,531.0,48.0,523.0,50.0,542.0,54.0,495.0,0.0,0.0,-2.0,1.0,0.0,26.2,-9.0,0.0,0.0,0.0,0.66,0.721,66.4,30.9,0.0,0.0,0.0,,0.0,972.0,50.5,34.5,14.899999999999999,60.8,87.8,0.0,0.0,0.0,0.0,122.0,987.8,118.4,973.4,122.0,1007.6,129.2,923.0,0.0,0.0,87.61999999999999,122.9,94.1,58.82,0.029361111111111112,1.9396666666666667,0.0,327.2,2026-01-10 14:05:33-08:00
87.06,1.0,10.0,2026-01-10 22:06:54,37.08162,-121.59973,427.0,0.0,341.1,-12.6,0.0,,0.0,0.0,0.0,11.0,-1.0,51.0,0.0,-197.0,-0.0,-0.02,1.0,0.0,30.0,16.0,0.0,30.44,-138.0,0.0,0.0,241.0,0.0,0.0,0.0,0.0,0.0,0.0,0.0,0.0,0.0,0.0,0.0,0.0,0.0,0.0,0.0,0.0,0.0,0.0,0.0,0.0,0.0,0.0,0.0,0.0,66.0,31.0,957.0,957.0,13.3,2.5,0.0,2.5,26.2,0.0,0.0,37.7,0.0,0.0,20.0,0.8,0.3,0.0,0.0,0.0,0.0,50.0,533.0,49.0,526.0,50.0,540.0,54.0,495.0,0.0,0.0,-2.0,0.0,0.0,26.2,-9.0,0.0,0.0,0.0,0.659,0.721,65.9,30.9,0.0,0.0,0.0,,0.0,957.0,50.75,34.75,14.899999999999999,60.8,87.8,0.0,0.0,0.0,0.0,122.0,991.4,120.2,978.8,122.0,1004.0,129.2,923.0,0.0,0.0,87.61999999999999,123.35,94.55,58.82,0.030069444444444444,1.9396666666666667,0.0,327.2,2026-01-10 14:05:33-08:00
