Session Time,GPS Fix Quality,Number of Satellites,GPS Date & Time,Latitude (deg),Longitude (deg),GPS Altitude (feet),Ground Speed (knots),Ground Track (deg),Mag Var (deg),Cross Track Error (NM),Destination Waypoint ID,Range to Destination (NM),Bearing to Destination (deg),System Time,Pitch (deg),Roll (deg),Magnetic Heading (deg),Indicated Airspeed (knots),Pressure Altitude (ft),Turn Rate (deg/s),Lateral Accel (g),Vertical Accel(g),Angle of Attack (%),Vertical Speed (ft/min),OAT (deg C),True Airspeed (knots),Barometer Setting (inHg),Density Altitude (ft),Wind Direction (deg),Wind Speed (knots),Heading Bug (deg),Altitude Bug (ft),Airspeed Bug (knots),Vertical Speed Bug (ft/min),Course (deg),CDI Source Type,CDI Source Port,CDI Scale (NM),CDI Deflection (%),Glideslope (%),AP Engaged,AP Roll Mode,AP Roll Force,AP Roll Position (steps),AP Roll Slip (bool),AP Pitch Force,AP Pitch Position (steps),AP Pitch Slip (bool),AP Yaw Force,AP Yaw Position,AP Yaw Slip (bool),Transponder Status,Transponder Reply (bool),Transponder Identing (bool),Transponder Code (octal),Oil Pressure (PSI),Oil Temp (deg C),RPM L,RPM R,Manifold Pressure (inHg),Fuel Flow 1 (gal/hr),Fuel Flow 2 (gal/hr),Total Fuel Flow (gal/hr),Fuel Pressure (PSI),Fuel Level L (gal),Fuel Level R (gal),Fuel Remaining (gal),Volts 1,Volts 2,Amps,Hobbs Time,Tach Time,Thermocouple 1 (deg C),Thermocouple 2 (deg C),Thermocouple 3 (deg C),Thermocouple 4 (deg C),CHT 4 (deg C),EGT 4 (deg C),CHT 3 (deg C),EGT 3 (deg C),CHT 2 (deg C),EGT 2 (deg C),CHT 1 (deg C),EGT 1 (deg C),Thermocouple 13 (deg C),Thermocouple 14 (deg C),ELEV POSITION (%),CO PPM PRESSURE (PSI),GP Input 3,FUEL PRESSURE (PSI),AILERN POSITION (%),CANOPY CONTACT (V),GP Input 7,GP Input 8,LEFT LEVEL (Sensor V),RIGHT LEVEL (Sensor V),OIL PRESSURE (PSI),OIL TEMPERATURE (deg C),GP Input 13,Contacts,Percent Power,EGT Leaning State,Unnamed: 103,RPM,AVG_CHT,CHT_Delta_T (deg C),OIL_Delta_T (deg C),OAT (deg F),Oil Temp (deg F),Thermocouple 1 (deg F),Thermocouple 2 (deg F),Thermocouple 3 (deg F),Thermocouple 4 (deg F),CHT 4 (deg F),EGT 4 (deg F),CHT 3 (deg F),EGT 3 (deg F),CHT 2 (deg F),EGT 2 (deg F),CHT 1 (deg F),EGT 1 (deg F),Thermocouple 13 (deg F),Thermocouple 14 (deg F),OIL TEMPERATURE (deg F),CHT_Delta_T (deg F),OIL_Delta_T (deg F),Fuel Flow Integral,Distance Traveled,MPG,Flight ID
5.06,0.0,0.0,2026-03-21 23:01:08,37.08154,-121.59951,0.0,0.0,44.3,-17.1,0.0,,0.0,0.0,0.0,10.6,-0.9,10.1,0.0,271.0,0.0,-0.01,1.0,99.0,-90.0,30.0,0.0,30.01,2147.0,0.0,0.0,153.0,0.0,0.0,0.0,0.0,0.0,0.0,0.0,0.0,0.0,0.0,0.0,0.0,0.0,0.0,0.0,0.0,0.0,0.0,0.0,0.0,0.0,0.0,0.0,0.0,0.0,26.0,0.0,0.0,30.1,0.0,0.0,0.0,0.2,0.0,0.0,39.3,0.0,0.0,0.1,7.6,5.9,0.0,0.0,0.0,0.0,27.0,28.0,27.0,28.0,28.0,28.0,28.0,28.0,0.0,0.0,7.0,254.3,0.0,0.2,17.0,4.998,0.0,0.0,0.653,0.719,0.0,26.4,0.0,0.0,0.0,,0.0,0.0,27.5,-2.5,-3.6000000000000014,86.0,78.8,32.0,32.0,32.0,32.0,80.6,82.4,80.6,82.4,82.4,82.4,82.4,82.4,32.0,32.0,79.52,27.5,25.519999999999996,0.0,0.0,0.0,2026-03-21 16:01:08-07:00
6.06,1.0,9.0,2026-03-21 23:01:09,37.08162,-121.59949,364.0,0.0,44.3,-12.6,0.0,,0.0,0.0,0.0,10.6,-0.9,10.1,0.0,269.0,0.0,-0.01,1.0,99.0,-109.0,30.0,0.0,30.01,2147.0,0.0,0.0,153.0,0.0,0.0,0.0,0.0,0.0,0.0,0.0,0.0,0.0,0.0,0.0,0.0,0.0,0.0,0.0,0.0,0.0,0.0,0.0,0.0,0.0,0.0,0.0,0.0,0.0,26.0,0.0,0.0,30.1,0.0,0.0,0.0,0.2,0.0,0.0,39.3,0.0,0.0,0.1,7.6,5.9,0.0,0.0,0.0,0.0,27.0,28.0,28.0,28.0,28.0,28.0,28.0,28.0,0.0,0.0,7.0,254.3,0.0,0.2,17.0,4.998,0.0,0.0,0.653,0.719,0.0,26.4,0.0,0.0,0.0,,0.0,0.0,27.75,-2.25,-3.6000000000000014,86.0,78.8,32.0,32.0,32.0,32.0,80.6,82.4,82.4,82.4,82.4,82.4,82.4,82.4,32.0,32.0,79.52,27.95,25.519999999999996,0.0,0.0,0.0,2026-03-21 16:01:08-07:00
7.06,1.0,9.0,2026-03-21 23:01:10,37.08162,-121.59949,364.0,0.0,44.3,-12.6,0.0,,0.0,0.0,0.0,10.6,-0.9,10.1,0.0,267.0,0.0,-0.02,1.0,99.0,-111.0,30.0,0.0,30.01,2138.0,0.0,0.0,153.0,0.0,0.0,0.0,0.0,0.0,0.0,0.0,0.0,0.0,0.0,0.0,0.0,0.0,0.0,0.0,0.0,0.0,0.0,0.0,0.0,0.0,0.0,0.0,0.0,0.0,26.0,0.0,0.0,30.1,0.0,0.0,0.0,0.2,0.0,0.0,39.3,0.0,0.0,0.1,7.6,5.9,0.0,0.0,0.0,0.0,27.0,28.0,27.0,28.0,28.0,28.0,28.0,28.0,0.0,0.0,7.0,254.3,0.0,0.2,17.0,4.998,0.0,0.0,0.653,0.719,0.0,26.3,0.0,0.0,0.0,,0.0,0.0,27.5,-2.5,-3.6999999999999993,86.0,78.8,32.0,32.0,32.0,32.0,80.6,82.4,80.6,82.4,82.4,82.4,82.4,82.4,32.0,32.0,79.34,27.5,25.34,0.0,0.0,0.0,2026-03-21 16:01:08-07:00
8.06,1.0,9.0,2026-03-21 23:01:11,37.08162,-121.59949,364.0,0.0,44.3,-12.6,0.0,,0.0,0.0,0.0,10.6,-0.9,10.1,0.0,266.0,0.0,-0.02,1.0,99.0,-102.0,30.0,0.0,30.01,2138.0,0.0,0.0,153.0,0.0,0.0,0.0,0.0,0.0,0.0,0.0,0.0,0.0,0.0,0.0,0.0,0.0,0.0,0.0,0.0,0.0,0.0,0.0,0.0,0.0,0.0,0.0,0.0,0.0,26.0,0.0,0.0,30.1,0.0,0.0,0.0,0.2,0.0,0.0,39.3,0.0,0.0,0.1,7.6,5.9,0.0,0.0,0.0,0.0,27.0,28.0,28.0,28.0,28.0,28.0,28.0,28.0,0.0,0.0,7.0,254.3,0.0,0.2,17.0,4.998,0.0,0.0,0.653,0.719,0.0,26.3,0.0,0.0,0.0,,0.0,0.0,27.75,-2.25,-3.6999999999999993,86.0,78.8,32.0,32.0,32.0,32.0,80.6,82.4,82.4,82.4,82.4,82.4,82.4,82.4,32.0,32.0,79.34,27.95,25.34,0.0,0.0,0.0,2026-03-21 16:01:08-07:00
9.06,1.0,10.0,2026-03-21 23:01:12,37.08159,-121.59953,357.0,0.0,44.3,-12.6,0.0,,0.0,0.0,0.0,10.6,-0.9,10.1,0.0,263.0,0.0,-0.01,1.0,99.0,-125.0,30.0,0.0,30.01,2138.0,0.0,0.0,153.0,0.0,0.0,0.0,0.0,0.0,0.0,0.0,0.0,0.0,0.0,0.0,0.0,0.0,0.0,0.0,0.0,0.0,0.0,0.0,0.0,0.0,0.0,0.0,0.0,0.0,26.0,0.0,0.0,30.1,0.0,0.0,0.0,0.2,0.0,0.0,39.3,0.0,0.0,0.1,7.6,5.9,0.0,0.0,0.0,0.0,27.0,28.0,27.0,28.0,28.0,28.0,28.0,28.0,0.0,0.0,7.0,254.3,0.0,0.2,17.0,4.998,0.0,0.0,0.653,0.719,0.0,26.3,0.0,0.0,0.0,,0.0,0.0,27.5,-2.5,-3.6999999999999993,86.0,78.8,32.0,32.0,32.0,32.0,80.6,82.4,80.6,82.4,82.4,82.4,82.4,82.4,32.0,32.0,79.34,27.5,25.34,0.0,0.0,0.0,2026-03-21 16:01:08-07:00
10.06,1.0,10.0,2026-03-21 23:01:13,37.08159,-121.59953,357.0,0.0,44.3,-12.6,0.0,,0.0,0.0,0.0,10.6,-0.8,10.1,0.0,261.0,0.0,-0.02,1.0,99.0,-138.0,30.0,0.0,30.01,2139.0,0.0,0.0,153.0,0.0,0.0,0.0,0.0,0.0,0.0,0.0,0.0,0.0,0.0,0.0,0.0,0.0,0.0,0.0,0.0,0.0,0.0,0.0,0.0,0.0,0.0,0.0,0.0,0.0,26.0,0.0,0.0,30.1,0.0,0.0,0.0,0.2,0.0,0.0,39.3,0.0,0.0,0.1,7.6,5.9,0.0,0.0,0.0,0.0,27.0,28.0,27.0,28.0,28.0,28.0,28.0,28.0,0.0,0.0,7.0,254.3,0.0,0.2,17.0,4.998,0.0,0.0,0.653,0.718,0.0,26.3,0.0,0.0,0.0,,0.0,0.0,27.5,-2.5,-3.6999999999999993,86.0,78.8,32.0,32.0,32.0,32.0,80.6,82.4,80.6,82.4,82.4,82.4,82.4,82.4,32.0,32.0,79.34,27.5,25.34,0.0,0.0,0.0,2026-03-21 16:01:08-07:00
11.06,1.0,10.0,2026-03-21 23:01:14,37.08159,-121.59953,356.0,0.0,44.3,-12.6,0.0,,0.0,0.0,0.0,10.6,-0.9,10.1,0.0,258.0,0.0,-0.02,1.0,99.0,-121.0,30.0,0.0,30.01,2139.0,0.0,0.0,153.0,0.0,0.0,0.0,0.0,0.0,0.0,0.0,0.0,0.0,0.0,0.0,0.0,0.0,0.0,0.0,0.0,0.0,0.0,0.0,0.0,0.0,0.0,0.0,0.0,0.0,26.0,0.0,0.0,30.1,0.0,0.0,0.0,0.2,0.0,0.0,39.3,0.0,0.0,0.1,7.6,5.9,0.0,0.0,0.0,0.0,27.0,28.0,27.0,28.0,28.0,28.0,28.0,28.0,0.0,0.0,7.0,254.2,0.0,0.2,17.0,4.998,0.0,0.0,0.654,0.719,0.0,26.2,0.0,0.0,0.0,,0.0,0.0,27.5,-2.5,-3.8000000000000007,86.0,78.8,32.0,32.0,32.0,32.0,80.6,82.4,80.6,82.4,82.4,82.4,82.4,82.4,32.0,32.0,79.16,27.5,25.16,0.0,0.0,0.0,2026-03-21 16:01:08-07:00
12.06,1.0,10.0,2026-03-21 23:01:15,37.08159,-121.59953,356.0,0.0,44.3,-12.6,0.0,,0.0,0.0,0.0,10.6,-0.9,10.0,0.0,256.0,-0.0,-0.02,1.0,99.0,-136.0,30.0,0.0,30.01,2135.0,0.0,0.0,153.0,0.0,0.0,0.0,0.0,0.0,0.0,0.0,0.0,0.0,0.0,0.0,0.0,0.0,0.0,0.0,0.0,0.0,0.0,0.0,0.0,0.0,0.0,0.0,0.0,0.0,26.0,0.0,0.0,30.1,0.0,0.0,0.0,0.2,0.0,0.0,39.3,0.0,0.0,0.1,7.6,5.9,0.0,0.0,0.0,0.0,27.0,28.0,27.0,28.0,28.0,28.0,28.0,28.0,0.0,0.0,7.0,254.2,0.0,0.2,17.0,4.998,0.0,0.0,0.654,0.719,0.0,26.2,0.0,0.0,0.0,,0.0,0.0,27.5,-2.5,-3.8000000000000007,86.0,78.8,32.0,32.0,32.0,32.0,80.6,82.4,80.6,82.4,82.4,82.4,82.4,82.4,32.0,32.0,79.16,27.5,25.16,0.0,0.0,0.0,2026-03-21 16:01:08-07:00
13.06,1.0,10.0,2026-03-21 23:01:16,37.0816,-121.59953,356.0,0.0,44.3,-12.6,0.0,,0.0,0.0,0.0,10.6,-0.9,10.0,0.0,255.0,-0.0,-0.01,1.0,99.0,-109.0,30.0,0.0,30.01,2135.0,0.0,0.0,153.0,0.0,0.0,0.0,0.0,0.0,0.0,0.0,0.0,0.0,0.0,0.0,0.0,0.0,0.0,0.0,0.0,0.0,0.0,0.0,0.0,0.0,0.0,0.0,0.0,0.0,26.0,0.0,0.0,30.1,0.0,0.0,0.0,0.2,0.0,0.0,39.3,0.0,0.0,0.1,7.6,5.9,0.0,0.0,0.0,0.0,27.0,28.0,27.0,28.0,28.0,28.0,28.0,28.0,0.0,0.0,7.0,254.2,0.0,0.2,17.0,4.998,0.0,0.0,0.653,0.719,0.0,26.2,0.0,0.0,0.0,,0.0,0.0,27.5,-2.5,-3.8000000000000007,86.0,78.8,32.0,32.0,32.0,32.0,80.6,82.4,80.6,82.4,82.4,82.4,82.4,82.4,32.0,32.0,79.16,27.5,25.16,0.0,0.0,0.0,2026-03-21 16:01:08-07:00
14.06,1.0,10.0,2026-03-21 23:01:17,37.0816,-121.59953,355.0,0.0,44.3,-12.6,0.0,,0.0,0.0,0.0,10.6,-0.9,10.0,0.0,254.0,-0.0,-0.01,1.0,99.0,-94.0,30.0,0.0,30.01,2135.0,0.0,0.0,153.0,0.0,0.0,0.0,0.0,0.0,0.0,0.0,0.0,0.0,0.0,0.0,0.0,0.0,0.0,0.0,0.0,0.0,0.0,0.0,0.0,0.0,0.0,0.0,0.0,0.0,26.0,0.0,0.0,30.1,0.0,0.0,0.0,0.2,0.0,0.0,39.3,0.0,0.0,0.1,7.6,5.9,0.0,0.0,0.0,0.0,27.0,28.0,27.0,28.0,28.0,28.0,28.0,28.0,0.0,0.0,7.0,254.2,0.0,0.2,17.0,4.998,0.0,0.0,0.653,0.719,0.0,26.2,0.0,0.0,0.0,,0.0,0.0,27.5,-2.5,-3.8000000000000007,86.0,78.8,32.0,32.0,32.0,32.0,80.6,82.4,80.6,82.4,82.4,82.4,82.4,82.4,32.0,32.0,79.16,27.5,25.16,0.0,0.0,0.0,2026-03-21 16:01:08-07:00
15.06,1.0,10.0,2026-03-21 23:01:18,37.0816,-121.59953,354.0,0.0,44.3,-12.6,0.0,,0.0,0.0,0.0,10.6,-0.9,10.0,0.0,253.0,0.0,-0.02,1.0,99.0,-88.0,30.0,0.0,30.01,2131.0,0.0,0.0,153.0,0.0,0.0,0.0,0.0,0.0,0.0,0.0,0.0,0.0,0.0,0.0,0.0,0.0,0.0,0.0,0.0,0.0,0.0,0.0,0.0,0.0,0.0,0.0,0.0,0.0,26.0,0.0,0.0,30.1,0.0,0.0,0.0,0.2,0.0,0.0,39.3,0.0,0.0,0.1,7.6,5.9,0.0,0.0,0.0,0.0,27.0,28.0,27.0,28.0,28.0,28.0,28.0,28.0,0.0,0.0,7.0,254.2,0.0,0.2,17.0,4.998,0.0,0.0,0.654,0.719,0.0,26.2,0.0,0.0,0.0,,0.0,0.0,27.5,-2.5,-3.8000000000000007,86.0,78.8,32.0,32.0,32.0,32.0,80.6,82.4,80.6,82.4,82.4,82.4,82.4,82.4,32.0,32.0,79.16,27.5,25.16,0.0,0.0,0.0,2026-03-21 16:01:08-07:00
16.06,1.0,10.0,2026-03-21 23:01:19,37.0816,-121.59954,353.0,0.0,44.3,-12.6,0.0,,0.0,0.0,0.0,10.6,-1.0,10.0,0.0,250.0,-0.0,-0.02,1.0,99.0,-104.0,30.0,0.0,30.01,2131.0,0.0,0.0,153.0,0.0,0.0,0.0,0.0,0.0,0.0,0.0,0.0,0.0,0.0,0.0,0.0,0.0,0.0,0.0,0.0,0.0,0.0,0.0,0.0,0.0,0.0,0.0,0.0,0.0,26.0,0.0,0.0,30.1,0.0,0.0,0.0,0.2,0.0,0.0,39.3,0.0,0.0,0.1,7.6,5.9,0.0,0.0,0.0,0.0,27.0,28.0,27.0,28.0,28.0,28.0,28.0,28.0,0.0,0.0,7.0,254.2,0.0,0.2,17.0,4.998,0.0,0.0,0.653,0.719,0.0,26.2,0.0,0.0,0.0,,0.0,0.0,27.5,-2.5,-3.8000000000000007,86.0,78.8,32.0,32.0,32.0,32.0,80.6,82.4,80.6,82.4,82.4,82.4,82.4,82.4,32.0,32.0,79.16,27.5,25.16,0.0,0.0,0.0,2026-03-21 16:01:08-07:00
17.06,1.0,10.0,2026-03-21 23:01:20,37.0816,-121.59954,352.0,0.0,44.3,-12.6,0.0,,0.0,0.0,0.0,10.5,-0.9,10.0,0.0,249.0,0.0,-0.02,1.0,99.0,-102.0,30.0,0.0,30.01,2131.0,0.0,0.0,153.0,0.0,0.0,0.0,0.0,0.0,0.0,0.0,0.0,0.0,0.0,0.0,0.0,0.0,0.0,0.0,0.0,0.0,0.0,0.0,0.0,0.0,0.0,0.0,0.0,0.0,26.0,0.0,0.0,30.1,0.0,0.0,0.0,0.2,0.0,0.0,39.3,0.0,0.0,0.1,7.6,5.9,0.0,0.0,0.0,0.0,27.0,28.0,27.0,28.0,28.0,28.0,28.0,28.0,0.0,0.0,7.0,254.2,0.0,0.2,17.0,4.998,0.0,0.0,0.653,0.719,0.0,26.2,0.0,0.0,0.0,,0.0,0.0,27.5,-2.5,-3.8000000000000007,86.0,78.8,32.0,32.0,32.0,32.0,80.6,82.4,80.6,82.4,82.4,82.4,82.4,82.4,32.0,32.0,79.16,27.5,25.16,0.0,0.0,0.0,2026-03-21 16:01:08-07:00
18.06,1.0,10.0,2026-03-21 23:01:21,37.0816,-121.59954,351.0,0.0,44.3,-12.6,0.0,,0.0,0.0,0.0,10.6,-0.9,10.1,0.0,248.0,0.0,-0.02,1.0,99.0,-96.0,30.0,0.0,30.01,2125.0,0.0,0.0,153.0,0.0,0.0,0.0,0.0,0.0,0.0,0.0,0.0,0.0,0.0,0.0,0.0,0.0,0.0,0.0,0.0,0.0,0.0,0.0,0.0,0.0,0.0,0.0,0.0,0.0,26.0,0.0,0.0,30.1,0.0,0.0,0.0,0.2,0.0,0.0,39.3,0.0,0.0,0.1,7.6,5.9,0.0,0.0,0.0,0.0,27.0,28.0,27.0,28.0,28.0,28.0,28.0,28.0,0.0,0.0,7.0,254.2,0.0,0.2,17.0,4.998,0.0,0.0,0.654,0.719,0.0,26.2,0.0,0.0,0.0,,0.0,0.0,27.5,-2.5,-3.8000000000000007,86.0,78.8,32.0,32.0,32.0,32.0,80.6,82.4,80.6,82.4,82.4,82.4,82.4,82.4,32.0,32.0,79.16,27.5,25.16,0.0,0.0,0.0,2026-03-21 16:01:08-07:00
19.06,1.0,10.0,2026-03-21 23:01:22,37.0816,-121.59954,350.0,0.0,44.3,-12.6,0.0,,0.0,0.0,0.0,10.6,-0.9,10.1,0.0,245.0,0.0,-0.02,1.0,99.0,-99.0,30.0,0.0,30.01,2125.0,0.0,0.0,153.0,0.0,0.0,0.0,0.0,0.0,0.0,0.0,0.0,0.0,0.0,0.0,0.0,0.0,0.0,0.0,0.0,0.0,0.0,0.0,0.0,0.0,0.0,0.0,0.0,0.0,26.0,0.0,0.0,30.1,0.0,0.0,0.0,0.2,0.0,0.0,39.3,0.0,0.0,0.1,7.6,5.9,0.0,0.0,0.0,0.0,27.0,28.0,27.0,28.0,28.0,28.0,28.0,28.0,0.0,0.0,7.0,254.2,0.0,0.2,17.0,4.998,0.0,0.0,0.654,0.719,0.0,26.2,0.0,0.0,0.0,,0.0,0.0,27.5,-2.5,-3.8000000000000007,86.0,78.8,32.0,32.0,32.0,32.0,80.6,82.4,80.6,82.4,82.4,82.4,82.4,82.4,32.0,32.0,79.16,27.5,25.16,0.0,0.0,0.0,2026-03-21 16:01:08-07:00
20.06,1.0,10.0,2026-03-21 23:01:23,37.0816,-121.59954,348.0,0.0,44.3,-12.6,0.0,,0.0,0.0,0.0,10.6,-0.9,10.1,0.0,245.0,0.0,-0.02,1.0,99.0,-63.0,30.0,0.0,30.01,2125.0,0.0,0.0,153.0,0.0,0.0,0.0,0.0,0.0,0.0,0.0,0.0,0.0,0.0,0.0,0.0,0.0,0.0,0.0,0.0,0.0,0.0,0.0,0.0,0.0,0.0,0.0,0.0,0.0,26.0,0.0,0.0,30.1,0.0,0.0,0.0,0.2,0.0,0.0,39.3,0.0,0.0,0.1,7.6,5.9,0.0,0.0,0.0,0.0,27.0,28.0,27.0,28.0,28.0,28.0,28.0,28.0,0.0,0.0,7.0,254.2,0.0,0.2,17.0,4.998,0.0,0.0,0.653,0.719,0.0,26.2,0.0,0.0,0.0,,0.0,0.0,27.5,-2.5,-3.8000000000000007,86.0,78.8,32.0,32.0,32.0,32.0,80.6,82.4,80.6,82.4,82.4,82.4,82.4,82.4,32.0,32.0,79.16,27.5,25.16,0.0,0.0,0.0,2026-03-21 16:01:08-07:00
21.06,1.0,10.0,2026-03-21 23:01:24,37.0816,-121.59955,347.0,0.0,44.3,-12.6,0.0,,0.0,0.0,0.0,10.6,-0.8,10.1,0.0,245.0,0.0,-0.02,1.0,99.0,-40.0,30.0,0.0,30.01,2132.0,0.0,0.0,153.0,0.0,0.0,0.0,0.0,0.0,0.0,0.0,0.0,0.0,0.0,0.0,0.0,0.0,0.0,0.0,0.0,0.0,0.0,0.0,0.0,0.0,0.0,0.0,0.0,0.0,26.0,0.0,0.0,30.1,0.0,0.0,0.0,0.2,0.0,0.0,39.3,0.0,0.0,0.1,7.6,5.9,0.0,0.0,0.0,0.0,28.0,28.0,28.0,28.0,28.0,28.0,28.0,28.0,0.0,0.0,7.0,254.2,0.0,0.2,17.0,4.998,0.0,0.0,0.654,0.719,0.0,26.2,0.0,0.0,0.0,,0.0,0.0,28.0,-2.0,-3.8000000000000007,86.0,78.8,32.0,32.0,32.0,32.0,82.4,82.4,82.4,82.4,82.4,82.4,82.4,82.4,32.0,32.0,79.16,28.4,25.16,0.0,0.0,0.0,2026-03-21 16:01:08-07:00
22.06,1.0,10.0,2026-03-21 23:01:25,37.08161,-121.59955,346.0,0.0,44.3,-12.6,0.0,,0.0,0.0,0.0,10.6,-0.8,10.1,0.0,245.0,0.0,-0.02,1.0,99.0,-19.0,30.0,0.0,30.01,2132.0,0.0,0.0,153.0,0.0,0.0,0.0,0.0,0.0,0.0,0.0,0.0,0.0,0.0,0.0,0.0,0.0,0.0,0.0,0.0,0.0,0.0,0.0,0.0,0.0,0.0,0.0,0.0,0.0,26.0,0.0,0.0,30.1,0.0,0.0,0.0,0.2,0.0,0.0,39.3,0.0,0.0,0.1,7.6,5.9,0.0,0.0,0.0,0.0,28.0,28.0,28.0,28.0,28.0,28.0,28.0,28.0,0.0,0.0,7.0,254.2,0.0,0.2,17.0,4.998,0.0,0.0,0.654,0.719,0.0,26.2,0.0,0.0,0.0,,0.0,0.0,28.0,-2.0,-3.8000000000000007,86.0,78.8,32.0,32.0,32.0,32.0,82.4,82.4,82.4,82.4,82.4,82.4,82.4,82.4,32.0,32.0,79.16,28.4,25.16,0.0,0.0,0.0,2026-03-21 16:01:08-07:00
23.06,1.0,10.0,2026-03-21 23:01:26,37.08161,-121.59955,345.0,0.0,44.3,-12.6,0.0,,0.0,0.0,0.0,10.6,-0.8,10.1,0.0,245.0,-0.0,-0.02,1.0,99.0,-15.0,30.0,0.0,30.01,2133.0,0.0,0.0,153.0,0.0,0.0,0.0,0.0,0.0,0.0,0.0,0.0,0.0,0.0,0.0,0.0,0.0,0.0,0.0,0.0,0.0,0.0,0.0,0.0,0.0,0.0,0.0,0.0,0.0,26.0,0.0,0.0,30.1,0.0,0.0,0.0,0.2,0.0,0.0,39.3,0.0,0.0,0.1,7.6,5.9,0.0,0.0,0.0,0.0,27.0,28.0,27.0,28.0,27.0,28.0,28.0,28.0,0.0,0.0,7.0,254.2,0.0,0.2,17.0,4.998,0.0,0.0,0.654,0.719,0.0,26.2,0.0,0.0,0.0,,0.0,0.0,27.25,-2.75,-3.8000000000000007,86.0,78.8,32.0,32.0,32.0,32.0,80.6,82.4,80.6,82.4,80.6,82.4,82.4,82.4,32.0,32.0,79.16,27.05,25.16,0.0,0.0,0.0,2026-03-21 16:01:08-07:00
24.06,1.0,10.0,2026-03-21 23:01:27,37.08161,-121.59956,344.0,0.0,44.3,-12.6,0.0,,0.0,0.0,0.0,10.6,-0.8,10.1,0.0,245.0,-0.0,-0.02,1.0,99.0,1.0,31.0,0.0,30.01,2133.0,0.0,0.0,153.0,0.0,0.0,0.0,0.0,0.0,0.0,0.0,0.0,0.0,0.0,0.0,0.0,0.0,0.0,0.0,0.0,0.0,0.0,0.0,0.0,0.0,0.0,0.0,0.0,0.0,26.0,0.0,0.0,30.1,0.0,0.0,0.0,0.2,0.0,0.0,39.3,0.0,0.0,0.1,7.6,5.9,0.0,0.0,0.0,0.0,28.0,28.0,28.0,28.0,28.0,28.0,28.0,28.0,0.0,0.0,7.0,254.2,0.0,0.2,17.0,4.998,0.0,0.0,0.654,0.719,0.0,26.2,0.0,0.0,0.0,,0.0,0.0,28.0,-3.0,-4.800000000000001,87.8,78.8,32.0,32.0,32.0,32.0,82.4,82.4,82.4,82.4,82.4,82.4,82.4,82.4,32.0,32.0,79.16,26.6,23.36,0.0,0.0,0.0,2026-03-21 16:01:08-07:00
25.06,1.0,10.0,2026-03-21 23:01:28,37.08162,-121.59956,343.0,0.0,44.3,-12.6,0.0,,0.0,0.0,0.0,10.6,-0.9,10.1,0.0,245.0,0.0,-0.02,1.0,99.0,31.0,31.0,0.0,30.01,2133.0,0.0,0.0,153.0,0.0,0.0,0.0,0.0,0.0,0.0,0.0,0.0,0.0,0.0,0.0,0.0,0.0,0.0,0.0,0.0,0.0,0.0,0.0,0.0,0.0,0.0,0.0,0.0,0.0,26.0,0.0,0.0,30.1,0.0,0.0,0.0,0.2,0.0,0.0,39.3,0.0,0.0,0.1,7.6,5.9,0.0,0.0,0.0,0.0,28.0,28.0,28.0,28.0,28.0,28.0,28.0,28.0,0.0,0.0,7.0,254.2,0.0,0.2,17.0,4.998,0.0,0.0,0.653,0.719,0.0,26.2,0.0,0.0,0.0,,0.0,0.0,28.0,-3.0,-4.800000000000001,87.8,78.8,32.0,32.0,32.0,32.0,82.4,82.4,82.4,82.4,82.4,82.4,82.4,82.4,32.0,32.0,79.16,26.6,23.36,0.0,0.0,0.0,2026-03-21 16:01:08-07:00
26.06,1.0,10.0,2026-03-21 23:01:29,37.08162,-121.59956,342.0,0.0,44.3,-12.6,0.0,,0.0,0.0,0.0,10.6,-0.9,10.1,0.0,245.0,-0.0,-0.02,1.0,99.0,9.0,31.0,0.0,30.01,2142.0,0.0,0.0,153.0,0.0,0.0,0.0,0.0,0.0,0.0,0.0,0.0,0.0,0.0,0.0,0.0,0.0,0.0,0.0,0.0,0.0,0.0,0.0,0.0,0.0,0.0,0.0,0.0,0.0,26.0,0.0,0.0,30.1,0.0,0.0,0.0,0.2,0.0,0.0,39.3,0.0,0.0,0.1,7.6,5.9,0.0,0.0,0.0,0.0,28.0,28.0,28.0,28.0,28.0,28.0,28.0,28.0,0.0,0.0,7.0,254.2,0.0,0.2,17.0,4.998,0.0,0.0,0.654,0.719,0.0,26.2,0.0,0.0,0.0,,0.0,0.0,28.0,-3.0,-4.800000000000001,87.8,78.8,32.0,32.0,32.0,32.0,82.4,82.4,82.4,82.4,82.4,82.4,82.4,82.4,32.0,32.0,79.16,26.6,23.36,0.0,0.0,0.0,2026-03-21 16:01:08-07:00
27.06,1.0,10.0,2026-03-21 23:01:30,37.08162,-121.59956,341.0,0.0,44.3,-12.6,0.0,,0.0,0.0,0.0,10.6,-0.9,10.0,0.0,245.0,-0.0,-0.02,1.0,99.0,3.0,31.0,0.0,30.01,2142.0,0.0,0.0,153.0,0.0,0.0,0.0,0.0,0.0,0.0,0.0,0.0,0.0,0.0,0.0,0.0,0.0,0.0,0.0,0.0,0.0,0.0,0.0,0.0,0.0,0.0,0.0,0.0,0.0,26.0,0.0,0.0,30.1,0.0,0.0,0.0,0.2,0.0,0.0,39.3,0.0,0.0,0.1,7.6,5.9,0.0,0.0,0.0,0.0,27.0,28.0,27.0,28.0,28.0,28.0,28.0,28.0,0.0,0.0,7.0,254.2,0.0,0.2,17.0,4.998,0.0,0.0,0.654,0.719,0.0,26.2,0.0,0.0,0.0,,0.0,0.0,27.5,-3.5,-4.800000000000001,87.8,78.8,32.0,32.0,32.0,32.0,80.6,82.4,80.6,82.4,82.4,82.4,82.4,82.4,32.0,32.0,79.16,25.7,23.36,0.0,0.0,0.0,2026-03-21 16:01:08-07:00
28.06,1.0,10.0,2026-03-21 23:01:31,37.08162,-121.59956,340.0,0.0,44.3,-12.6,0.0,,0.0,0.0,0.0,10.6,-1.0,9.9,0.0,245.0,-0.0,-0.02,1.0,99.0,-2.0,31.0,0.0,30.01,2142.0,0.0,0.0,153.0,0.0,0.0,0.0,0.0,0.0,0.0,0.0,0.0,0.0,0.0,0.0,0.0,0.0,0.0,0.0,0.0,0.0,0.0,0.0,0.0,0.0,0.0,0.0,0.0,0.0,26.0,0.0,0.0,30.1,0.0,0.0,0.0,0.2,0.0,0.0,39.3,0.0,0.0,0.1,7.6,5.9,0.0,0.0,0.0,0.0,27.0,28.0,27.0,28.0,27.0,28.0,28.0,28.0,0.0,0.0,7.0,254.2,0.0,0.2,17.0,4.998,0.0,0.0,0.654,0.719,0.0,26.2,0.0,0.0,0.0,,0.0,0.0,27.25,-3.75,-4.800000000000001,87.8,78.8,32.0,32.0,32.0,32.0,80.6,82.4,80.6,82.4,80.6,82.4,82.4,82.4,32.0,32.0,79.16,25.25,23.36,0.0,0.0,0.0,2026-03-21 16:01:08-07:00
29.06,1.0,10.0,2026-03-21 23:01:32,37.08162,-121.59956,339.0,0.0,44.3,-12.6,0.0,,0.0,0.0,0.0,10.6,-1.0,9.8,0.0,244.0,-0.0,-0.02,1.0,99.0,-54.0,31.0,0.0,30.01,2142.0,0.0,0.0,153.0,0.0,0.0,0.0,0.0,0.0,0.0,0.0,0.0,0.0,0.0,0.0,0.0,0.0,0.0,0.0,0.0,0.0,0.0,0.0,0.0,0.0,0.0,0.0,0.0,0.0,26.0,0.0,0.0,30.1,0.0,0.0,0.0,0.2,0.0,0.0,39.3,0.0,0.0,0.1,7.6,5.9,0.0,0.0,0.0,0.0,28.0,28.0,28.0,28.0,28.0,28.0,28.0,28.0,0.0,0.0,7.0,254.2,0.0,0.2,17.0,4.998,0.0,0.0,0.654,0.719,0.0,26.2,0.0,0.0,0.0,,0.0,0.0,28.0,-3.0,-4.800000000000001,87.8,78.8,32.0,32.0,32.0,32.0,82.4,82.4,82.4,82.4,82.4,82.4,82.4,82.4,32.0,32.0,79.16,26.6,23.36,0.0,0.0,0.0,2026-03-21 16:01:08-07:00
30.06,1.0,10.0,2026-03-21 23:01:33,37.08162,-121.59957,338.0,0.0,44.3,-12.6,0.0,,0.0,0.0,0.0,10.6,-1.0,9.8,0.0,244.0,-0.0,-0.02,1.0,99.0,-55.0,31.0,0.0,30.01,2142.0,0.0,0.0,153.0,0.0,0.0,0.0,0.0,0.0,0.0,0.0,0.0,0.0,0.0,0.0,0.0,0.0,0.0,0.0,0.0,0.0,0.0,0.0,0.0,0.0,0.0,0.0,0.0,0.0,26.0,0.0,0.0,30.1,0.0,0.0,0.0,0.0,0.0,0.0,39.3,0.0,0.0,0.1,7.6,5.9,0.0,0.0,0.0,0.0,27.0,28.0,27.0,28.0,27.0,28.0,28.0,28.0,0.0,0.0,7.0,254.2,0.0,0.0,17.0,4.998,0.0,0.0,0.653,0.719,0.0,26.2,0.0,0.0,0.0,,0.0,0.0,27.25,-3.75,-4.800000000000001,87.8,78.8,32.0,32.0,32.0,32.0,80.6,82.4,80.6,82.4,80.6,82.4,82.4,82.4,32.0,32.0,79.16,25.25,23.36,0.0,0.0,0.0,2026-03-21 16:01:08-07:00
31.06,1.0,10.0,2026-03-21 23:01:34,37.08163,-121.59957,337.0,0.0,44.3,-12.6,0.0,,0.0,0.0,0.0,10.6,-1.0,9.8,0.0,244.0,-0.0,-0.01,1.0,99.0,-32.0,31.0,0.0,30.01,2142.0,0.0,0.0,153.0,0.0,0.0,0.0,0.0,0.0,0.0,0.0,0.0,0.0,0.0,0.0,0.0,0.0,0.0,0.0,0.0,0.0,0.0,0.0,0.0,0.0,0.0,0.0,0.0,0.0,26.0,0.0,0.0,30.1,0.0,0.0,0.0,0.0,0.0,0.0,39.3,0.0,0.0,0.1,7.6,5.9,0.0,0.0,0.0,0.0,28.0,28.0,28.0,28.0,28.0,28.0,28.0,28.0,0.0,0.0,7.0,254.2,0.0,0.0,17.0,4.998,0.0,0.0,0.653,0.719,0.0,26.1,0.0,0.0,0.0,,0.0,0.0,28.0,-3.0,-4.899999999999999,87.8,78.8,32.0,32.0,32.0,32.0,82.4,82.4,82.4,82.4,82.4,82.4,82.4,82.4,32.0,32.0,78.98,26.6,23.180000000000003,0.0,0.0,0.0,2026-03-21 16:01:08-07:00
32.06,1.0,10.0,2026-03-21 23:01:35,37.08163,-121.59957,336.0,0.0,44.3,-12.6,0.0,,0.0,0.0,0.0,10.5,-1.0,9.8,0.0,241.0,0.0,-0.02,1.0,99.0,-78.0,31.0,0.0,30.01,2138.0,0.0,0.0,153.0,0.0,0.0,0.0,0.0,0.0,0.0,0.0,0.0,0.0,0.0,0.0,0.0,0.0,0.0,0.0,0.0,0.0,0.0,0.0,0.0,0.0,0.0,0.0,0.0,0.0,26.0,0.0,0.0,30.0,0.0,0.0,0.0,0.0,0.0,0.0,39.3,0.0,0.0,0.1,7.6,5.9,0.0,0.0,0.0,0.0,28.0,28.0,28.0,28.0,28.0,28.0,28.0,28.0,0.0,0.0,7.0,254.2,0.0,0.0,17.0,4.998,0.0,0.0,0.654,0.719,0.0,26.1,0.0,0.0,0.0,,0.0,0.0,28.0,-3.0,-4.899999999999999,87.8,78.8,32.0,32.0,32.0,32.0,82.4,82.4,82.4,82.4,82.4,82.4,82.4,82.4,32.0,32.0,78.98,26.6,23.180000000000003,0.0,0.0,0.0,2026-03-21 16:01:08-07:00
33.06,1.0,10.0,2026-03-21 23:01:36,37.08163,-121.59958,335.0,0.0,44.3,-12.6,0.0,,0.0,0.0,0.0,10.6,-1.0,9.8,0.0,240.0,-0.0,-0.02,1.0,99.0,-53.0,31.0,0.0,30.01,2138.0,0.0,0.0,153.0,0.0,0.0,0.0,0.0,0.0,0.0,0.0,0.0,0.0,0.0,0.0,0.0,0.0,0.0,0.0,0.0,0.0,0.0,0.0,0.0,0.0,0.0,0.0,0.0,0.0,26.0,0.0,0.0,30.1,0.0,0.0,0.0,0.0,0.0,0.0,39.3,0.0,0.0,0.1,7.6,5.9,0.0,0.0,0.0,0.0,27.0,28.0,28.0,28.0,28.0,28.0,28.0,28.0,0.0,0.0,7.0,254.2,0.0,0.0,17.0,4.998,0.0,0.0,0.654,0.719,0.0,26.2,0.0,0.0,0.0,,0.0,0.0,27.75,-3.25,-4.800000000000001,87.8,78.8,32.0,32.0,32.0,32.0,80.6,82.4,82.4,82.4,82.4,82.4,82.4,82.4,32.0,32.0,79.16,26.15,23.36,0.0,0.0,0.0,2026-03-21 16:01:08-07:00
34.06,1.0,10.0,2026-03-21 23:01:37,37.08163,-121.59958,331.0,0.0,44.3,-12.6,0.0,,0.0,0.0,0.0,10.6,-1.0,9.7,0.0,238.0,-0.0,-0.02,1.0,99.0,-109.0,31.0,0.0,30.01,2138.0,0.0,0.0,153.0,0.0,0.0,0.0,0.0,0.0,0.0,0.0,0.0,0.0,0.0,0.0,0.0,0.0,0.0,0.0,0.0,0.0,0.0,0.0,0.0,0.0,0.0,0.0,0.0,0.0,26.0,0.0,0.0,30.1,0.0,0.0,0.0,0.0,0.0,0.0,39.3,0.0,0.0,0.1,7.6,5.9,0.0,0.0,0.0,0.0,28.0,28.0,28.0,28.0,28.0,28.0,28.0,28.0,0.0,0.0,7.0,254.2,0.0,0.0,17.0,4.998,0.0,0.0,0.654,0.719,0.0,26.1,0.0,0.0,0.0,,0.0,0.0,28.0,-3.0,-4.899999999999999,87.8,78.8,32.0,32.0,32.0,32.0,82.4,82.4,82.4,82.4,82.4,82.4,82.4,82.4,32.0,32.0,78.98,26.6,23.180000000000003,0.0,0.0,0.0,2026-03-21 16:01:08-07:00
35.06,1.0,10.0,2026-03-21 23:01:38,37.08163,-121.59958,333.0,0.0,44.3,-12.6,0.0,,0.0,0.0,0.0,10.6,-0.9,9.7,0.0,236.0,-0.0,-0.02,1.0,99.0,-102.0,31.0,0.0,30.01,2143.0,0.0,0.0,153.0,0.0,0.0,0.0,0.0,0.0,0.0,0.0,0.0,0.0,0.0,0.0,0.0,0.0,0.0,0.0,0.0,0.0,0.0,0.0,0.0,0.0,0.0,0.0,0.0,0.0,26.0,0.0,0.0,30.1,0.0,0.0,0.0,0.0,0.0,0.0,39.3,0.0,0.0,0.1,7.6,5.9,0.0,0.0,0.0,0.0,28.0,28.0,28.0,28.0,28.0,28.0,28.0,28.0,0.0,0.0,7.0,254.2,0.0,0.0,17.0,4.998,0.0,0.0,0.653,0.719,0.0,26.1,0.0,0.0,0.0,,0.0,0.0,28.0,-3.0,-4.899999999999999,87.8,78.8,32.0,32.0,32.0,32.0,82.4,82.4,82.4,82.4,82.4,82.4,82.4,82.4,32.0,32.0,78.98,26.6,23.180000000000003,0.0,0.0,0.0,2026-03-21 16:01:08-07:00
36.06,1.0,10.0,2026-03-21 23:01:39,37.08163,-121.59959,333.0,0.0,44.3,-12.6,0.0,,0.0,0.0,0.0,10.6,-1.0,9.8,0.0,235.0,-0.0,-0.02,1.0,99.0,-110.0,31.0,0.0,30.01,2143.0,0.0,0.0,153.0,0.0,0.0,0.0,0.0,0.0,0.0,0.0,0.0,0.0,0.0,0.0,0.0,0.0,0.0,0.0,0.0,0.0,0.0,0.0,0.0,0.0,0.0,0.0,0.0,0.0,26.0,0.0,0.0,30.1,0.0,0.0,0.0,0.0,0.0,0.0,39.3,0.0,0.0,0.1,7.6,5.9,0.0,0.0,0.0,0.0,28.0,28.0,28.0,28.0,28.0,28.0,28.0,28.0,0.0,0.0,7.0,254.2,0.0,0.0,17.0,4.998,0.0,0.0,0.653,0.719,0.0,26.2,0.0,0.0,0.0,,0.0,0.0,28.0,-3.0,-4.800000000000001,87.8,78.8,32.0,32.0,32.0,32.0,82.4,82.4,82.4,82.4,82.4,82.4,82.4,82.4,32.0,32.0,79.16,26.6,23.36,0.0,0.0,0.0,2026-03-21 16:01:08-07:00
37.06,1.0,10.0,2026-03-21 23:01:40,37.08163,-121.59959,332.0,0.0,44.3,-12.6,0.0,,0.0,0.0,0.0,10.6,-0.9,9.9,0.0,233.0,0.0,-0.02,1.0,99.0,-106.0,31.0,0.0,30.01,2143.0,0.0,0.0,153.0,0.0,0.0,0.0,0.0,0.0,0.0,0.0,0.0,0.0,0.0,0.0,0.0,0.0,0.0,0.0,0.0,0.0,0.0,0.0,0.0,0.0,0.0,0.0,0.0,0.0,26.0,0.0,0.0,30.1,0.0,0.0,0.0,0.0,0.0,0.0,39.3,0.0,0.0,0.1,7.6,5.9,0.0,0.0,0.0,0.0,27.0,28.0,28.0,28.0,28.0,28.0,28.0,28.0,0.0,0.0,7.0,254.2,0.0,0.0,17.0,4.998,0.0,0.0,0.653,0.719,0.0,26.1,0.0,0.0,0.0,,0.0,0.0,27.75,-3.25,-4.899999999999999,87.8,78.8,32.0,32.0,32.0,32.0,80.6,82.4,82.4,82.4,82.4,82.4,82.4,82.4,32.0,32.0,78.98,26.15,23.180000000000003,0.0,0.0,0.0,2026-03-21 16:01:08-07:00
38.06,1.0,10.0,2026-03-21 23:01:41,37.08163,-121.59959,331.0,0.0,44.3,-12.6,0.0,,0.0,0.0,0.0,10.6,-0.9,9.9,0.0,230.0,0.0,-0.02,1.0,99.0,-121.0,31.0,0.0,30.01,2135.0,0.0,0.0,153.0,0.0,0.0,0.0,0.0,0.0,0.0,0.0,0.0,0.0,0.0,0.0,0.0,0.0,0.0,0.0,0.0,0.0,0.0,0.0,0.0,0.0,0.0,0.0,0.0,0.0,26.0,0.0,0.0,30.1,0.0,0.0,0.0,0.0,0.0,0.0,39.3,0.0,0.0,0.1,7.6,5.9,0.0,0.0,0.0,0.0,27.0,28.0,28.0,28.0,28.0,28.0,28.0,28.0,0.0,0.0,7.0,254.2,0.0,0.0,17.0,4.998,0.0,0.0,0.653,0.718,0.0,26.1,0.0,0.0,0.0,,0.0,0.0,27.75,-3.25,-4.899999999999999,87.8,78.8,32.0,32.0,32.0,32.0,80.6,82.4,82.4,82.4,82.4,82.4,82.4,82.4,32.0,32.0,78.98,26.15,23.180000000000003,0.0,0.0,0.0,2026-03-21 16:01:08-07:00
39.06,1.0,10.0,2026-03-21 23:01:42,37.08163,-121.59959,331.0,0.0,44.3,-12.6,0.0,,0.0,0.0,0.0,10.6,-0.9,10.0,0.0,228.0,0.0,-0.02,1.0,99.0,-128.0,31.0,0.0,30.01,2136.0,0.0,0.0,153.0,0.0,0.0,0.0,0.0,0.0,0.0,0.0,0.0,0.0,0.0,0.0,0.0,0.0,0.0,0.0,0.0,0.0,0.0,0.0,0.0,0.0,0.0,0.0,0.0,0.0,26.0,0.0,0.0,30.1,0.0,0.0,0.0,0.0,0.0,0.0,39.3,0.0,0.0,0.1,7.6,5.9,0.0,0.0,0.0,0.0,27.0,28.0,28.0,28.0,28.0,28.0,28.0,28.0,0.0,0.0,7.0,254.2,0.0,0.0,17.0,4.998,0.0,0.0,0.653,0.719,0.0,26.2,0.0,0.0,0.0,,0.0,0.0,27.75,-3.25,-4.800000000000001,87.8,78.8,32.0,32.0,32.0,32.0,80.6,82.4,82.4,82.4,82.4,82.4,82.4,82.4,32.0,32.0,79.16,26.15,23.36,0.0,0.0,0.0,2026-03-21 16:01:08-07:00
40.06,1.0,10.0,2026-03-21 23:01:43,37.08163,-121.59959,331.0,0.0,44.3,-12.6,0.0,,0.0,0.0,0.0,10.6,-0.9,9.9,0.0,226.0,-0.0,-0.02,1.0,99.0,-143.0,31.0,0.0,30.01,2136.0,0.0,0.0,153.0,0.0,0.0,0.0,0.0,0.0,0.0,0.0,0.0,0.0,0.0,0.0,0.0,0.0,0.0,0.0,0.0,0.0,0.0,0.0,0.0,0.0,0.0,0.0,0.0,0.0,26.0,0.0,0.0,30.1,0.0,0.0,0.0,0.0,0.0,0.0,39.3,0.0,0.0,0.1,7.6,5.9,0.0,0.0,0.0,0.0,28.0,28.0,28.0,28.0,28.0,28.0,28.0,28.0,0.0,0.0,7.0,233.6,0.0,0.0,17.0,4.998,0.0,0.0,0.653,0.719,0.0,26.1,0.0,0.0,0.0,,0.0,0.0,28.0,-3.0,-4.899999999999999,87.8,78.8,32.0,32.0,32.0,32.0,82.4,82.4,82.4,82.4,82.4,82.4,82.4,82.4,32.0,32.0,78.98,26.6,23.180000000000003,0.0,0.0,0.0,2026-03-21 16:01:08-07:00
41.06,1.0,10.0,2026-03-21 23:01:44,37.08164,-121.59959,330.0,0.0,44.3,-12.6,0.0,,0.0,0.0,0.0,10.6,-0.9,9.9,0.0,225.0,0.0,-0.01,1.0,99.0,-98.0,31.0,0.0,30.01,2136.0,0.0,0.0,153.0,0.0,0.0,0.0,0.0,0.0,0.0,0.0,0.0,0.0,0.0,0.0,0.0,0.0,0.0,0.0,0.0,0.0,0.0,0.0,0.0,0.0,0.0,0.0,0.0,0.0,26.0,0.0,0.0,30.1,0.0,0.0,0.0,2.0,0.0,0.0,39.3,0.0,0.0,0.0,7.6,5.9,0.0,0.0,0.0,0.0,28.0,28.0,28.0,28.0,28.0,28.0,28.0,28.0,0.0,0.0,7.0,181.8,0.0,2.0,17.0,4.998,0.0,0.0,0.653,0.719,0.0,26.2,0.0,0.0,0.0,,0.0,0.0,28.0,-3.0,-4.800000000000001,87.8,78.8,32.0,32.0,32.0,32.0,82.4,82.4,82.4,82.4,82.4,82.4,82.4,82.4,32.0,32.0,79.16,26.6,23.36,0.0,0.0,0.0,2026-03-21 16:01:08-07:00
42.06,1.0,10.0,2026-03-21 23:01:45,37.08164,-121.59959,330.0,0.0,44.3,-12.6,0.0,,0.0,0.0,0.0,10.6,-0.9,10.0,0.0,225.0,0.0,-0.02,1.0,99.0,-44.0,31.0,0.0,30.01,2138.0,0.0,0.0,153.0,0.0,0.0,0.0,0.0,0.0,0.0,0.0,0.0,0.0,0.0,0.0,0.0,0.0,0.0,0.0,0.0,0.0,0.0,0.0,0.0,0.0,0.0,0.0,0.0,0.0,26.0,0.0,0.0,30.1,0.0,0.0,0.0,5.2,0.0,0.0,39.3,0.0,0.0,0.0,7.6,5.9,0.0,0.0,0.0,0.0,27.0,28.0,28.0,28.0,28.0,28.0,28.0,28.0,0.0,0.0,8.0,141.5,0.0,5.2,17.0,4.998,0.0,0.0,0.653,0.719,0.0,26.2,0.0,0.0,0.0,,0.0,0.0,27.75,-3.25,-4.800000000000001,87.8,78.8,32.0,32.0,32.0,32.0,80.6,82.4,82.4,82.4,82.4,82.4,82.4,82.4,32.0,32.0,79.16,26.15,23.36,0.0,0.0,0.0,2026-03-21 16:01:08-07:00
43.06,1.0,10.0,2026-03-21 23:01:46,37.08164,-121.59959,330.0,0.0,44.3,-12.6,0.0,,0.0,0.0,0.0,10.6,-0.9,9.9,0.0,225.0,0.0,-0.02,1.0,99.0,-45.0,31.0,0.0,30.01,2139.0,0.0,0.0,153.0,0.0,0.0,0.0,0.0,0.0,0.0,0.0,0.0,0.0,0.0,0.0,0.0,0.0,0.0,0.0,0.0,0.0,0.0,0.0,0.0,0.0,0.0,0.0,0.0,0.0,26.0,0.0,0.0,30.1,0.8,0.0,0.8,5.3,0.0,0.0,39.3,0.0,0.0,0.0,7.6,5.9,0.0,0.0,0.0,0.0,27.0,28.0,28.0,28.0,28.0,28.0,28.0,28.0,0.0,0.0,8.0,110.2,0.0,5.3,17.0,4.998,0.0,0.0,0.653,0.718,0.0,26.2,0.0,0.0,0.0,,0.0,0.0,27.75,-3.25,-4.800000000000001,87.8,78.8,32.0,32.0,32.0,32.0,80.6,82.4,82.4,82.4,82.4,82.4,82.4,82.4,32.0,32.0,79.16,26.15,23.36,0.00011111111111111112,0.0,0.0,2026-03-21 16:01:08-07:00
44.06,1.0,10.0,2026-03-21 23:01:47,37.08164,-121.59959,330.0,0.0,44.3,-12.6,0.0,,0.0,0.0,0.0,10.6,-0.9,9.9,0.0,224.0,-0.0,-0.02,1.0,99.0,-42.0,31.0,0.0,30.01,2139.0,0.0,0.0,153.0,0.0,0.0,0.0,0.0,0.0,0.0,0.0,0.0,0.0,0.0,0.0,0.0,0.0,0.0,0.0,0.0,0.0,0.0,0.0,0.0,0.0,0.0,0.0,0.0,0.0,26.0,0.0,0.0,30.1,0.7,0.0,0.7,27.6,0.0,0.0,39.3,0.0,0.0,0.0,7.6,5.9,0.0,0.0,0.0,0.0,27.0,28.0,28.0,28.0,28.0,28.0,28.0,28.0,0.0,0.0,8.0,85.9,0.0,27.6,17.0,4.998,0.0,0.0,0.653,0.719,0.0,26.2,0.0,0.0,0.0,,0.0,0.0,27.75,-3.25,-4.800000000000001,87.8,78.8,32.0,32.0,32.0,32.0,80.6,82.4,82.4,82.4,82.4,82.4,82.4,82.4,32.0,32.0,79.16,26.15,23.36,0.00031944444444444446,0.0,0.0,2026-03-21 16:01:08-07:00
45.06,1.0,10.0,2026-03-21 23:01:48,37.08164,-121.59959,331.0,0.0,44.3,-12.6,0.0,,0.0,0.0,0.0,10.6,-1.0,9.9,0.0,224.0,-0.0,-0.02,1.0,99.0,-6.0,31.0,0.0,30.01,2139.0,0.0,0.0,153.0,0.0,0.0,0.0,0.0,0.0,0.0,0.0,0.0,0.0,0.0,0.0,0.0,0.0,0.0,0.0,0.0,0.0,0.0,0.0,0.0,0.0,0.0,0.0,0.0,0.0,26.0,0.0,0.0,30.1,0.6,0.0,0.6,32.2,0.0,0.0,39.3,0.0,0.0,0.0,7.6,5.9,0.0,0.0,0.0,0.0,28.0,28.0,28.0,28.0,28.0,28.0,28.0,28.0,0.0,0.0,8.0,67.0,0.0,32.2,17.0,4.998,0.0,0.0,0.653,0.719,0.0,26.2,0.0,0.0,0.0,,0.0,0.0,28.0,-3.0,-4.800000000000001,87.8,78.8,32.0,32.0,32.0,32.0,82.4,82.4,82.4,82.4,82.4,82.4,82.4,82.4,32.0,32.0,79.16,26.6,23.36,0.0005,0.0,0.0,2026-03-21 16:01:08-07:00
46.06,1.0,10.0,2026-03-21 23:01:49,37.08164,-121.59959,331.0,0.0,44.3,-12.6,0.0,,0.0,0.0,0.0,10.6,-1.0,9.8,0.0,224.0,-0.0,-0.02,1.0,99.0,-10.0,31.0,0.0,30.01,2148.0,0.0,0.0,153.0,0.0,0.0,0.0,0.0,0.0,0.0,0.0,0.0,0.0,0.0,0.0,0.0,0.0,0.0,0.0,0.0,0.0,0.0,0.0,0.0,0.0,0.0,0.0,0.0,0.0,26.0,0.0,0.0,30.1,0.7,0.0,0.7,32.6,0.0,0.0,39.3,0.0,0.0,0.0,7.6,5.9,0.0,0.0,0.0,0.0,27.0,28.0,28.0,28.0,28.0,28.0,28.0,28.0,0.0,0.0,8.0,52.3,0.0,32.6,17.0,4.998,0.0,0.0,0.653,0.719,0.0,26.2,0.0,0.0,0.0,,0.0,0.0,27.75,-3.25,-4.800000000000001,87.8,78.8,32.0,32.0,32.0,32.0,80.6,82.4,82.4,82.4,82.4,82.4,82.4,82.4,32.0,32.0,79.16,26.15,23.36,0.0006805555555555556,0.0,0.0,2026-03-21 16:01:08-07:00
47.06,1.0,10.0,2026-03-21 23:01:50,37.08164,-121.59959,331.0,0.0,44.3,-12.6,0.0,,0.0,0.0,0.0,10.6,-1.0,9.8,0.0,224.0,0.0,-0.02,1.0,99.0,-4.0,31.0,0.0,30.01,2148.0,0.0,0.0,153.0,0.0,0.0,0.0,0.0,0.0,0.0,0.0,0.0,0.0,0.0,0.0,0.0,0.0,0.0,0.0,0.0,0.0,0.0,0.0,0.0,0.0,0.0,0.0,0.0,0.0,26.0,0.0,0.0,30.1,1.3,0.0,1.3,32.4,0.0,0.0,39.3,0.0,0.0,0.0,7.6,5.9,0.0,0.0,0.0,0.0,28.0,28.0,28.0,28.0,28.0,28.0,28.0,28.0,0.0,0.0,8.0,40.8,0.0,32.4,17.0,4.998,0.0,0.0,0.654,0.72,0.0,26.2,0.0,0.0,0.0,,0.0,0.0,28.0,-3.0,-4.800000000000001,87.8,78.8,32.0,32.0,32.0,32.0,82.4,82.4,82.4,82.4,82.4,82.4,82.4,82.4,32.0,32.0,79.16,26.6,23.36,0.0009583333333333333,0.0,0.0,2026-03-21 16:01:08-07:00
48.06,1.0,10.0,2026-03-21 23:01:51,37.08163,-121.59959,331.0,0.0,44.3,-12.6,0.0,,0.0,0.0,0.0,10.6,-1.0,9.8,0.0,224.0,-0.0,-0.02,1.0,99.0,-33.0,31.0,0.0,30.01,2148.0,0.0,0.0,153.0,0.0,0.0,0.0,0.0,0.0,0.0,0.0,0.0,0.0,0.0,0.0,0.0,0.0,0.0,0.0,0.0,0.0,0.0,0.0,0.0,0.0,0.0,0.0,0.0,0.0,26.0,0.0,0.0,30.1,1.8,0.0,1.8,32.3,0.0,0.0,39.3,0.0,0.0,0.0,7.6,5.9,0.0,0.0,0.0,0.0,28.0,28.0,28.0,28.0,28.0,28.0,28.0,28.0,0.0,0.0,8.0,31.9,0.0,32.3,17.0,4.998,0.0,0.0,0.654,0.719,0.0,26.2,0.0,0.0,0.0,,0.0,0.0,28.0,-3.0,-4.800000000000001,87.8,78.8,32.0,32.0,32.0,32.0,82.4,82.4,82.4,82.4,82.4,82.4,82.4,82.4,32.0,32.0,79.16,26.6,23.36,0.0013888888888888887,0.0,0.0,2026-03-21 16:01:08-07:00
49.06,1.0,10.0,2026-03-21 23:01:52,37.08163,-121.59959,332.0,0.0,44.3,-12.6,0.0,,0.0,0.0,0.0,10.6,-1.0,9.7,0.0,223.0,-0.0,-0.02,1.0,99.0,-11.0,31.0,0.0,30.01,2147.0,0.0,0.0,153.0,0.0,0.0,0.0,0.0,0.0,0.0,0.0,0.0,0.0,0.0,0.0,0.0,0.0,0.0,0.0,0.0,0.0,0.0,0.0,0.0,0.0,0.0,0.0,0.0,0.0,26.0,0.0,0.0,30.1,2.1,0.0,2.1,33.7,0.0,0.0,39.3,0.0,0.0,0.0,7.6,5.9,0.0,0.0,0.0,0.0,28.0,28.0,28.0,28.0,28.0,28.0,28.0,28.0,0.0,0.0,8.0,25.0,0.0,33.7,17.0,4.998,0.0,0.0,0.653,0.719,0.0,26.2,0.0,0.0,0.0,,0.0,0.0,28.0,-3.0,-4.800000000000001,87.8,78.8,32.0,32.0,32.0,32.0,82.4,82.4,82.4,82.4,82.4,82.4,82.4,82.4,32.0,32.0,79.16,26.6,23.36,0.0019305555555555556,0.0,0.0,2026-03-21 16:01:08-07:00
50.06,1.0,10.0,2026-03-21 23:01:53,37.08163,-121.59959,332.0,0.0,44.3,-12.6,0.0,,0.0,0.0,0.0,10.6,-1.0,9.8,0.0,223.0,0.0,-0.02,1.0,99.0,12.0,31.0,0.0,30.01,2147.0,0.0,0.0,153.0,0.0,0.0,0.0,0.0,0.0,0.0,0.0,0.0,0.0,0.0,0.0,0.0,0.0,0.0,0.0,0.0,0.0,0.0,0.0,0.0,0.0,0.0,0.0,0.0,0.0,26.0,0.0,0.0,30.1,2.0,0.0,2.0,33.9,0.0,0.0,39.3,0.0,0.0,0.0,7.6,5.9,0.0,0.0,0.0,0.0,28.0,28.0,28.0,28.0,28.0,28.0,28.0,28.0,0.0,0.0,8.0,19.7,0.0,33.9,17.0,4.998,0.0,0.0,0.653,0.719,0.0,26.2,0.0,0.0,0.0,,0.0,0.0,28.0,-3.0,-4.800000000000001,87.8,78.8,32.0,32.0,32.0,32.0,82.4,82.4,82.4,82.4,82.4,82.4,82.4,82.4,32.0,32.0,79.16,26.6,23.36,0.0025,0.0,0.0,2026-03-21 16:01:08-07:00
51.06,1.0,10.0,2026-03-21 23:01:54,37.08163,-121.59959,333.0,0.0,44.3,-12.6,0.0,,0.0,0.0,0.0,10.7,-1.1,9.8,0.0,223.0,0.0,-0.02,1.0,99.0,30.0,31.0,0.0,30.01,2147.0,0.0,0.0,153.0,0.0,0.0,0.0,0.0,0.0,0.0,0.0,0.0,0.0,0.0,0.0,0.0,0.0,0.0,0.0,0.0,0.0,0.0,0.0,0.0,0.0,0.0,0.0,0.0,0.0,26.0,0.0,0.0,30.1,2.0,0.0,2.0,33.0,0.0,0.0,39.3,0.0,0.0,0.0,7.6,5.9,0.0,0.0,0.0,0.0,28.0,28.0,28.0,28.0,28.0,28.0,28.0,28.0,0.0,0.0,8.0,15.5,0.0,33.0,17.0,4.998,0.0,0.0,0.653,0.719,0.0,26.2,0.0,0.0,0.0,,0.0,0.0,28.0,-3.0,-4.800000000000001,87.8,78.8,32.0,32.0,32.0,32.0,82.4,82.4,82.4,82.4,82.4,82.4,82.4,82.4,32.0,32.0,79.16,26.6,23.36,0.0030555555555555553,0.0,0.0,2026-03-21 16:01:08-07:00
52.06,1.0,10.0,2026-03-21 23:01:55,37.08163,-121.59959,333.0,0.0,44.3,-12.6,0.0,,0.0,0.0,0.0,10.7,-1.0,9.7,0.0,223.0,-0.0,-0.02,1.0,99.0,55.0,31.0,0.0,30.01,2147.0,0.0,0.0,153.0,0.0,0.0,0.0,0.0,0.0,0.0,0.0,0.0,0.0,0.0,0.0,0.0,0.0,0.0,0.0,0.0,0.0,0.0,0.0,0.0,0.0,0.0,0.0,0.0,0.0,26.0,0.0,0.0,30.1,1.7,0.0,1.7,32.8,0.0,0.0,39.3,0.0,0.0,0.0,7.6,5.9,0.0,0.0,0.0,0.0,28.0,28.0,28.0,28.0,28.0,28.0,28.0,28.0,0.0,0.0,8.0,12.3,0.0,32.8,17.0,4.998,0.0,0.0,0.653,0.719,0.0,26.2,0.0,0.0,0.0,,0.0,0.0,28.0,-3.0,-4.800000000000001,87.8,78.8,32.0,32.0,32.0,32.0,82.4,82.4,82.4,82.4,82.4,82.4,82.4,82.4,32.0,32.0,79.16,26.6,23.36,0.0035694444444444445,0.0,0.0,2026-03-21 16:01:08-07:00
53.06,1.0,10.0,2026-03-21 23:01:56,37.08163,-121.59959,333.0,0.0,44.3,-12.6,0.0,,0.0,0.0,0.0,10.7,-1.0,9.7,0.0,223.0,-0.0,-0.02,1.0,99.0,88.0,31.0,0.0,30.01,2147.0,0.0,0.0,153.0,0.0,0.0,0.0,0.0,0.0,0.0,0.0,0.0,0.0,0.0,0.0,0.0,0.0,0.0,0.0,0.0,0.0,0.0,0.0,0.0,0.0,0.0,0.0,0.0,0.0,26.0,0.0,0.0,30.1,1.7,0.0,1.7,32.5,0.0,0.0,39.3,0.0,0.0,0.0,7.6,5.9,0.0,0.0,0.0,0.0,28.0,28.0,28.0,28.0,28.0,28.0,28.0,28.0,0.0,0.0,8.0,9.8,0.0,32.5,17.0,4.998,0.0,0.0,0.654,0.719,0.0,26.2,0.0,0.0,0.0,,0.0,0.0,28.0,-3.0,-4.800000000000001,87.8,78.8,32.0,32.0,32.0,32.0,82.4,82.4,82.4,82.4,82.4,82.4,82.4,82.4,32.0,32.0,79.16,26.6,23.36,0.0040416666666666665,0.0,0.0,2026-03-21 16:01:08-07:00
54.06,1.0,10.0,2026-03-21 23:01:57,37.08163,-121.59959,334.0,0.0,44.3,-12.6,0.0,,0.0,0.0,0.0,10.7,-1.0,9.7,0.0,223.0,-0.0,-0.02,1.0,99.0,93.0,31.0,0.0,30.01,2147.0,0.0,0.0,153.0,0.0,0.0,0.0,0.0,0.0,0.0,0.0,0.0,0.0,0.0,0.0,0.0,0.0,0.0,0.0,0.0,0.0,0.0,0.0,0.0,0.0,0.0,0.0,0.0,0.0,26.0,0.0,0.0,30.1,0.0,0.0,0.0,32.3,0.0,0.0,39.3,0.0,0.0,0.1,7.6,5.9,0.0,0.0,0.0,0.0,28.0,28.0,28.0,28.0,28.0,28.0,28.0,28.0,0.0,0.0,8.0,7.8,0.0,32.3,17.0,4.998,0.0,0.0,0.654,0.719,0.0,26.2,0.0,0.0,0.0,,0.0,0.0,28.0,-3.0,-4.800000000000001,87.8,78.8,32.0,32.0,32.0,32.0,82.4,82.4,82.4,82.4,82.4,82.4,82.4,82.4,32.0,32.0,79.16,26.6,23.36,0.004277777777777778,0.0,0.0,2026-03-21 16:01:08-07:00
55.06,1.0,10.0,2026-03-21 23:01:58,37.08163,-121.59959,334.0,0.0,44.3,-12.6,0.0,,0.0,0.0,0.0,10.7,-1.0,9.7,0.0,223.0,-0.0,-0.02,1.0,99.0,68.0,31.0,0.0,30.01,2148.0,0.0,0.0,153.0,0.0,0.0,0.0,0.0,0.0,0.0,0.0,0.0,0.0,0.0,0.0,0.0,0.0,0.0,0.0,0.0,0.0,0.0,0.0,0.0,0.0,0.0,0.0,0.0,0.0,26.0,0.0,0.0,30.1,0.0,0.0,0.0,32.1,0.0,0.0,39.3,0.0,0.0,0.1,7.6,5.9,0.0,0.0,0.0,0.0,28.0,28.0,28.0,28.0,28.0,28.0,28.0,28.0,0.0,0.0,8.0,6.3,0.0,32.1,17.0,4.998,0.0,0.0,0.653,0.719,0.0,26.2,0.0,0.0,0.0,,0.0,0.0,28.0,-3.0,-4.800000000000001,87.8,78.8,32.0,32.0,32.0,32.0,82.4,82.4,82.4,82.4,82.4,82.4,82.4,82.4,32.0,32.0,79.16,26.6,23.36,0.004277777777777778,0.0,0.0,2026-03-21 16:01:08-07:00
56.06,1.0,10.0,2026-03-21 23:01:59,37.08163,-121.59959,335.0,0.0,44.3,-12.6,0.0,,0.0,0.0,0.0,10.7,-1.1,9.7,0.0,223.0,-0.0,-0.02,1.0,99.0,21.0,31.0,0.0,30.01,2148.0,0.0,0.0,153.0,0.0,0.0,0.0,0.0,0.0,0.0,0.0,0.0,0.0,0.0,0.0,0.0,0.0,0.0,0.0,0.0,0.0,0.0,0.0,0.0,0.0,0.0,0.0,0.0,0.0,26.0,0.0,0.0,30.1,0.0,0.0,0.0,31.9,0.0,0.0,39.3,0.0,0.0,0.1,7.6,5.9,0.0,0.0,0.0,0.0,28.0,28.0,28.0,28.0,28.0,28.0,28.0,28.0,0.0,0.0,8.0,5.1,0.0,31.9,17.0,4.998,0.0,0.0,0.654,0.719,0.0,26.1,0.0,0.0,0.0,,0.0,0.0,28.0,-3.0,-4.899999999999999,87.8,78.8,32.0,32.0,32.0,32.0,82.4,82.4,82.4,82.4,82.4,82.4,82.4,82.4,32.0,32.0,78.98,26.6,23.180000000000003,0.004277777777777778,0.0,0.0,2026-03-21 16:01:08-07:00
57.06,1.0,10.0,2026-03-21 23:02:00,37.08163,-121.59959,335.0,0.0,44.3,-12.6,0.0,,0.0,0.0,0.0,10.6,-1.1,9.7,0.0,223.0,-0.0,-0.02,1.0,99.0,42.0,31.0,0.0,30.01,2148.0,0.0,0.0,153.0,0.0,0.0,0.0,0.0,0.0,0.0,0.0,0.0,0.0,0.0,0.0,0.0,0.0,0.0,0.0,0.0,0.0,0.0,0.0,0.0,0.0,0.0,0.0,0.0,0.0,26.0,0.0,0.0,30.1,0.0,0.0,0.0,31.8,0.0,0.0,39.3,0.0,0.0,0.1,7.6,5.9,0.0,0.0,0.0,0.0,28.0,28.0,28.0,28.0,28.0,28.0,28.0,28.0,0.0,0.0,8.0,4.2,0.0,31.8,17.0,4.998,0.0,0.0,0.653,0.719,0.0,26.2,0.0,0.0,0.0,,0.0,0.0,28.0,-3.0,-4.800000000000001,87.8,78.8,32.0,32.0,32.0,32.0,82.4,82.4,82.4,82.4,82.4,82.4,82.4,82.4,32.0,32.0,79.16,26.6,23.36,0.004277777777777778,0.0,0.0,2026-03-21 16:01:08-07:00
58.06,1.0,10.0,2026-03-21 23:02:01,37.08163,-121.59959,336.0,0.0,44.3,-12.6,0.0,,0.0,0.0,0.0,10.7,-1.0,9.7,0.0,223.0,-0.0,-0.02,1.0,99.0,12.0,31.0,0.0,30.01,2157.0,0.0,0.0,153.0,0.0,0.0,0.0,0.0,0.0,0.0,0.0,0.0,0.0,0.0,0.0,0.0,0.0,0.0,0.0,0.0,0.0,0.0,0.0,0.0,0.0,0.0,0.0,0.0,0.0,26.0,0.0,0.0,30.1,0.0,0.0,0.0,31.6,0.0,0.0,39.3,0.0,0.0,0.1,7.6,5.9,0.0,0.0,0.0,0.0,28.0,28.0,28.0,28.0,28.0,28.0,28.0,28.0,0.0,0.0,8.0,3.5,0.0,31.6,17.0,4.998,0.0,0.0,0.653,0.719,0.0,26.2,0.0,0.0,0.0,,0.0,0.0,28.0,-3.0,-4.800000000000001,87.8,78.8,32.0,32.0,32.0,32.0,82.4,82.4,82.4,82.4,82.4,82.4,82.4,82.4,32.0,32.0,79.16,26.6,23.36,0.004277777777777778,0.0,0.0,2026-03-21 16:01:08-07:00
59.06,1.0,10.0,2026-03-21 23:02:02,37.08163,-121.59959,336.0,0.0,44.3,-12.6,0.0,,0.0,0.0,0.0,10.6,-1.0,9.7,0.0,223.0,-0.0,-0.02,1.0,99.0,-5.0,31.0,0.0,30.01,2157.0,0.0,0.0,153.0,0.0,0.0,0.0,0.0,0.0,0.0,0.0,0.0,0.0,0.0,0.0,0.0,0.0,0.0,0.0,0.0,0.0,0.0,0.0,0.0,0.0,0.0,0.0,0.0,0.0,26.0,0.0,0.0,30.1,0.1,0.0,0.1,31.4,0.0,0.0,39.3,0.0,0.0,0.1,7.6,5.9,0.0,0.0,0.0,0.0,28.0,28.0,28.0,28.0,28.0,28.0,28.0,28.0,0.0,0.0,8.0,2.9,0.0,31.4,17.0,4.998,0.0,0.0,0.654,0.719,0.0,26.2,0.0,0.0,0.0,,0.0,0.0,28.0,-3.0,-4.800000000000001,87.8,78.8,32.0,32.0,32.0,32.0,82.4,82.4,82.4,82.4,82.4,82.4,82.4,82.4,32.0,32.0,79.16,26.6,23.36,0.004291666666666667,0.0,0.0,2026-03-21 16:01:08-07:00
60.06,1.0,10.0,2026-03-21 23:02:03,37.08163,-121.59959,337.0,0.0,44.3,-12.6,0.0,,0.0,0.0,0.0,10.7,-1.0,9.7,0.0,223.0,-0.0,-0.02,1.0,99.0,-9.0,31.0,0.0,30.01,2157.0,0.0,0.0,153.0,0.0,0.0,0.0,0.0,0.0,0.0,0.0,0.0,0.0,0.0,0.0,0.0,0.0,0.0,0.0,0.0,0.0,0.0,0.0,0.0,0.0,0.0,0.0,0.0,0.0,26.0,0.0,0.0,30.1,0.1,0.0,0.1,31.3,0.0,0.0,39.3,0.0,0.0,0.1,7.6,5.9,0.0,0.0,0.0,0.0,28.0,28.0,28.0,28.0,28.0,28.0,28.0,28.0,0.0,0.0,8.0,2.5,0.0,31.3,17.0,4.998,0.0,0.0,0.653,0.719,0.0,26.2,0.0,0.0,0.0,,0.0,0.0,28.0,-3.0,-4.800000000000001,87.8,78.8,32.0,32.0,32.0,32.0,82.4,82.4,82.4,82.4,82.4,82.4,82.4,82.4,32.0,32.0,79.16,26.6,23.36,0.004319444444444444,0.0,0.0,2026-03-21 16:01:08-07:00
61.06,1.0,10.0,2026-03-21 23:02:04,37.08163,-121.59959,337.0,0.0,44.3,-12.6,0.0,,0.0,0.0,0.0,10.7,-1.0,9.7,0.0,223.0,-0.0,-0.02,1.0,99.0,-22.0,31.0,0.0,30.01,2158.0,0.0,0.0,153.0,0.0,0.0,0.0,0.0,0.0,0.0,0.0,0.0,0.0,0.0,0.0,0.0,0.0,0.0,0.0,0.0,0.0,0.0,0.0,0.0,0.0,0.0,0.0,0.0,0.0,26.0,0.0,0.0,30.1,0.1,0.0,0.1,31.2,0.0,0.0,39.3,0.0,0.0,0.1,7.6,5.9,0.0,0.0,0.0,0.0,28.0,28.0,28.0,28.0,28.0,28.0,28.0,28.0,0.0,0.0,8.0,2.2,0.0,31.2,17.0,4.998,0.0,0.0,0.653,0.719,0.0,26.2,0.0,0.0,0.0,,0.0,0.0,28.0,-3.0,-4.800000000000001,87.8,78.8,32.0,32.0,32.0,32.0,82.4,82.4,82.4,82.4,82.4,82.4,82.4,82.4,32.0,32.0,79.16,26.6,23.36,0.004347222222222222,0.0,0.0,2026-03-21 16:01:08-07:00
62.06,1.0,10.0,2026-03-21 23:02:05,37.08163,-121.59959,338.0,0.0,44.3,-12.6,0.0,,0.0,0.0,0.0,10.7,-1.0,9.7,0.0,223.0,-0.0,-0.02,1.0,99.0,-68.0,31.0,0.0,30.01,2158.0,0.0,0.0,153.0,0.0,0.0,0.0,0.0,0.0,0.0,0.0,0.0,0.0,0.0,0.0,0.0,0.0,0.0,0.0,0.0,0.0,0.0,0.0,0.0,0.0,0.0,0.0,0.0,0.0,26.0,0.0,0.0,30.1,0.1,0.0,0.1,31.0,0.0,0.0,39.3,0.0,0.0,0.1,7.6,5.9,0.0,0.0,0.0,0.0,28.0,28.0,28.0,28.0,28.0,28.0,28.0,28.0,0.0,0.0,8.0,1.9,0.0,31.0,17.0,4.998,0.0,0.0,0.653,0.719,0.0,26.2,0.0,0.0,0.0,,0.0,0.0,28.0,-3.0,-4.800000000000001,87.8,78.8,32.0,32.0,32.0,32.0,82.4,82.4,82.4,82.4,82.4,82.4,82.4,82.4,32.0,32.0,79.16,26.6,23.36,0.0043749999999999995,0.0,0.0,2026-03-21 16:01:08-07:00
63.06,1.0,10.0,2026-03-21 23:02:06,37.08163,-121.59959,338.0,0.0,44.3,-12.6,0.0,,0.0,0.0,0.0,10.7,-1.1,9.7,0.0,223.0,-0.0,-0.02,1.0,99.0,-82.0,31.0,0.0,30.01,2158.0,0.0,0.0,153.0,0.0,0.0,0.0,0.0,0.0,0.0,0.0,0.0,0.0,0.0,0.0,0.0,0.0,0.0,0.0,0.0,0.0,0.0,0.0,0.0,0.0,0.0,0.0,0.0,0.0,26.0,0.0,0.0,30.1,0.1,0.0,0.1,30.9,0.0,0.0,39.3,0.0,0.0,0.1,7.6,5.9,0.0,0.0,0.0,0.0,28.0,28.0,28.0,28.0,28.0,28.0,28.0,28.0,0.0,0.0,8.0,1.7,0.0,30.9,17.0,4.998,0.0,0.0,0.653,0.718,0.0,26.2,0.0,0.0,0.0,,0.0,0.0,28.0,-3.0,-4.800000000000001,87.8,78.8,32.0,32.0,32.0,32.0,82.4,82.4,82.4,82.4,82.4,82.4,82.4,82.4,32.0,32.0,79.16,26.6,23.36,0.004402777777777778,0.0,0.0,2026-03-21 16:01:08-07:00
64.06,1.0,10.0,2026-03-21 23:02:07,37.08163,-121.59959,339.0,0.0,44.3,-12.6,0.0,,0.0,0.0,0.0,10.7,-1.0,9.7,0.0,223.0,-0.0,-0.02,1.0,99.0,-44.0,31.0,0.0,30.01,2159.0,0.0,0.0,153.0,0.0,0.0,0.0,0.0,0.0,0.0,0.0,0.0,0.0,0.0,0.0,0.0,0.0,0.0,0.0,0.0,0.0,0.0,0.0,0.0,0.0,0.0,0.0,0.0,0.0,26.0,0.0,0.0,30.1,0.1,0.0,0.1,30.8,0.0,0.0,39.3,0.0,0.0,0.1,7.6,5.9,0.0,0.0,0.0,0.0,28.0,28.0,28.0,28.0,28.0,28.0,28.0,28.0,0.0,0.0,8.0,1.5,0.0,30.8,17.0,4.998,0.0,0.0,0.653,0.719,0.0,26.2,0.0,0.0,0.0,,0.0,0.0,28.0,-3.0,-4.800000000000001,87.8,78.8,32.0,32.0,32.0,32.0,82.4,82.4,82.4,82.4,82.4,82.4,82.4,82.4,32.0,32.0,79.16,26.6,23.36,0.004430555555555556,0.0,0.0,2026-03-21 16:01:08-07:00
65.06,1.0,10.0,2026-03-21 23:02:08,37.08163,-121.59959,339.0,0.0,44.3,-12.6,0.0,,0.0,0.0,0.0,10.7,-1.0,9.7,0.0,223.0,0.0,-0.02,1.0,99.0,-28.0,31.0,0.0,30.01,2159.0,0.0,0.0,153.0,0.0,0.0,0.0,0.0,0.0,0.0,0.0,0.0,0.0,0.0,0.0,0.0,0.0,0.0,0.0,0.0,0.0,0.0,0.0,0.0,0.0,0.0,0.0,0.0,0.0,26.0,0.0,0.0,30.1,0.1,0.0,0.1,30.6,0.0,0.0,39.3,0.0,0.0,0.1,7.6,5.9,0.0,0.0,0.0,0.0,28.0,28.0,28.0,28.0,28.0,28.0,28.0,28.0,0.0,0.0,8.0,1.4,0.0,30.6,17.0,4.998,0.0,0.0,0.653,0.719,0.0,26.2,0.0,0.0,0.0,,0.0,0.0,28.0,-3.0,-4.800000000000001,87.8,78.8,32.0,32.0,32.0,32.0,82.4,82.4,82.4,82.4,82.4,82.4,82.4,82.4,32.0,32.0,79.16,26.6,23.36,0.004458333333333333,0.0,0.0,2026-03-21 16:01:08-07:00
66.06,1.0,10.0,2026-03-21 23:02:09,37.08162,-121.5996,346.0,0.0,44.3,-12.6,0.0,,0.0,0.0,0.0,10.7,-1.0,9.7,0.0,223.0,-0.0,-0.02,1.0,99.0,-44.0,31.0,0.0,30.01,2159.0,0.0,0.0,153.0,0.0,0.0,0.0,0.0,0.0,0.0,0.0,0.0,0.0,0.0,0.0,0.0,0.0,0.0,0.0,0.0,0.0,0.0,0.0,0.0,0.0,0.0,0.0,0.0,0.0,26.0,0.0,0.0,30.1,0.0,0.0,0.0,30.5,0.0,0.0,39.3,0.0,0.0,0.1,7.6,5.9,0.0,0.0,0.0,0.0,28.0,28.0,28.0,28.0,28.0,28.0,28.0,28.0,0.0,0.0,8.0,1.3,0.0,30.5,17.0,4.998,0.0,0.0,0.653,0.719,0.0,26.2,0.0,0.0,0.0,,0.0,0.0,28.0,-3.0,-4.800000000000001,87.8,78.8,32.0,32.0,32.0,32.0,82.4,82.4,82.4,82.4,82.4,82.4,82.4,82.4,32.0,32.0,79.16,26.6,23.36,0.004472222222222222,0.0,0.0,2026-03-21 16:01:08-07:00
67.06,1.0,10.0,2026-03-21 23:02:10,37.08162,-121.5996,347.0,0.0,44.3,-12.6,0.0,,0.0,0.0,0.0,10.7,-1.0,9.7,0.0,223.0,-0.0,-0.02,1.0,99.0,-30.0,31.0,0.0,30.01,2168.0,0.0,0.0,153.0,0.0,0.0,0.0,0.0,0.0,0.0,0.0,0.0,0.0,0.0,0.0,0.0,0.0,0.0,0.0,0.0,0.0,0.0,0.0,0.0,0.0,0.0,0.0,0.0,0.0,26.0,0.0,0.0,30.1,0.0,0.0,0.0,30.4,0.0,0.0,39.3,0.0,0.0,0.1,7.6,5.9,0.0,0.0,0.0,0.0,28.0,28.0,28.0,28.0,28.0,28.0,28.0,28.0,0.0,0.0,8.0,1.2,0.0,30.4,17.0,4.998,0.0,0.0,0.653,0.719,0.0,26.2,0.0,0.0,0.0,,0.0,0.0,28.0,-3.0,-4.800000000000001,87.8,78.8,32.0,32.0,32.0,32.0,82.4,82.4,82.4,82.4,82.4,82.4,82.4,82.4,32.0,32.0,79.16,26.6,23.36,0.004472222222222222,0.0,0.0,2026-03-21 16:01:08-07:00
68.06,1.0,10.0,2026-03-21 23:02:11,37.08162,-121.59959,347.0,0.0,44.3,-12.6,0.0,,0.0,0.0,0.0,10.7,-1.0,9.8,0.0,223.0,-0.0,-0.02,1.0,99.0,-28.0,31.0,0.0,30.01,2168.0,0.0,0.0,153.0,0.0,0.0,0.0,0.0,0.0,0.0,0.0,0.0,0.0,0.0,0.0,0.0,0.0,0.0,0.0,0.0,0.0,0.0,0.0,0.0,0.0,0.0,0.0,0.0,0.0,22.0,0.0,0.0,30.1,0.0,0.0,0.0,30.3,0.0,0.0,39.3,0.0,0.0,0.0,7.6,5.9,0.0,0.0,0.0,0.0,22.0,22.0,22.0,21.0,22.0,22.0,22.0,22.0,0.0,0.0,8.0,1.2,0.0,30.3,17.0,3.458,0.0,0.0,0.653,0.718,0.0,22.3,0.0,0.0,0.0,,0.0,0.0,22.0,-9.0,-8.7,87.8,71.6,32.0,32.0,32.0,32.0,71.6,71.6,71.6,69.8,71.6,71.6,71.6,71.6,32.0,32.0,72.14,15.8,16.34,0.004472222222222222,0.0,0.0,2026-03-21 16:01:08-07:00
69.06,1.0,10.0,2026-03-21 23:02:12,37.08162,-121.59959,348.0,0.0,44.3,-12.6,0.0,,0.0,0.0,0.0,10.6,-1.0,9.8,0.0,223.0,-0.0,-0.02,1.0,99.0,-8.0,31.0,0.0,30.01,2168.0,0.0,0.0,153.0,0.0,0.0,0.0,0.0,0.0,0.0,0.0,0.0,0.0,0.0,0.0,0.0,0.0,0.0,0.0,0.0,0.0,0.0,0.0,0.0,0.0,0.0,0.0,0.0,0.0,23.0,141.0,141.0,30.3,0.1,0.0,0.1,30.3,0.0,0.0,39.3,0.0,0.0,-0.1,7.6,5.9,0.0,0.0,0.0,0.0,24.0,24.0,24.0,23.0,24.0,23.0,24.0,24.0,0.0,0.0,8.0,1.1,0.0,30.3,17.0,0.002,0.0,0.0,0.653,0.718,0.0,23.3,0.0,0.0,0.0,,0.0,141.0,24.0,-7.0,-7.699999999999999,87.8,73.4,32.0,32.0,32.0,32.0,75.2,75.2,75.2,73.4,75.2,73.4,75.2,75.2,32.0,32.0,73.94,19.4,18.14,0.004486111111111111,0.0,0.0,2026-03-21 16:01:08-07:00
70.06,1.0,10.0,2026-03-21 23:02:13,37.08162,-121.59959,348.0,0.1,44.3,-12.6,0.0,,0.0,0.0,0.0,10.6,-1.1,9.9,0.0,221.0,0.0,-0.02,1.0,99.0,-62.0,31.0,0.0,30.01,2168.0,0.0,0.0,153.0,0.0,0.0,0.0,0.0,0.0,0.0,0.0,0.0,0.0,0.0,0.0,0.0,0.0,0.0,0.0,0.0,0.0,0.0,0.0,0.0,0.0,0.0,0.0,0.0,2.0,26.0,1019.0,1019.0,21.8,0.8,0.0,0.8,22.0,0.0,0.0,39.3,0.0,0.0,-0.1,7.6,5.9,0.0,0.0,0.0,0.0,28.0,63.0,28.0,52.0,28.0,68.0,28.0,58.0,0.0,0.0,8.0,1.1,0.0,22.0,17.0,0.005,0.0,0.0,0.659,0.721,1.6,26.2,0.0,0.0,0.0,,0.0,1019.0,28.0,-3.0,-4.800000000000001,87.8,78.8,32.0,32.0,32.0,32.0,82.4,145.4,82.4,125.6,82.4,154.4,82.4,136.4,32.0,32.0,79.16,26.6,23.36,0.004611111111111111,0.08433333333333333,0.125,2026-03-21 16:01:08-07:00
71.06,1.0,10.0,2026-03-21 23:02:14,37.08161,-121.59959,349.0,0.0,44.3,-12.6,0.0,,0.0,0.0,0.0,10.7,-1.0,9.9,0.0,221.0,-0.0,-0.01,1.0,99.0,22.0,31.0,0.0,30.01,2168.0,0.0,0.0,153.0,0.0,0.0,0.0,0.0,0.0,0.0,0.0,0.0,0.0,0.0,0.0,0.0,0.0,0.0,0.0,0.0,0.0,0.0,0.0,0.0,0.0,0.0,0.0,0.0,7.0,26.0,1162.0,1162.0,15.2,1.8,0.0,1.8,18.6,0.0,0.0,39.3,0.0,0.0,-0.1,7.6,5.9,0.0,0.0,0.0,0.0,28.0,128.0,28.0,108.0,28.0,134.0,28.0,119.0,0.0,0.0,7.0,1.1,0.0,18.6,17.0,0.004,0.0,0.0,0.656,0.723,7.0,26.2,0.0,0.0,0.0,,0.0,1162.0,28.0,-3.0,-4.800000000000001,87.8,78.8,32.0,32.0,32.0,32.0,82.4,262.4,82.4,226.4,82.4,273.2,82.4,246.2,32.0,32.0,79.16,26.6,23.36,0.004972222222222222,0.16866666666666666,0.0,2026-03-21 16:01:08-07:00
72.06,1.0,10.0,2026-03-21 23:02:15,37.08161,-121.59959,349.0,0.0,44.3,-12.6,0.0,,0.0,0.0,0.0,10.7,-1.0,9.9,0.0,221.0,-0.0,-0.02,1.0,99.0,25.0,31.0,0.0,30.01,2168.0,0.0,0.0,153.0,0.0,0.0,0.0,0.0,0.0,0.0,0.0,0.0,0.0,0.0,0.0,0.0,0.0,0.0,0.0,0.0,0.0,0.0,0.0,0.0,0.0,0.0,0.0,0.0,16.0,26.0,1084.0,1084.0,14.8,2.4,0.0,2.4,18.1,0.0,0.0,39.3,0.0,0.0,-0.1,7.6,5.9,0.0,0.0,0.0,0.0,28.0,185.0,28.0,157.0,28.0,194.0,29.0,170.0,0.0,0.0,7.0,1.0,0.0,18.1,17.0,0.004,0.0,0.0,0.656,0.721,15.8,26.2,0.0,0.0,0.0,,0.0,1084.0,28.25,-2.75,-4.800000000000001,87.8,78.8,32.0,32.0,32.0,32.0,82.4,365.0,82.4,314.6,82.4,381.2,84.2,338.0,32.0,32.0,79.16,27.05,23.36,0.005555555555555555,0.16866666666666666,0.0,2026-03-21 16:01:08-07:00
73.06,1.0,10.0,2026-03-21 23:02:16,37.08161,-121.59959,350.0,0.0,44.3,-12.6,0.0,,0.0,0.0,0.0,10.7,-1.0,9.9,0.0,221.0,0.0,-0.01,1.0,99.0,19.0,31.0,0.0,30.01,2167.0,0.0,0.0,153.0,0.0,0.0,0.0,0.0,0.0,0.0,0.0,0.0,0.0,0.0,0.0,0.0,0.0,0.0,0.0,0.0,0.0,0.0,0.0,0.0,0.0,0.0,0.0,0.0,30.0,26.0,1122.0,1122.0,14.8,2.8,0.0,2.8,18.3,0.0,0.0,39.3,0.0,0.0,-0.0,7.6,5.9,0.0,0.0,0.0,0.0,29.0,237.0,29.0,201.0,29.0,252.0,29.0,216.0,0.0,0.0,7.0,1.0,0.0,18.3,17.0,0.004,0.0,0.0,0.654,0.726,29.9,26.1,0.0,0.0,0.0,,0.0,1122.0,29.0,-2.0,-4.899999999999999,87.8,78.8,32.0,32.0,32.0,32.0,84.2,458.6,84.2,393.8,84.2,485.6,84.2,420.8,32.0,32.0,78.98,28.4,23.180000000000003,0.006277777777777778,0.16866666666666666,0.0,2026-03-21 16:01:08-07:00
74.06,1.0,10.0,2026-03-21 23:02:17,37.08161,-121.59959,350.0,0.0,44.3,-12.6,0.0,,0.0,0.0,0.0,10.7,-1.0,9.9,0.0,221.0,0.0,-0.01,1.0,99.0,27.0,31.0,0.0,30.01,2167.0,0.0,0.0,153.0,0.0,0.0,0.0,0.0,0.0,0.0,0.0,0.0,0.0,0.0,0.0,0.0,0.0,0.0,0.0,0.0,0.0,0.0,0.0,0.0,0.0,0.0,0.0,0.0,49.0,26.0,1102.0,1102.0,14.6,3.1,0.0,3.1,18.7,0.0,0.0,39.3,0.0,0.0,-0.0,7.6,5.9,0.0,0.0,0.0,0.0,29.0,275.0,29.0,242.0,29.0,287.0,30.0,254.0,0.0,0.0,7.0,1.0,0.0,18.7,17.0,0.004,0.0,0.0,0.656,0.725,49.2,26.1,0.0,0.0,0.0,,0.0,1102.0,29.25,-1.75,-4.899999999999999,87.8,78.8,32.0,32.0,32.0,32.0,84.2,527.0,84.2,467.6,84.2,548.6,86.0,489.2,32.0,32.0,78.98,28.85,23.180000000000003,0.007097222222222222,0.16866666666666666,0.0,2026-03-21 16:01:08-07:00
75.06,1.0,10.0,2026-03-21 23:02:18,37.08161,-121.59959,351.0,0.0,44.3,-12.6,0.0,,0.0,0.0,0.0,10.7,-1.0,9.8,0.0,221.0,-0.0,-0.01,1.0,99.0,15.0,31.0,0.0,30.01,2167.0,0.0,0.0,153.0,0.0,0.0,0.0,0.0,0.0,0.0,0.0,0.0,0.0,0.0,0.0,0.0,0.0,0.0,0.0,0.0,0.0,0.0,0.0,0.0,0.0,0.0,0.0,0.0,66.0,26.0,1189.0,1189.0,14.3,3.1,0.0,3.1,19.4,0.0,0.0,39.3,0.0,0.0,-0.0,7.6,5.9,0.0,0.0,0.0,0.0,29.0,308.0,30.0,276.0,30.0,324.0,30.0,290.0,0.0,0.0,7.0,1.0,0.0,19.4,17.0,0.004,0.0,0.0,0.654,0.724,65.8,26.1,0.0,0.0,0.0,,0.0,1189.0,29.75,-1.25,-4.899999999999999,87.8,78.8,32.0,32.0,32.0,32.0,84.2,586.4,86.0,528.8,86.0,615.2,86.0,554.0,32.0,32.0,78.98,29.75,23.180000000000003,0.007958333333333333,0.16866666666666666,0.0,2026-03-21 16:01:08-07:00
76.06,1.0,10.0,2026-03-21 23:02:19,37.08161,-121.59959,352.0,0.0,44.3,-12.6,0.0,,0.0,0.0,0.0,10.8,-1.0,9.8,0.0,221.0,-0.0,-0.02,1.0,99.0,-11.0,31.0,0.0,30.01,2178.0,0.0,0.0,153.0,0.0,0.0,0.0,0.0,0.0,0.0,0.0,0.0,0.0,0.0,0.0,0.0,0.0,0.0,0.0,0.0,0.0,0.0,0.0,0.0,0.0,0.0,0.0,0.0,73.0,26.0,1149.0,1149.0,14.1,3.1,0.0,3.1,19.7,0.0,0.0,39.3,0.0,0.0,-0.0,7.6,5.9,0.0,0.0,0.0,0.0,30.0,339.0,30.0,305.0,30.0,360.0,31.0,325.0,0.0,0.0,6.0,1.0,0.0,19.7,17.0,0.004,0.0,0.0,0.654,0.721,72.8,26.1,0.0,0.0,0.0,,0.0,1149.0,30.25,-0.75,-4.899999999999999,87.8,78.8,32.0,32.0,32.0,32.0,86.0,642.2,86.0,581.0,86.0,680.0,87.8,617.0,32.0,32.0,78.98,30.65,23.180000000000003,0.008819444444444444,0.16866666666666666,0.0,2026-03-21 16:01:08-07:00
77.06,1.0,10.0,2026-03-21 23:02:20,37.08161,-121.59959,352.0,0.0,44.3,-12.6,0.0,,0.0,0.0,0.0,10.8,-1.0,9.8,0.0,221.0,-0.0,-0.02,1.0,99.0,-21.0,31.0,0.0,30.01,2178.0,0.0,0.0,153.0,0.0,0.0,0.0,0.0,0.0,0.0,0.0,0.0,0.0,0.0,0.0,0.0,0.0,0.0,0.0,0.0,0.0,0.0,0.0,0.0,0.0,0.0,0.0,0.0,75.0,26.0,1172.0,1172.0,14.1,3.0,0.0,3.0,20.0,0.0,0.0,39.3,0.0,0.0,-0.0,7.6,5.9,0.0,0.0,0.0,0.0,30.0,368.0,31.0,333.0,30.0,397.0,31.0,351.0,0.0,0.0,7.0,1.0,0.0,20.0,17.0,0.004,0.0,0.0,0.654,0.724,74.6,26.1,0.0,0.0,0.0,,0.0,1172.0,30.5,-0.5,-4.899999999999999,87.8,78.8,32.0,32.0,32.0,32.0,86.0,694.4,87.8,631.4,86.0,746.6,87.8,663.8,32.0,32.0,78.98,31.1,23.180000000000003,0.009666666666666667,0.16866666666666666,0.0,2026-03-21 16:01:08-07:00
78.06,1.0,10.0,2026-03-21 23:02:21,37.08161,-121.59959,353.0,0.0,44.3,-12.6,0.0,,0.0,0.0,0.0,10.8,-0.9,9.8,0.0,221.0,-0.0,-0.02,1.0,99.0,3.0,31.0,0.0,30.01,2178.0,0.0,0.0,153.0,0.0,0.0,0.0,0.0,0.0,0.0,0.0,0.0,0.0,0.0,0.0,0.0,0.0,0.0,0.0,0.0,0.0,0.0,0.0,0.0,0.0,0.0,0.0,0.0,76.0,26.0,1211.0,1211.0,14.0,3.0,0.0,3.0,20.1,0.0,0.0,39.3,0.0,0.0,-0.0,7.6,5.9,0.0,0.0,0.0,0.0,31.0,391.0,31.0,358.0,31.0,433.0,32.0,375.0,0.0,0.0,7.0,1.0,0.0,20.1,17.0,0.004,0.0,0.0,0.654,0.723,75.5,26.1,0.0,0.0,0.0,,0.0,1211.0,31.25,0.25,-4.899999999999999,87.8,78.8,32.0,32.0,32.0,32.0,87.8,735.8,87.8,676.4,87.8,811.4,89.6,707.0,32.0,32.0,78.98,32.45,23.180000000000003,0.0105,0.16866666666666666,0.0,2026-03-21 16:01:08-07:00
79.06,1.0,10.0,2026-03-21 23:02:22,37.08161,-121.59959,353.0,0.0,44.3,-12.6,0.0,,0.0,0.0,0.0,10.9,-0.8,9.9,0.0,221.0,-0.0,-0.02,1.0,99.0,17.0,31.0,0.0,30.01,2188.0,0.0,0.0,153.0,0.0,0.0,0.0,0.0,0.0,0.0,0.0,0.0,0.0,0.0,0.0,0.0,0.0,0.0,0.0,0.0,0.0,0.0,0.0,0.0,0.0,0.0,0.0,0.0,76.0,26.0,1145.0,1145.0,13.2,2.9,0.0,2.9,20.6,0.0,0.0,39.3,0.0,0.0,-0.0,7.6,5.9,0.0,0.0,0.0,0.0,31.0,413.0,32.0,381.0,31.0,451.0,32.0,397.0,0.0,0.0,7.0,1.0,0.0,20.6,17.0,0.004,0.0,0.0,0.654,0.723,75.8,26.1,0.0,0.0,0.0,,0.0,1145.0,31.5,0.5,-4.899999999999999,87.8,78.8,32.0,32.0,32.0,32.0,87.8,775.4,89.6,717.8,87.8,843.8,89.6,746.6,32.0,32.0,78.98,32.9,23.180000000000003,0.011319444444444444,0.16866666666666666,0.0,2026-03-21 16:01:08-07:00
80.06,1.0,10.0,2026-03-21 23:02:23,37.08161,-121.59959,354.0,0.0,44.3,-12.6,0.0,,0.0,0.0,0.0,10.8,-0.9,9.9,0.0,221.0,-0.0,-0.02,1.0,99.0,-16.0,31.0,0.0,30.01,2188.0,0.0,0.0,153.0,0.0,0.0,0.0,0.0,0.0,0.0,0.0,0.0,0.0,0.0,0.0,0.0,0.0,0.0,0.0,0.0,0.0,0.0,0.0,0.0,0.0,0.0,0.0,0.0,68.0,26.0,821.0,821.0,13.5,2.8,0.0,2.8,20.8,0.0,0.0,39.3,0.0,0.0,-0.0,7.6,5.9,0.0,0.0,0.0,0.0,31.0,428.0,32.0,390.0,31.0,460.0,32.0,413.0,0.0,0.0,7.0,1.0,0.0,20.8,17.0,0.004,0.0,0.0,0.654,0.728,68.1,26.1,0.0,0.0,0.0,,0.0,821.0,31.5,0.5,-4.899999999999999,87.8,78.8,32.0,32.0,32.0,32.0,87.8,802.4,89.6,734.0,87.8,860.0,89.6,775.4,32.0,32.0,78.98,32.9,23.180000000000003,0.01211111111111111,0.16866666666666666,0.0,2026-03-21 16:01:08-07:00
81.06,1.0,10.0,2026-03-21 23:02:24,37.08161,-121.59959,354.0,0.0,44.3,-12.6,0.0,,0.0,0.0,0.0,10.8,-0.9,10.0,0.0,221.0,0.0,-0.02,1.0,99.0,-38.0,31.0,0.0,30.01,2188.0,0.0,0.0,153.0,0.0,0.0,0.0,0.0,0.0,0.0,0.0,0.0,0.0,0.0,0.0,0.0,0.0,0.0,0.0,0.0,0.0,0.0,0.0,0.0,0.0,0.0,0.0,0.0,64.0,26.0,794.0,794.0,14.8,2.6,0.0,2.6,20.7,0.0,0.0,39.3,0.0,0.0,-0.0,7.6,5.9,0.0,0.0,0.0,0.0,32.0,436.0,33.0,401.0,32.0,465.0,33.0,418.0,0.0,0.0,7.0,1.0,0.0,20.7,17.0,0.004,0.0,0.0,0.659,0.73,64.4,26.1,0.0,0.0,0.0,,0.0,794.0,32.5,1.5,-4.899999999999999,87.8,78.8,32.0,32.0,32.0,32.0,89.6,816.8,91.4,753.8,89.6,869.0,91.4,784.4,32.0,32.0,78.98,34.7,23.180000000000003,0.012861111111111111,0.16866666666666666,0.0,2026-03-21 16:01:08-07:00
82.06,1.0,10.0,2026-03-21 23:02:25,37.08161,-121.59959,355.0,0.0,44.3,-12.6,0.0,,0.0,0.0,0.0,10.8,-0.9,10.0,0.0,221.0,0.0,-0.02,1.0,99.0,-9.0,31.0,0.0,30.01,2189.0,0.0,0.0,153.0,0.0,0.0,0.0,0.0,0.0,0.0,0.0,0.0,0.0,0.0,0.0,0.0,0.0,0.0,0.0,0.0,0.0,0.0,0.0,0.0,0.0,0.0,0.0,0.0,62.0,26.0,718.0,718.0,15.6,2.5,0.0,2.5,20.9,0.0,0.0,39.3,0.0,0.0,0.0,7.6,5.9,0.0,0.0,0.0,0.0,32.0,442.0,33.0,411.0,32.0,464.0,33.0,426.0,0.0,0.0,7.0,1.0,0.0,20.9,17.0,0.004,0.0,0.0,0.658,0.736,62.3,26.1,0.0,0.0,0.0,,0.0,718.0,32.5,1.5,-4.899999999999999,87.8,78.8,32.0,32.0,32.0,32.0,89.6,827.6,91.4,771.8,89.6,867.2,91.4,798.8,32.0,32.0,78.98,34.7,23.180000000000003,0.013569444444444445,0.16866666666666666,0.0,2026-03-21 16:01:08-07:00
83.06,1.0,10.0,2026-03-21 23:02:26,37.08161,-121.59959,355.0,0.0,44.3,-12.6,0.0,,0.0,0.0,0.0,10.8,-0.9,10.0,0.0,221.0,0.0,-0.02,1.0,99.0,10.0,31.0,0.0,30.01,2189.0,0.0,0.0,153.0,0.0,0.0,0.0,0.0,0.0,0.0,0.0,0.0,0.0,0.0,0.0,0.0,0.0,0.0,0.0,0.0,0.0,0.0,0.0,0.0,0.0,0.0,0.0,0.0,62.0,26.0,801.0,801.0,15.7,2.4,0.0,2.4,21.1,0.0,0.0,39.3,0.0,0.0,0.0,7.6,5.9,0.0,0.0,0.0,0.0,32.0,446.0,33.0,416.0,32.0,466.0,33.0,432.0,0.0,0.0,7.0,1.0,0.0,21.1,17.0,0.004,0.0,0.0,0.659,0.73,62.2,26.1,0.0,0.0,0.0,,0.0,801.0,32.5,1.5,-4.899999999999999,87.8,78.8,32.0,32.0,32.0,32.0,89.6,834.8,91.4,780.8,89.6,870.8,91.4,809.6,32.0,32.0,78.98,34.7,23.180000000000003,0.01425,0.16866666666666666,0.0,2026-03-21 16:01:08-07:00
84.06,1.0,10.0,2026-03-21 23:02:27,37.08161,-121.59959,356.0,0.0,44.3,-12.6,0.0,,0.0,0.0,0.0,10.8,-1.0,9.9,0.0,221.0,-0.0,-0.02,1.0,99.0,47.0,31.0,0.0,30.01,2189.0,0.0,0.0,153.0,0.0,0.0,0.0,0.0,0.0,0.0,0.0,0.0,0.0,0.0,0.0,0.0,0.0,0.0,0.0,0.0,0.0,0.0,0.0,0.0,0.0,0.0,0.0,0.0,62.0,26.0,773.0,773.0,15.5,2.2,0.0,2.2,21.3,0.0,0.0,39.3,0.0,0.0,0.0,7.6,5.9,0.0,0.0,0.0,0.0,33.0,453.0,34.0,424.0,33.0,470.0,34.0,444.0,0.0,0.0,7.0,1.0,0.0,21.3,17.0,0.004,0.0,0.0,0.658,0.726,62.3,26.1,0.0,0.0,0.0,,0.0,773.0,33.5,2.5,-4.899999999999999,87.8,78.8,32.0,32.0,32.0,32.0,91.4,847.4,93.2,795.2,91.4,878.0,93.2,831.2,32.0,32.0,78.98,36.5,23.180000000000003,0.014888888888888889,0.16866666666666666,0.0,2026-03-21 16:01:08-07:00
85.06,1.0,10.0,2026-03-21 23:02:28,37.08161,-121.59959,356.0,0.0,44.3,-12.6,0.0,,0.0,0.0,0.0,10.7,-1.0,9.9,0.0,221.0,-0.0,-0.02,1.0,99.0,39.0,31.0,0.0,30.01,2199.0,0.0,0.0,153.0,0.0,0.0,0.0,0.0,0.0,0.0,0.0,0.0,0.0,0.0,0.0,0.0,0.0,0.0,0.0,0.0,0.0,0.0,0.0,0.0,0.0,0.0,0.0,0.0,61.0,27.0,768.0,768.0,16.6,2.2,0.0,2.2,21.3,0.0,0.0,39.3,0.0,0.0,14.7,7.6,5.9,0.0,0.0,0.0,0.0,35.0,458.0,36.0,434.0,35.0,473.0,36.0,450.0,0.0,0.0,7.0,0.0,0.0,21.3,17.0,0.004,0.0,0.0,0.657,0.726,60.8,27.2,0.0,0.0,0.0,,0.0,768.0,35.5,4.5,-3.8000000000000007,87.8,80.6,32.0,32.0,32.0,32.0,95.0,856.4,96.8,813.2,95.0,883.4,96.8,842.0,32.0,32.0,80.96,40.1,25.16,0.0155,0.16866666666666666,0.0,2026-03-21 16:01:08-07:00
86.06,1.0,10.0,2026-03-21 23:02:29,37.08161,-121.59959,356.0,0.0,44.3,-12.6,0.0,,0.0,0.0,0.0,10.7,-1.1,9.8,0.0,221.0,-0.0,-0.02,1.0,99.0,62.0,31.0,0.0,30.01,2200.0,0.0,0.0,153.0,0.0,0.0,0.0,0.0,0.0,0.0,0.0,0.0,0.0,0.0,0.0,0.0,0.0,0.0,0.0,0.0,0.0,0.0,0.0,0.0,0.0,0.0,0.0,0.0,61.0,27.0,741.0,741.0,16.4,2.0,0.0,2.0,21.5,0.0,0.0,39.3,0.0,0.0,27.9,7.6,5.9,0.0,0.0,0.0,0.0,35.0,460.0,36.0,439.0,35.0,480.0,36.0,445.0,0.0,0.0,7.0,0.0,0.0,21.5,17.0,0.004,0.0,0.0,0.658,0.725,61.0,27.2,0.0,0.0,0.0,,0.0,741.0,35.5,4.5,-3.8000000000000007,87.8,80.6,32.0,32.0,32.0,32.0,95.0,860.0,96.8,822.2,95.0,896.0,96.8,833.0,32.0,32.0,80.96,40.1,25.16,0.016083333333333335,0.16866666666666666,0.0,2026-03-21 16:01:08-07:00
87.06,1.0,10.0,2026-03-21 23:02:30,37.08161,-121.59959,357.0,0.0,44.3,-12.6,0.0,,0.0,0.0,0.0,10.7,-1.0,9.8,0.0,221.0,-0.0,-0.02,0.9,99.0,51.0,31.0,0.0,30.01,2200.0,0.0,0.0,153.0,0.0,0.0,0.0,0.0,0.0,0.0,0.0,0.0,0.0,0.0,0.0,0.0,2.0,0.0,0.0,7.0,0.0,0.0,0.0,0.0,0.0,0.0,0.0,0.0,60.0,27.0,691.0,691.0,16.5,2.0,0.0,2.0,21.5,0.0,0.0,39.3,0.0,0.0,34.8,7.6,5.9,0.0,0.0,0.0,0.0,35.0,461.0,36.0,446.0,35.0,486.0,36.0,454.0,0.0,0.0,7.0,0.0,0.0,21.5,17.0,0.004,0.0,0.0,0.657,0.726,60.4,27.1,0.0,0.0,0.0,,0.0,691.0,35.5,4.5,-3.8999999999999986,87.8,80.6,32.0,32.0,32.0,32.0,95.0,861.8,96.8,834.8,95.0,906.8,96.8,849.2,32.0,32.0,80.78,40.1,24.980000000000004,0.01663888888888889,0.16866666666666666,0.0,2026-03-21 16:01:08-07:00
88.06,1.0,10.0,2026-03-21 23:02:31,37.08161,-121.59959,357.0,0.0,44.3,-12.6,0.0,,0.0,0.0,0.0,10.7,-1.1,9.7,0.0,221.0,-0.0,-0.01,1.0,99.0,36.0,31.0,0.0,30.01,2200.0,0.0,0.0,153.0,0.0,0.0,0.0,0.0,0.0,0.0,0.0,0.0,0.0,0.0,0.0,0.0,2.0,0.0,0.0,7.0,0.0,0.0,0.0,0.0,0.0,0.0,0.0,0.0,61.0,27.0,791.0,791.0,16.1,1.9,0.0,1.9,21.9,0.0,0.0,39.3,0.0,0.0,40.1,7.6,5.9,0.0,0.0,0.0,0.0,36.0,464.0,37.0,452.0,36.0,498.0,37.0,461.0,0.0,0.0,7.0,0.0,0.0,21.9,17.0,0.004,0.0,0.0,0.659,0.725,61.2,27.2,0.0,0.0,0.0,,0.0,791.0,36.5,5.5,-3.8000000000000007,87.8,80.6,32.0,32.0,32.0,32.0,96.8,867.2,98.6,845.6,96.8,928.4,98.6,861.8,32.0,32.0,80.96,41.9,25.16,0.017180555555555557,0.16866666666666666,0.0,2026-03-21 16:01:08-07:00
89.06,1.0,10.0,2026-03-21 23:02:32,37.08161,-121.59959,357.0,0.0,44.3,-12.6,0.0,,0.0,0.0,0.0,10.7,-1.0,9.7,0.0,222.0,-0.0,-0.01,1.0,99.0,80.0,31.0,0.0,30.01,2201.0,0.0,0.0,153.0,0.0,0.0,0.0,0.0,0.0,0.0,0.0,0.0,0.0,0.0,0.0,0.0,2.0,0.0,0.0,7.0,0.0,0.0,0.0,0.0,0.0,0.0,0.0,0.0,62.0,27.0,786.0,786.0,15.5,1.8,0.0,1.8,22.0,0.0,0.0,39.3,0.0,0.0,44.1,7.6,5.9,0.0,0.0,0.0,0.0,36.0,466.0,37.0,458.0,36.0,500.0,37.0,465.0,0.0,0.0,7.0,0.0,0.0,22.0,17.0,0.004,0.0,0.0,0.657,0.726,62.1,27.2,0.0,0.0,0.0,,0.0,786.0,36.5,5.5,-3.8000000000000007,87.8,80.6,32.0,32.0,32.0,32.0,96.8,870.8,98.6,856.4,96.8,932.0,98.6,869.0,32.0,32.0,80.96,41.9,25.16,0.017694444444444443,0.16866666666666666,0.0,2026-03-21 16:01:08-07:00
