Session Time,GPS Fix Quality,Number of Satellites,GPS Date & Time,Latitude (deg),Longitude (deg),GPS Altitude (feet),Ground Speed (knots),Ground Track (deg),Mag Var (deg),Cross Track Error (NM),Destination Waypoint ID,Range to Destination (NM),Bearing to Destination (deg),System Time,Pitch (deg),Roll (deg),Magnetic Heading (deg),Indicated Airspeed (knots),Pressure Altitude (ft),Turn Rate (deg/s),Lateral Accel (g),Vertical Accel(g),Angle of Attack (%),Vertical Speed (ft/min),OAT (deg C),True Airspeed (knots),Barometer Setting (inHg),Density Altitude (ft),Wind Direction (deg),Wind Speed (knots),Heading Bug (deg),Altitude Bug (ft),Airspeed Bug (knots),Vertical Speed Bug (ft/min),Course (deg),CDI Source Type,CDI Source Port,CDI Scale (NM),CDI Deflection (%),Glideslope (%),AP Engaged,AP Roll Mode,AP Roll Force,AP Roll Position (steps),AP Roll Slip (bool),AP Pitch Force,AP Pitch Position (steps),AP Pitch Slip (bool),AP Yaw Force,AP Yaw Position,AP Yaw Slip (bool),Transponder Status,Transponder Reply (bool),Transponder Identing (bool),Transponder Code (octal),Oil Pressure (PSI),Oil Temp (deg C),RPM L,RPM R,Manifold Pressure (inHg),Fuel Flow 1 (gal/hr),Fuel Flow 2 (gal/hr),Total Fuel Flow (gal/hr),Fuel Pressure (PSI),Fuel Level L (gal),Fuel Level R (gal),Fuel Remaining (gal),Volts 1,Volts 2,Amps,Hobbs Time,Tach Time,Thermocouple 1 (deg C),Thermocouple 2 (deg C),Thermocouple 3 (deg C),Thermocouple 4 (deg C),CHT 4 (deg C),EGT 4 (deg C),CHT 3 (deg C),EGT 3 (deg C),CHT 2 (deg C),EGT 2 (deg C),CHT 1 (deg C),EGT 1 (deg C),Thermocouple 13 (deg C),Thermocouple 14 (deg C),ELEV POSITION (%),CO PPM PRESSURE (PSI),GP Input 3,FUEL PRESSURE (PSI),AILERN POSITION (%),CANOPY CONTACT (V),GP Input 7,GP Input 8,LEFT LEVEL (Sensor V),RIGHT LEVEL (Sensor V),OIL PRESSURE (PSI),OIL TEMPERATURE (deg C),GP Input 13,Contacts,Percent Power,EGT Leaning State,Unnamed: 103,RPM,Flight ID
0.06,1.0,8.0,2026-02-01 00:45:19,37.08159,-121.59958,309.0,0.0,231.1,-12.7,,,,,00:45:19,,,,,,,,,,,21.0,,,,,,241.0,,110.0,0.0,,0.0,0.0,,,,,,,,,,,,,,,,,,,,,,,,,,,,,,37.4,,,,0.9,0.3,,,,,,,,,,,,,,,,,,,,,,,,,,,,,,,,,2026-01-31 16:45:19-08:00
1.06,1.0,8.0,2026-02-01 00:45:20,37.08159,-121.59958,310.0,0.0,231.1,-12.6,,,,,00:45:19,10.5,-2.1,53.0,0.0,139.0,-0.0,-0.04,1.0,,-115.0,21.0,0.0,30.44,876.0,,,241.0,,110.0,0.0,,0.0,0.0,,,,,,,,,,,,,,,,,,,,,0.0,0.0,,,,0.0,,,,37.4,0.0,0.0,-0.5,0.9,0.3,,,,,18.0,19.0,18.0,19.0,18.0,19.0,18.0,19.0,,,-6.0,254.4,,0.8,-8.0,4.998,,,0.654,0.791,0.0,56.5,,,,,,0.0,2026-01-31 16:45:19-08:00
2.06,1.0,8.0,2026-02-01 00:45:21,37.08159,-121.59958,311.0,0.0,231.1,-12.6,,,,,00:45:20,10.5,-2.1,53.1,0.0,138.0,-0.0,-0.04,1.0,,-82.0,21.0,0.0,30.44,876.0,,,241.0,,110.0,0.0,,0.0,0.0,,,,,,,,,,,,,,,,,,,,,0.0,0.0,,,,0.0,,,,37.4,0.0,0.0,-0.5,0.9,0.3,,,,,18.0,19.0,18.0,19.0,18.0,19.0,18.0,19.0,,,-6.0,254.4,,0.8,-8.0,4.998,,,0.654,0.791,0.0,56.5,,,,,,0.0,2026-01-31 16:45:19-08:00
3.06,1.0,8.0,2026-02-01 00:45:22,37.08158,-121.59958,311.0,0.0,231.1,-12.6,,,,,00:45:21,10.6,-2.1,53.1,0.0,137.0,0.0,-0.04,1.0,,-84.0,21.0,0.0,30.44,876.0,,,241.0,,110.0,0.0,,0.0,0.0,,,,,,,,,,,,,,,,,,,,,0.0,0.0,,,,0.0,,,,37.4,0.0,0.0,-0.5,0.9,0.3,,,,,18.0,19.0,18.0,19.0,18.0,19.0,18.0,19.0,,,-6.0,254.4,,0.8,-8.0,4.998,,,0.654,0.803,0.0,,,,,,,0.0,2026-01-31 16:45:19-08:00
4.06,1.0,8.0,2026-02-01 00:45:24,37.08158,-121.59958,313.0,0.0,231.1,-12.6,,,,,00:45:23,10.6,-2.1,53.1,0.0,135.0,0.0,-0.04,1.0,,-62.0,21.0,0.0,30.44,872.0,,,241.0,,110.0,0.0,,0.0,0.0,,,,,,,,,,,,,,,,,,,,,0.0,0.0,,0.0,,0.0,,,,37.4,0.0,0.0,-0.5,0.9,0.3,,,,,18.0,19.0,18.0,19.0,18.0,19.0,18.0,19.0,,,-6.0,254.4,,0.8,-8.0,4.998,,,0.654,0.8,0.0,17.3,,,,,,0.0,2026-01-31 16:45:19-08:00
5.06,1.0,8.0,2026-02-01 00:45:24,37.08158,-121.59959,314.0,0.0,231.1,-12.6,,,,,00:45:23,10.6,-2.1,53.1,0.0,135.0,0.0,-0.04,1.0,,-72.0,21.0,0.0,30.44,872.0,,,241.0,,,,,0.0,0.0,,,,,,,,,,,,,,,,,,,0.0,17.0,0.0,0.0,30.2,0.0,,0.0,0.8,,,37.4,0.0,0.0,-0.5,0.9,0.3,,,,,18.0,19.0,18.0,19.0,18.0,19.0,18.0,19.0,,,-6.0,254.4,,0.8,-8.0,4.998,,,0.653,0.797,0.0,17.3,,,,,,0.0,2026-01-31 16:45:19-08:00
6.06,1.0,8.0,2026-02-01 00:45:25,37.08158,-121.59959,316.0,0.0,231.1,-12.6,,,,,00:45:24,10.6,-2.2,53.1,0.0,133.0,0.0,-0.04,1.0,,-52.0,21.0,0.0,30.44,872.0,,,241.0,,,,,0.0,0.0,,,,,,,,,,,,,,,,,,,0.0,17.0,0.0,0.0,30.2,0.0,,0.0,0.8,,,37.4,0.0,0.0,-0.5,0.9,0.3,,,,,18.0,19.0,18.0,19.0,18.0,19.0,19.0,19.0,,,-6.0,254.4,,0.8,-8.0,4.998,,,0.653,0.806,0.0,17.3,,,,,,0.0,2026-01-31 16:45:19-08:00
7.06,1.0,8.0,2026-02-01 00:45:26,37.08158,-121.59959,317.0,0.0,231.1,-12.6,,,,,00:45:25,10.7,-2.2,53.0,0.0,133.0,0.0,-0.04,1.0,,-52.0,21.0,0.0,30.44,868.0,,,241.0,,,,,0.0,0.0,,,,,,,,,,,,,,,,,,,0.0,17.0,0.0,0.0,30.2,0.0,,0.0,0.8,,,37.4,0.0,0.0,-0.5,0.9,0.3,,,,,18.0,19.0,18.0,19.0,19.0,19.0,19.0,19.0,,,-6.0,254.4,,0.8,-8.0,4.998,,,0.654,0.8,0.0,17.3,,,,,,0.0,2026-01-31 16:45:19-08:00
8.06,1.0,8.0,2026-02-01 00:45:27,37.08158,-121.59959,319.0,0.0,231.1,-12.6,,,,,00:45:26,10.7,-2.2,53.0,0.0,133.0,-0.0,-0.04,1.0,,-50.0,21.0,0.0,30.44,868.0,,,241.0,,,,,0.0,0.0,,,,,,,,,,,,,,,,,,,0.0,17.0,0.0,0.0,30.2,0.0,,0.0,0.8,,,37.4,0.0,0.0,-0.6,0.9,0.3,,,,,18.0,19.0,18.0,19.0,19.0,19.0,19.0,19.0,,,-6.0,254.4,,0.8,-8.0,4.998,,,0.654,0.818,0.0,17.3,,,,,,0.0,2026-01-31 16:45:19-08:00
9.06,1.0,8.0,2026-02-01 00:45:28,37.08158,-121.59959,320.0,0.0,231.1,-12.6,,,,,00:45:27,10.7,-2.3,52.9,0.0,130.0,-0.0,-0.04,1.0,,-88.0,21.0,0.0,30.44,868.0,,,241.0,,,,,0.0,0.0,,,,,,,,,,,,,,,,,,,0.0,17.0,0.0,0.0,30.2,0.0,,0.0,0.8,,,37.4,0.0,0.0,-0.6,0.9,0.3,,,,,18.0,19.0,18.0,19.0,19.0,19.0,19.0,19.0,,,-6.0,254.4,,0.8,-8.0,4.998,,,0.654,0.804,0.0,17.3,,,,,,0.0,2026-01-31 16:45:19-08:00
10.06,1.0,8.0,2026-02-01 00:45:29,37.08158,-121.59959,322.0,0.0,231.1,-12.6,,,,,00:45:28,10.7,-2.2,52.9,0.0,129.0,0.0,-0.04,1.0,,-79.0,21.0,0.0,30.44,863.0,,,241.0,,,,,0.0,0.0,,,,,,,,,,,,,,,,,,,0.0,17.0,0.0,0.0,30.2,0.0,,0.0,0.8,,,37.4,0.0,0.0,-0.6,0.9,0.3,,,,,18.0,19.0,18.0,19.0,19.0,19.0,19.0,19.0,,,-6.0,254.4,,0.8,-8.0,4.998,,,0.653,0.806,0.0,17.3,,,,,,0.0,2026-01-31 16:45:19-08:00
11.06,1.0,8.0,2026-02-01 00:45:30,37.08158,-121.59959,323.0,0.0,231.1,-12.6,,,,,00:45:29,10.7,-2.2,52.9,0.0,129.0,-0.0,-0.04,1.0,,-69.0,21.0,0.0,30.44,863.0,,,241.0,,,,,0.0,0.0,,,,,,,,,,,,,,,,,,,0.0,17.0,0.0,0.0,30.2,0.0,,0.0,0.8,,,37.4,0.0,0.0,-0.6,0.9,0.3,,,,,18.0,19.0,18.0,19.0,19.0,19.0,19.0,19.0,,,-6.0,254.3,,0.8,-8.0,4.998,,,0.654,0.801,0.0,17.3,,,,,,0.0,2026-01-31 16:45:19-08:00
12.06,1.0,8.0,2026-02-01 00:45:31,37.08158,-121.59959,325.0,0.0,231.1,-12.6,,,,,00:45:30,10.7,-2.2,52.9,0.0,128.0,-0.0,-0.04,1.0,,-41.0,21.0,0.0,30.44,863.0,,,241.0,,,,,0.0,0.0,,,,,,,,,,,,,,,,,,,0.0,17.0,0.0,0.0,30.2,0.0,,0.0,0.8,,,37.4,0.0,0.0,-0.6,0.9,0.3,,,,,18.0,19.0,18.0,19.0,19.0,19.0,19.0,19.0,,,-6.0,254.3,,0.8,-8.0,4.998,,,0.654,0.797,0.0,17.3,,,,,,0.0,2026-01-31 16:45:19-08:00
13.06,1.0,8.0,2026-02-01 00:45:32,37.08159,-121.5996,326.0,0.0,231.1,-12.6,,,,,00:45:31,10.7,-2.2,52.8,0.0,127.0,-0.0,-0.04,1.0,,-58.0,21.0,0.0,30.44,861.0,,,241.0,,,,,0.0,0.0,,,,,,,,,,,,,,,,,,,0.0,17.0,0.0,0.0,30.2,0.0,,0.0,0.8,,,37.4,0.0,0.0,-0.6,0.9,0.3,,,,,18.0,19.0,18.0,19.0,19.0,19.0,19.0,19.0,,,-6.0,254.3,,0.8,-8.0,4.998,,,0.654,0.796,0.0,17.3,,,,,,0.0,2026-01-31 16:45:19-08:00
14.06,1.0,8.0,2026-02-01 00:45:33,37.08159,-121.5996,327.0,0.1,231.1,-12.6,,,,,00:45:32,10.7,-2.3,52.8,0.0,127.0,-0.0,-0.03,1.0,,-47.0,21.0,0.0,30.44,861.0,,,241.0,,,,,0.0,0.0,,,,,,,,,,,,,,,,,,,0.0,17.0,0.0,0.0,30.2,0.0,,0.0,0.8,,,37.4,0.0,0.0,-0.6,0.9,0.3,,,,,18.0,19.0,18.0,19.0,19.0,19.0,19.0,19.0,,,-6.0,254.3,,0.8,-8.0,4.998,,,0.653,0.795,0.0,17.3,,,,,,0.0,2026-01-31 16:45:19-08:00
15.06,1.0,8.0,2026-02-01 00:45:34,37.08159,-121.5996,329.0,0.1,231.1,-12.6,,,,,00:45:33,10.7,-2.2,52.9,0.0,126.0,0.0,-0.04,1.0,,-47.0,21.0,0.0,30.44,861.0,,,241.0,,,,,0.0,0.0,,,,,,,,,,,,,,,,,,,0.0,17.0,0.0,0.0,30.2,0.0,,0.0,0.8,,,37.4,0.0,0.0,-0.6,0.9,0.3,,,,,18.0,19.0,18.0,19.0,19.0,19.0,19.0,19.0,,,-6.0,254.3,,0.8,-8.0,4.998,,,0.656,0.793,0.0,17.3,,,,,,0.0,2026-01-31 16:45:19-08:00
16.06,1.0,8.0,2026-02-01 00:45:35,37.08159,-121.5996,330.0,0.0,231.1,-12.6,,,,,00:45:34,10.7,-2.2,52.8,0.0,126.0,-0.0,-0.04,1.0,,-25.0,21.0,0.0,30.44,859.0,,,241.0,,,,,0.0,0.0,,,,,,,,,,,,,,,,,,,0.0,17.0,0.0,0.0,30.2,0.0,,0.0,0.8,,,37.4,0.0,0.0,-0.6,0.9,0.3,,,,,18.0,19.0,18.0,19.0,19.0,19.0,19.0,19.0,,,-6.0,254.3,,0.8,-8.0,4.998,,,0.656,0.792,0.0,17.3,,,,,,0.0,2026-01-31 16:45:19-08:00
17.06,1.0,8.0,2026-02-01 00:45:36,37.08159,-121.59961,331.0,0.0,231.1,-12.6,,,,,00:45:35,10.7,-2.2,52.9,0.0,126.0,-0.0,-0.04,1.0,,-2.0,21.0,0.0,30.44,860.0,,,241.0,,,,,0.0,0.0,,,,,,,,,,,,,,,,,,,0.0,17.0,0.0,0.0,30.2,0.0,,0.0,0.8,,,37.4,0.0,0.0,-0.6,0.9,0.3,,,,,18.0,19.0,18.0,19.0,19.0,19.0,19.0,19.0,,,-6.0,254.3,,0.8,-8.0,4.998,,,0.654,0.793,0.0,17.3,,,,,,0.0,2026-01-31 16:45:19-08:00
18.06,1.0,8.0,2026-02-01 00:45:37,37.08159,-121.59961,331.0,0.0,231.1,-12.6,,,,,00:45:36,10.7,-2.2,52.9,0.0,126.0,-0.0,-0.04,1.0,,6.0,21.0,0.0,30.44,860.0,,,241.0,,,,,0.0,0.0,,,,,,,,,,,,,,,,,,,0.0,17.0,0.0,0.0,30.2,0.0,,0.0,0.8,,,37.4,0.0,0.0,-0.6,0.9,0.3,,,,,18.0,19.0,18.0,19.0,18.0,19.0,19.0,19.0,,,-6.0,254.3,,0.8,-8.0,4.998,,,0.656,0.792,0.0,17.3,,,,,,0.0,2026-01-31 16:45:19-08:00
19.06,1.0,8.0,2026-02-01 00:45:38,37.08159,-121.59961,332.0,0.2,231.1,-12.6,,,,,00:45:37,10.7,-2.2,52.9,0.0,126.0,-0.0,-0.04,1.0,,-15.0,21.0,0.0,30.44,860.0,,,241.0,,,,,0.0,0.0,,,,,,,,,,,,,,,,,,,0.0,17.0,0.0,0.0,30.2,0.0,,0.0,0.8,,,37.4,0.0,0.0,-0.6,0.9,0.3,,,,,18.0,19.0,18.0,19.0,19.0,19.0,19.0,19.0,,,-6.0,254.3,,0.8,-8.0,4.998,,,0.654,0.792,0.0,17.3,,,,,,0.0,2026-01-31 16:45:19-08:00
20.06,1.0,8.0,2026-02-01 00:45:39,37.08159,-121.59961,333.0,0.0,231.1,-12.6,,,,,00:45:38,10.7,-2.2,52.9,0.0,125.0,-0.0,-0.04,1.0,,-18.0,21.0,0.0,30.44,859.0,,,241.0,,,,,0.0,0.0,,,,,,,,,,,,,,,,,,,0.0,17.0,0.0,0.0,30.2,0.0,,0.0,0.8,,,37.4,0.0,0.0,-0.6,0.9,0.3,,,,,18.0,19.0,18.0,19.0,19.0,19.0,19.0,19.0,,,-6.0,254.3,,0.8,-8.0,4.998,,,0.654,0.791,0.0,17.3,,,,,,0.0,2026-01-31 16:45:19-08:00
21.06,1.0,8.0,2026-02-01 00:45:40,37.08159,-121.59961,333.0,0.0,231.1,-12.6,,,,,00:45:39,10.7,-2.2,52.9,0.0,125.0,-0.0,-0.04,1.0,,-7.0,21.0,0.0,30.44,859.0,,,241.0,,,,,0.0,0.0,,,,,,,,,,,,,,,,,,,0.0,17.0,0.0,0.0,30.2,0.0,,0.0,0.8,,,37.4,0.0,0.0,-0.6,0.9,0.3,,,,,18.0,19.0,18.0,19.0,19.0,19.0,19.0,19.0,,,-6.0,254.3,,0.8,-8.0,4.998,,,0.654,0.791,0.0,17.3,,,,,,0.0,2026-01-31 16:45:19-08:00
22.06,1.0,8.0,2026-02-01 00:45:41,37.08159,-121.59961,333.0,0.0,231.1,-12.6,,,,,00:45:40,10.7,-2.2,52.9,0.0,125.0,0.0,-0.04,1.0,,-22.0,21.0,0.0,30.44,859.0,,,241.0,,,,,0.0,0.0,,,,,,,,,,,,,,,,,,,0.0,17.0,0.0,0.0,30.2,0.0,,0.0,0.8,,,37.4,0.0,0.0,-0.6,0.9,0.3,,,,,18.0,19.0,18.0,19.0,19.0,19.0,19.0,19.0,,,-6.0,254.3,,0.8,-8.0,4.998,,,0.656,0.786,0.0,17.3,,,,,,0.0,2026-01-31 16:45:19-08:00
23.06,1.0,8.0,2026-02-01 00:45:42,37.08159,-121.59961,334.0,0.0,231.1,-12.6,,,,,00:45:41,10.7,-2.2,52.9,0.0,124.0,-0.0,-0.04,1.0,,-36.0,21.0,0.0,30.44,867.0,,,241.0,,,,,0.0,0.0,,,,,,,,,,,,,,,,,,,0.0,17.0,0.0,0.0,30.2,0.0,,0.0,0.8,,,37.4,0.0,0.0,-0.6,0.9,0.3,,,,,18.0,19.0,18.0,19.0,18.0,19.0,19.0,19.0,,,-6.0,254.3,,0.8,-8.0,4.998,,,0.654,0.787,0.0,17.3,,,,,,0.0,2026-01-31 16:45:19-08:00
24.06,1.0,8.0,2026-02-01 00:45:43,37.08159,-121.59961,334.0,0.0,231.1,-12.6,,,,,00:45:42,10.7,-2.2,52.9,0.0,122.0,0.0,-0.04,1.0,,-72.0,21.0,0.0,30.44,865.0,,,241.0,,,,,0.0,0.0,,,,,,,,,,,,,,,,,,,0.0,17.0,0.0,0.0,30.2,0.0,,0.0,0.8,,,37.4,0.0,0.0,-0.6,0.9,0.3,,,,,18.0,19.0,18.0,19.0,18.0,19.0,19.0,19.0,,,-6.0,254.3,,0.8,-8.0,4.998,,,0.656,0.787,0.0,17.3,,,,,,0.0,2026-01-31 16:45:19-08:00
25.06,1.0,8.0,2026-02-01 00:45:44,37.08159,-121.59961,334.0,0.0,231.1,-12.6,,,,,00:45:43,10.6,-2.2,52.9,0.0,121.0,0.0,-0.04,1.0,,-57.0,21.0,0.0,30.44,862.0,,,241.0,,,,,0.0,0.0,,,,,,,,,,,,,,,,,,,0.0,17.0,0.0,0.0,30.2,0.0,,0.0,0.8,,,37.4,0.0,0.0,-0.6,0.9,0.3,,,,,18.0,19.0,18.0,19.0,19.0,19.0,19.0,19.0,,,-6.0,254.3,,0.8,-8.0,4.998,,,0.656,0.786,0.0,17.3,,,,,,0.0,2026-01-31 16:45:19-08:00
26.06,1.0,8.0,2026-02-01 00:45:45,37.08159,-121.59961,334.0,0.0,231.1,-12.6,,,,,00:45:44,10.7,-2.2,52.9,0.0,121.0,0.0,-0.04,1.0,,-15.0,21.0,0.0,30.44,862.0,,,241.0,,,,,0.0,0.0,,,,,,,,,,,,,,,,,,,0.0,17.0,0.0,0.0,30.2,0.0,,0.0,0.8,,,37.4,0.0,0.0,-0.6,0.9,0.3,,,,,18.0,19.0,18.0,19.0,19.0,19.0,19.0,19.0,,,-6.0,254.3,,0.8,-8.0,4.998,,,0.654,0.784,0.0,17.3,,,,,,0.0,2026-01-31 16:45:19-08:00
27.06,1.0,8.0,2026-02-01 00:45:46,37.08159,-121.59961,334.0,0.0,231.1,-12.6,,,,,00:45:45,10.6,-2.2,52.9,0.0,121.0,0.0,-0.04,1.0,,-42.0,21.0,0.0,30.44,862.0,,,241.0,,,,,0.0,0.0,,,,,,,,,,,,,,,,,,,0.0,17.0,0.0,0.0,30.2,0.0,,0.0,0.8,,,37.4,0.0,0.0,-0.6,0.9,0.3,,,,,18.0,19.0,18.0,19.0,18.0,19.0,19.0,19.0,,,-6.0,254.3,,0.8,-8.0,4.998,,,0.654,0.784,0.0,17.3,,,,,,0.0,2026-01-31 16:45:19-08:00
28.06,1.0,8.0,2026-02-01 00:45:47,37.08159,-121.59961,334.0,0.0,231.1,-12.6,,,,,00:45:46,10.6,-2.3,52.9,0.0,120.0,0.0,-0.04,1.0,,-44.0,21.0,0.0,30.44,862.0,,,241.0,,,,,0.0,0.0,,,,,,,,,,,,,,,,,,,0.0,17.0,0.0,0.0,30.2,0.0,,0.0,0.8,,,37.4,0.0,0.0,-0.6,0.9,0.3,,,,,18.0,19.0,18.0,19.0,19.0,19.0,19.0,19.0,,,-6.0,254.3,,0.8,-8.0,4.998,,,0.656,0.784,0.0,17.3,,,,,,0.0,2026-01-31 16:45:19-08:00
29.06,1.0,8.0,2026-02-01 00:45:48,37.08159,-121.5996,333.0,0.0,231.1,-12.6,,,,,00:45:47,10.7,-2.2,53.0,0.0,118.0,0.0,-0.04,1.0,,-72.0,21.0,0.0,30.44,862.0,,,241.0,,,,,0.0,0.0,,,,,,,,,,,,,,,,,,,0.0,17.0,0.0,0.0,30.2,0.0,,0.0,0.8,,,37.4,0.0,0.0,-0.6,0.9,0.3,,,,,18.0,19.0,18.0,19.0,18.0,19.0,19.0,19.0,,,-6.0,254.3,,0.8,-8.0,4.998,,,0.654,0.782,0.0,17.3,,,,,,0.0,2026-01-31 16:45:19-08:00
30.06,1.0,8.0,2026-02-01 00:45:49,37.08159,-121.5996,333.0,0.0,231.1,-12.6,,,,,00:45:48,10.7,-2.2,52.9,0.0,116.0,0.0,-0.04,1.0,,-90.0,21.0,0.0,30.44,862.0,,,241.0,,,,,0.0,0.0,,,,,,,,,,,,,,,,,,,0.0,17.0,0.0,0.0,30.2,0.0,,0.0,0.8,,,37.4,0.0,0.0,-0.6,0.9,0.3,,,,,18.0,19.0,18.0,19.0,18.0,19.0,19.0,19.0,,,-6.0,254.3,,0.8,-8.0,4.998,,,0.654,0.781,0.0,17.3,,,,,,0.0,2026-01-31 16:45:19-08:00
31.06,1.0,8.0,2026-02-01 00:45:50,37.08159,-121.5996,333.0,0.0,231.1,-12.6,,,,,00:45:49,10.7,-2.3,52.9,0.0,113.0,-0.0,-0.04,1.0,,-135.0,21.0,0.0,30.44,855.0,,,241.0,,,,,0.0,0.0,,,,,,,,,,,,,,,,,,,0.0,17.0,0.0,0.0,30.2,0.0,,0.0,0.8,,,37.4,0.0,0.0,-0.6,0.9,0.3,,,,,18.0,19.0,18.0,19.0,18.0,19.0,19.0,19.0,,,-6.0,254.3,,0.8,-8.0,4.998,,,0.656,0.78,0.0,17.3,,,,,,0.0,2026-01-31 16:45:19-08:00
32.06,1.0,8.0,2026-02-01 00:45:51,37.08159,-121.5996,332.0,0.0,231.1,-12.6,,,,,00:45:50,10.7,-2.2,52.9,0.0,112.0,-0.0,-0.04,1.0,,-92.0,21.0,0.0,30.44,855.0,,,241.0,,,,,0.0,0.0,,,,,,,,,,,,,,,,,,,0.0,17.0,0.0,0.0,30.2,0.0,,0.0,0.8,,,37.4,0.0,0.0,-0.6,0.9,0.3,,,,,18.0,19.0,18.0,19.0,19.0,19.0,19.0,19.0,,,-6.0,254.3,,0.8,-8.0,4.998,,,0.656,0.779,0.0,17.3,,,,,,0.0,2026-01-31 16:45:19-08:00
33.06,1.0,8.0,2026-02-01 00:45:52,37.08159,-121.5996,332.0,0.0,231.1,-12.6,,,,,00:45:51,10.7,-2.2,52.9,0.0,111.0,0.0,-0.04,1.0,,-67.0,21.0,0.0,30.44,855.0,,,241.0,,,,,0.0,0.0,,,,,,,,,,,,,,,,,,,0.0,17.0,0.0,0.0,30.2,0.0,,0.0,0.8,,,37.4,0.0,0.0,-0.6,0.9,0.3,,,,,18.0,19.0,18.0,19.0,18.0,19.0,19.0,19.0,,,-6.0,254.3,,0.8,-8.0,4.998,,,0.656,0.78,0.0,17.3,,,,,,0.0,2026-01-31 16:45:19-08:00
34.06,1.0,8.0,2026-02-01 00:45:53,37.08159,-121.5996,331.0,0.0,231.1,-12.6,,,,,00:45:52,10.6,-2.2,52.9,0.0,111.0,0.0,-0.04,1.0,,-55.0,21.0,0.0,30.44,851.0,,,241.0,,,,,0.0,0.0,,,,,,,,,,,,,,,,,,,0.0,17.0,0.0,0.0,30.2,0.0,,0.0,0.8,,,37.4,0.0,0.0,-0.6,0.9,0.3,,,,,18.0,19.0,18.0,19.0,18.0,19.0,19.0,19.0,,,-6.0,254.3,,0.8,-8.0,4.998,,,0.654,0.78,0.0,17.3,,,,,,0.0,2026-01-31 16:45:19-08:00
35.06,1.0,8.0,2026-02-01 00:45:54,37.08159,-121.5996,331.0,0.0,231.1,-12.6,,,,,00:45:53,10.6,-2.3,52.9,0.0,109.0,0.0,-0.04,1.0,,-86.0,21.0,0.0,30.44,851.0,,,241.0,,,,,0.0,0.0,,,,,,,,,,,,,,,,,,,0.0,17.0,0.0,0.0,30.2,0.0,,0.0,0.8,,,37.4,0.0,0.0,-0.6,0.9,0.3,,,,,18.0,19.0,18.0,19.0,18.0,19.0,19.0,19.0,,,-6.0,254.3,,0.8,-8.0,4.998,,,0.654,0.779,0.0,17.3,,,,,,0.0,2026-01-31 16:45:19-08:00
36.06,1.0,8.0,2026-02-01 00:45:55,37.08159,-121.5996,331.0,0.0,231.1,-12.6,,,,,00:45:54,10.6,-2.2,52.9,0.0,109.0,0.0,-0.04,1.0,,-64.0,21.0,0.0,30.44,851.0,,,241.0,,,,,0.0,0.0,,,,,,,,,,,,,,,,,,,0.0,17.0,0.0,0.0,30.2,0.0,,0.0,0.8,,,37.4,0.0,0.0,-0.6,0.9,0.3,,,,,18.0,19.0,18.0,19.0,18.0,19.0,19.0,19.0,,,-6.0,254.3,,0.8,-8.0,4.998,,,0.654,0.778,0.0,17.3,,,,,,0.0,2026-01-31 16:45:19-08:00
37.06,1.0,8.0,2026-02-01 00:45:56,37.08159,-121.5996,330.0,0.0,231.1,-12.6,,,,,00:45:55,10.7,-2.2,52.9,0.0,107.0,0.0,-0.04,1.0,,-78.0,21.0,0.0,30.44,848.0,,,241.0,,,,,0.0,0.0,,,,,,,,,,,,,,,,,,,0.0,17.0,0.0,0.0,30.2,0.0,,0.0,0.8,,,37.4,0.0,0.0,-0.6,0.9,0.3,,,,,18.0,19.0,18.0,19.0,19.0,19.0,19.0,19.0,,,-6.0,254.3,,0.8,-8.0,4.998,,,0.654,0.778,0.0,17.3,,,,,,0.0,2026-01-31 16:45:19-08:00
38.06,1.0,8.0,2026-02-01 00:45:57,37.08159,-121.5996,330.0,0.0,231.1,-12.6,,,,,00:45:56,10.7,-2.2,53.0,0.0,107.0,0.0,-0.04,1.0,,-43.0,21.0,0.0,30.44,848.0,,,241.0,,,,,0.0,0.0,,,,,,,,,,,,,,,,,,,0.0,17.0,0.0,0.0,30.2,0.0,,0.0,0.8,,,37.4,0.0,0.0,-0.6,0.9,0.3,,,,,18.0,19.0,18.0,19.0,19.0,19.0,19.0,19.0,,,-6.0,254.3,,0.8,-8.0,4.998,,,0.654,0.778,0.0,17.3,,,,,,0.0,2026-01-31 16:45:19-08:00
39.06,1.0,8.0,2026-02-01 00:45:58,37.08159,-121.5996,330.0,0.0,231.1,-12.6,,,,,00:45:57,10.7,-2.3,52.9,0.0,107.0,-0.0,-0.04,1.0,,-35.0,21.0,0.0,30.44,848.0,,,241.0,,,,,0.0,0.0,,,,,,,,,,,,,,,,,,,0.0,17.0,0.0,0.0,30.2,0.0,,0.0,0.8,,,37.4,0.0,0.0,-0.6,0.9,0.3,,,,,18.0,19.0,18.0,19.0,19.0,19.0,19.0,19.0,,,-6.0,254.3,,0.8,-8.0,4.998,,,0.656,0.778,0.0,17.3,,,,,,0.0,2026-01-31 16:45:19-08:00
40.06,1.0,8.0,2026-02-01 00:45:59,37.08159,-121.5996,329.0,0.0,231.1,-12.6,,,,,00:45:58,10.7,-2.2,52.9,0.0,106.0,-0.0,-0.04,1.0,,-21.0,21.0,0.0,30.44,845.0,,,241.0,,,,,0.0,0.0,,,,,,,,,,,,,,,,,,,0.0,17.0,0.0,0.0,30.2,0.0,,0.0,0.8,,,37.4,0.0,0.0,-0.6,0.9,0.3,,,,,18.0,19.0,18.0,19.0,19.0,19.0,19.0,19.0,,,-6.0,254.3,,0.8,-8.0,4.998,,,0.654,0.778,0.0,17.3,,,,,,0.0,2026-01-31 16:45:19-08:00
41.06,1.0,8.0,2026-02-01 00:46:00,37.08159,-121.5996,328.0,0.1,231.1,-12.6,,,,,00:45:59,10.7,-2.2,52.9,0.0,105.0,-0.0,-0.04,1.0,,-47.0,21.0,0.0,30.44,845.0,,,241.0,,,,,0.0,0.0,,,,,,,,,,,,,,,,,,,0.0,17.0,0.0,0.0,30.2,0.0,,0.0,0.8,,,37.4,0.0,0.0,-0.6,0.9,0.3,,,,,18.0,19.0,18.0,19.0,19.0,19.0,19.0,19.0,,,-6.0,254.3,,0.8,-8.0,4.998,,,0.654,0.776,0.0,17.3,,,,,,0.0,2026-01-31 16:45:19-08:00
42.06,1.0,8.0,2026-02-01 00:46:01,37.08159,-121.5996,328.0,0.0,231.1,-12.6,,,,,00:46:00,10.7,-2.2,52.9,0.0,105.0,-0.0,-0.04,1.0,,-35.0,21.0,0.0,30.44,845.0,,,241.0,,,,,0.0,0.0,,,,,,,,,,,,,,,,,,,0.0,17.0,0.0,0.0,30.2,0.0,,0.0,0.8,,,37.4,0.0,0.0,-0.6,0.9,0.3,,,,,18.0,19.0,18.0,19.0,19.0,19.0,19.0,19.0,,,-6.0,242.0,,0.8,-8.0,4.998,,,0.656,0.776,0.0,17.3,,,,,,0.0,2026-01-31 16:45:19-08:00
43.06,1.0,8.0,2026-02-01 00:46:02,37.08159,-121.5996,327.0,0.0,231.1,-12.6,,,,,00:46:01,10.7,-2.2,52.9,0.0,105.0,0.0,-0.04,1.0,,-20.0,21.0,0.0,30.44,844.0,,,241.0,,,,,0.0,0.0,,,,,,,,,,,,,,,,,,,0.0,17.0,0.0,0.0,30.2,0.0,,0.0,0.8,,,37.4,0.0,0.0,-0.6,0.9,0.3,,,,,18.0,19.0,18.0,19.0,19.0,19.0,19.0,19.0,,,-6.0,188.4,,0.8,-8.0,4.998,,,0.656,0.776,0.0,17.3,,,,,,0.0,2026-01-31 16:45:19-08:00
44.06,1.0,8.0,2026-02-01 00:46:03,37.08159,-121.59959,327.0,0.0,231.1,-12.6,,,,,00:46:02,10.7,-2.2,52.9,0.0,103.0,-0.0,-0.04,1.0,,-55.0,21.0,0.0,30.44,844.0,,,241.0,,,,,0.0,0.0,,,,,,,,,,,,,,,,,,,0.0,17.0,0.0,0.0,30.2,0.0,,0.0,0.8,,,37.4,0.0,0.0,-0.6,0.9,0.3,,,,,18.0,19.0,18.0,19.0,19.0,19.0,19.0,19.0,,,-6.0,146.6,,0.8,-8.0,4.998,,,0.654,0.776,0.0,17.3,,,,,,0.0,2026-01-31 16:45:19-08:00
45.06,1.0,8.0,2026-02-01 00:46:04,37.08159,-121.59959,326.0,0.0,231.1,-12.6,,,,,00:46:03,10.6,-2.2,52.9,0.0,101.0,-0.0,-0.04,1.0,,-83.0,21.0,0.0,30.44,844.0,,,241.0,,,,,0.0,0.0,,,,,,,,,,,,,,,,,,,0.0,17.0,0.0,0.0,30.2,0.0,,0.0,0.8,,,37.4,0.0,0.0,-0.6,0.9,0.3,,,,,18.0,19.0,18.0,19.0,19.0,19.0,19.0,19.0,,,-6.0,114.2,,0.8,-8.0,4.998,,,0.654,0.776,0.0,17.3,,,,,,0.0,2026-01-31 16:45:19-08:00
46.06,1.0,8.0,2026-02-01 00:46:05,37.08159,-121.59959,325.0,0.0,231.1,-12.6,,,,,00:46:04,10.7,-2.2,52.9,0.0,101.0,-0.0,-0.04,1.0,,-20.0,21.0,0.0,30.44,839.0,,,241.0,,,,,0.0,0.0,,,,,,,,,,,,,,,,,,,0.0,17.0,0.0,0.0,30.2,0.0,,0.0,0.8,,,37.4,0.0,0.0,-0.6,0.9,0.3,,,,,18.0,19.0,18.0,19.0,19.0,19.0,19.0,19.0,,,-6.0,89.0,,0.8,-8.0,4.998,,,0.654,0.775,0.0,17.3,,,,,,0.0,2026-01-31 16:45:19-08:00
47.06,1.0,8.0,2026-02-01 00:46:06,37.08159,-121.59959,324.0,0.0,231.1,-12.6,,,,,00:46:05,10.7,-2.2,52.8,0.0,101.0,0.0,-0.04,1.0,,-29.0,21.0,0.0,30.44,839.0,,,241.0,,,,,0.0,0.0,,,,,,,,,,,,,,,,,,,0.0,17.0,0.0,0.0,30.2,0.0,,0.0,0.8,,,37.4,0.0,0.0,-0.6,0.9,0.3,,,,,18.0,19.0,18.0,19.0,19.0,19.0,19.0,19.0,,,-6.0,69.4,,0.8,-8.0,4.998,,,0.654,0.774,0.0,17.3,,,,,,0.0,2026-01-31 16:45:19-08:00
48.06,1.0,8.0,2026-02-01 00:46:07,37.0816,-121.59959,323.0,0.0,231.1,-12.6,,,,,00:46:06,10.7,-2.2,52.8,0.0,101.0,0.0,-0.04,1.0,,12.0,21.0,0.0,30.44,839.0,,,241.0,,,,,0.0,0.0,,,,,,,,,,,,,,,,,,,0.0,17.0,0.0,0.0,30.2,0.0,,0.0,0.7,,,37.4,0.0,0.0,-0.6,0.9,0.3,,,,,18.0,19.0,18.0,19.0,19.0,19.0,19.0,19.0,,,-6.0,54.1,,0.7,-8.0,4.998,,,0.654,0.774,0.0,17.3,,,,,,0.0,2026-01-31 16:45:19-08:00
49.06,1.0,8.0,2026-02-01 00:46:08,37.0816,-121.59959,323.0,0.0,231.1,-12.6,,,,,00:46:07,10.7,-2.2,52.8,0.0,101.0,0.0,-0.04,1.0,,3.0,21.0,0.0,30.44,839.0,,,241.0,,,,,0.0,0.0,,,,,,,,,,,,,,,,,,,0.0,17.0,0.0,0.0,30.2,0.0,,0.0,0.6,,,37.4,0.0,0.0,-0.7,0.9,0.3,,,,,18.0,19.0,18.0,19.0,19.0,19.0,19.0,19.0,,,-6.0,42.3,,0.6,-8.0,4.998,,,0.654,0.774,0.0,17.3,,,,,,0.0,2026-01-31 16:45:19-08:00
50.06,1.0,8.0,2026-02-01 00:46:09,37.0816,-121.59959,322.0,0.0,231.1,-12.6,,,,,00:46:08,10.7,-2.2,52.8,0.0,101.0,0.0,-0.04,1.0,,21.0,21.0,0.0,30.44,839.0,,,241.0,,,,,0.0,0.0,,,,,,,,,,,,,,,,,,,0.0,17.0,0.0,0.0,30.2,0.0,,0.0,0.5,,,37.4,0.0,0.0,-0.7,0.9,0.3,,,,,18.0,19.0,18.0,19.0,19.0,19.0,19.0,19.0,,,-6.0,33.1,,0.5,-8.0,4.998,,,0.654,0.774,0.0,17.3,,,,,,0.0,2026-01-31 16:45:19-08:00
51.06,1.0,8.0,2026-02-01 00:46:10,37.0816,-121.59959,322.0,0.0,231.1,-12.6,,,,,00:46:09,10.8,-2.2,52.8,0.0,101.0,-0.0,-0.04,1.0,,37.0,21.0,0.0,30.44,839.0,,,241.0,,,,,0.0,0.0,,,,,,,,,,,,,,,,,,,0.0,17.0,0.0,0.0,30.2,0.0,,0.0,0.4,,,37.4,0.0,0.0,-0.7,0.9,0.3,,,,,18.0,19.0,18.0,19.0,19.0,19.0,19.0,19.0,,,-6.0,25.9,,0.4,-8.0,4.998,,,0.654,0.774,0.0,17.3,,,,,,0.0,2026-01-31 16:45:19-08:00
52.06,1.0,8.0,2026-02-01 00:46:11,37.0816,-121.59959,321.0,0.0,231.1,-12.6,,,,,00:46:10,10.7,-2.2,52.8,0.0,101.0,-0.0,-0.04,1.0,,17.0,21.0,0.0,30.44,839.0,,,241.0,,,,,0.0,0.0,,,,,,,,,,,,,,,,,,,0.0,17.0,0.0,0.0,30.2,0.0,,0.0,0.3,,,37.4,0.0,0.0,-0.7,0.9,0.3,,,,,18.0,19.0,18.0,19.0,19.0,19.0,19.0,19.0,,,-6.0,20.4,,0.3,-8.0,4.998,,,0.654,0.773,0.0,17.3,,,,,,0.0,2026-01-31 16:45:19-08:00
53.06,1.0,8.0,2026-02-01 00:46:12,37.0816,-121.59959,321.0,0.0,231.1,-12.6,,,,,00:46:11,10.7,-2.2,52.8,0.0,101.0,-0.0,-0.04,1.0,,42.0,21.0,0.0,30.44,839.0,,,241.0,,,,,0.0,0.0,,,,,,,,,,,,,,,,,,,0.0,17.0,0.0,0.0,30.2,0.0,,0.0,0.2,,,37.4,0.0,0.0,-0.7,0.9,0.3,,,,,18.0,19.0,18.0,19.0,19.0,19.0,19.0,19.0,,,-6.0,16.0,,0.2,-8.0,4.998,,,0.654,0.774,0.0,17.3,,,,,,0.0,2026-01-31 16:45:19-08:00
54.06,1.0,8.0,2026-02-01 00:46:13,37.0816,-121.59959,321.0,0.0,231.1,-12.6,,,,,00:46:12,10.7,-2.2,52.8,0.0,101.0,-0.0,-0.04,1.0,,39.0,21.0,0.0,30.44,839.0,,,241.0,,,,,0.0,0.0,,,,,,,,,,,,,,,,,,,0.0,17.0,0.0,0.0,30.2,0.0,,0.0,0.0,,,37.4,0.0,0.0,-0.7,0.9,0.3,,,,,18.0,19.0,18.0,19.0,19.0,19.0,19.0,19.0,,,-6.0,12.7,,0.0,-8.0,4.998,,,0.654,0.774,0.0,17.3,,,,,,0.0,2026-01-31 16:45:19-08:00
55.06,1.0,8.0,2026-02-01 00:46:14,37.0816,-121.59959,320.0,0.0,231.1,-12.6,,,,,00:46:13,10.7,-2.2,52.9,0.0,101.0,0.0,-0.04,1.0,,-10.0,21.0,0.0,30.44,839.0,,,241.0,,,,,0.0,0.0,,,,,,,,,,,,,,,,,,,0.0,17.0,0.0,0.0,30.2,0.0,,0.0,0.0,,,37.4,0.0,0.0,-0.7,0.9,0.3,,,,,18.0,19.0,18.0,19.0,19.0,19.0,19.0,19.0,,,-6.0,10.1,,0.0,-8.0,4.998,,,0.654,0.773,0.0,17.3,,,,,,0.0,2026-01-31 16:45:19-08:00
56.06,1.0,8.0,2026-02-01 00:46:15,37.0816,-121.59959,320.0,0.0,231.1,-12.6,,,,,00:46:14,10.7,-2.2,52.8,0.0,101.0,0.0,-0.04,1.0,,-24.0,21.0,0.0,30.44,848.0,,,241.0,,,,,0.0,0.0,,,,,,,,,,,,,,,,,,,0.0,17.0,0.0,0.0,30.2,0.0,,0.0,0.0,,,37.4,0.0,0.0,-0.7,0.9,0.3,,,,,18.0,19.0,18.0,19.0,19.0,19.0,19.0,19.0,,,-6.0,8.0,,0.0,-8.0,4.998,,,0.656,0.773,0.0,17.3,,,,,,0.0,2026-01-31 16:45:19-08:00
57.06,1.0,8.0,2026-02-01 00:46:16,37.0816,-121.59959,320.0,0.0,231.1,-12.6,,,,,00:46:15,10.7,-2.2,52.8,0.0,101.0,-0.0,-0.04,1.0,,-12.0,21.0,0.0,30.44,848.0,,,241.0,,,,,0.0,0.0,,,,,,,,,,,,,,,,,,,0.0,17.0,0.0,0.0,30.2,0.0,,0.0,0.0,,,37.4,0.0,0.0,-0.7,0.9,0.3,,,,,18.0,19.0,18.0,19.0,19.0,19.0,19.0,19.0,,,-6.0,6.5,,0.0,-8.0,4.998,,,0.656,0.773,0.0,17.3,,,,,,0.0,2026-01-31 16:45:19-08:00
58.06,1.0,8.0,2026-02-01 00:46:17,37.08159,-121.59959,319.0,0.0,231.1,-12.6,,,,,00:46:16,10.7,-2.3,52.8,0.0,101.0,-0.0,-0.04,1.0,,-13.0,21.0,0.0,30.44,848.0,,,241.0,,,,,0.0,0.0,,,,,,,,,,,,,,,,,,,0.0,17.0,0.0,0.0,30.2,0.0,,0.0,0.0,,,37.4,0.0,0.0,-0.7,0.9,0.3,,,,,18.0,19.0,18.0,19.0,19.0,19.0,19.0,19.0,,,-6.0,5.2,,0.0,-8.0,4.998,,,0.654,0.773,0.0,17.3,,,,,,0.0,2026-01-31 16:45:19-08:00
59.06,1.0,8.0,2026-02-01 00:46:18,37.08159,-121.59959,319.0,0.0,231.1,-12.6,,,,,00:46:17,10.7,-2.3,52.9,0.0,101.0,0.0,-0.04,1.0,,-15.0,21.0,0.0,30.44,849.0,,,241.0,,,,,0.0,0.0,,,,,,,,,,,,,,,,,,,0.0,17.0,0.0,0.0,30.2,0.0,,0.0,0.0,,,37.4,0.0,0.0,-0.7,0.9,0.3,,,,,18.0,19.0,18.0,19.0,19.0,19.0,19.0,19.0,,,-6.0,4.3,,0.0,-8.0,4.998,,,0.656,0.773,0.0,17.3,,,,,,0.0,2026-01-31 16:45:19-08:00
60.06,1.0,8.0,2026-02-01 00:46:19,37.0816,-121.59958,305.0,0.0,231.1,-12.6,,,,,00:46:18,10.7,-2.3,52.8,0.0,101.0,-0.0,-0.04,1.0,,5.0,21.0,0.0,30.44,848.0,,,241.0,,,,,0.0,0.0,,,,,,,,,,,,,,,,,,,0.0,17.0,0.0,0.0,30.2,0.0,,0.0,0.0,,,37.4,0.0,0.0,-0.7,0.9,0.3,,,,,18.0,19.0,18.0,19.0,19.0,19.0,19.0,19.0,,,-6.0,3.5,,0.0,-8.0,4.998,,,0.656,0.773,0.0,17.3,,,,,,0.0,2026-01-31 16:45:19-08:00
61.06,1.0,8.0,2026-02-01 00:46:20,37.0816,-121.59958,305.0,0.0,231.1,-12.6,,,,,00:46:19,10.7,-2.3,52.8,0.0,101.0,-0.0,-0.04,1.0,,8.0,21.0,0.0,30.44,848.0,,,241.0,,,,,0.0,0.0,,,,,,,,,,,,,,,,,,,0.0,17.0,0.0,0.0,30.2,0.0,,0.0,0.0,,,37.4,0.0,0.0,-0.7,0.9,0.3,,,,,18.0,19.0,18.0,19.0,19.0,19.0,19.0,19.0,,,-6.0,3.0,,0.0,-8.0,4.998,,,0.656,0.773,0.0,17.3,,,,,,0.0,2026-01-31 16:45:19-08:00
62.06,1.0,8.0,2026-02-01 00:46:21,37.0816,-121.59958,304.0,0.0,231.1,-12.6,,,,,00:46:20,10.7,-2.3,52.8,0.0,101.0,-0.0,-0.04,1.0,,14.0,21.0,0.0,30.44,848.0,,,241.0,,,,,0.0,0.0,,,,,,,,,,,,,,,,,,,0.0,17.0,0.0,0.0,30.2,0.0,,0.0,0.0,,,37.4,0.0,0.0,-0.7,0.9,0.3,,,,,18.0,19.0,18.0,19.0,19.0,19.0,19.0,19.0,,,-6.0,2.5,,0.0,-8.0,4.998,,,0.656,0.774,0.0,17.3,,,,,,0.0,2026-01-31 16:45:19-08:00
63.06,1.0,8.0,2026-02-01 00:46:22,37.08159,-121.59958,304.0,0.0,231.1,-12.6,,,,,00:46:21,10.7,-2.2,52.8,0.0,101.0,-0.0,-0.04,1.0,,-2.0,21.0,0.0,30.44,849.0,,,241.0,,,,,0.0,0.0,,,,,,,,,,,,,,,,,,,0.0,17.0,0.0,0.0,30.2,0.0,,0.0,0.0,,,37.4,0.0,0.0,-0.7,0.9,0.3,,,,,18.0,19.0,18.0,19.0,19.0,19.0,19.0,19.0,,,-6.0,2.2,,0.0,-8.0,4.998,,,0.656,0.774,0.0,17.3,,,,,,0.0,2026-01-31 16:45:19-08:00
64.06,1.0,8.0,2026-02-01 00:46:23,37.08159,-121.59958,304.0,0.0,231.1,-12.6,,,,,00:46:22,10.7,-2.2,52.8,0.0,101.0,-0.0,-0.04,1.0,,-27.0,21.0,0.0,30.44,848.0,,,241.0,,,,,0.0,0.0,,,,,,,,,,,,,,,,,,,0.0,17.0,0.0,0.0,30.2,0.0,,0.0,0.0,,,37.4,0.0,0.0,-0.7,0.9,0.3,,,,,18.0,19.0,18.0,19.0,19.0,19.0,19.0,19.0,,,-6.0,1.9,,0.0,-8.0,4.998,,,0.656,0.774,0.0,17.3,,,,,,0.0,2026-01-31 16:45:19-08:00
65.06,1.0,8.0,2026-02-01 00:46:24,37.08159,-121.59957,304.0,0.0,231.1,-12.6,,,,,00:46:23,10.7,-2.2,52.8,0.0,101.0,0.0,-0.04,1.0,,15.0,21.0,0.0,30.44,848.0,,,241.0,,,,,0.0,0.0,,,,,,,,,,,,,,,,,,,0.0,17.0,0.0,0.0,30.2,0.0,,0.0,0.0,,,37.4,0.0,0.0,-0.7,0.9,0.3,,,,,18.0,19.0,18.0,19.0,19.0,19.0,19.0,19.0,,,-6.0,1.7,,0.0,-8.0,4.998,,,0.654,0.774,0.0,17.3,,,,,,0.0,2026-01-31 16:45:19-08:00
66.06,1.0,8.0,2026-02-01 00:46:25,37.08159,-121.59957,305.0,0.0,231.1,-12.6,,,,,00:46:24,10.7,-2.3,52.8,0.0,101.0,0.0,-0.04,1.0,,-12.0,21.0,0.0,30.44,848.0,,,241.0,,,,,0.0,0.0,,,,,,,,,,,,,,,,,,,0.0,17.0,0.0,0.0,30.2,0.0,,0.0,0.0,,,37.4,0.0,0.0,-0.7,0.9,0.3,,,,,18.0,19.0,18.0,19.0,19.0,19.0,19.0,19.0,,,-6.0,1.6,,0.0,-8.0,4.998,,,0.656,0.774,0.0,17.3,,,,,,0.0,2026-01-31 16:45:19-08:00
67.06,1.0,8.0,2026-02-01 00:46:26,37.08159,-121.59957,305.0,0.0,231.1,-12.6,,,,,00:46:25,10.7,-2.3,52.8,0.0,101.0,-0.0,-0.04,1.0,,-12.0,21.0,0.0,30.44,849.0,,,241.0,,,,,0.0,0.0,,,,,,,,,,,,,,,,,,,0.0,17.0,0.0,0.0,30.2,0.0,,0.0,0.0,,,37.4,0.0,0.0,-0.7,0.9,0.3,,,,,18.0,19.0,18.0,19.0,19.0,19.0,19.0,19.0,,,-6.0,1.4,,0.0,-8.0,4.998,,,0.656,0.775,0.0,17.3,,,,,,0.0,2026-01-31 16:45:19-08:00
68.06,1.0,8.0,2026-02-01 00:46:27,37.08159,-121.59957,305.0,0.0,231.1,-12.6,,,,,00:46:26,10.7,-2.3,52.8,0.0,101.0,-0.0,-0.04,1.0,,-31.0,21.0,0.0,30.44,849.0,,,241.0,,,,,0.0,0.0,,,,,,,,,,,,,,,,,,,0.0,17.0,0.0,0.0,30.2,0.0,,0.0,0.0,,,37.4,0.0,0.0,-0.7,0.9,0.3,,,,,18.0,19.0,18.0,19.0,19.0,19.0,19.0,19.0,,,-6.0,1.3,,0.0,-8.0,4.998,,,0.656,0.775,0.0,17.3,,,,,,0.0,2026-01-31 16:45:19-08:00
69.06,1.0,8.0,2026-02-01 00:46:28,37.08159,-121.59957,305.0,0.0,231.1,-12.6,,,,,00:46:27,10.7,-2.3,52.8,0.0,101.0,-0.0,-0.04,1.0,,-24.0,21.0,0.0,30.44,849.0,,,241.0,,,,,0.0,0.0,,,,,,,,,,,,,,,,,,,0.0,17.0,0.0,0.0,30.2,0.0,,0.0,0.0,,,37.4,0.0,0.0,-0.7,0.9,0.3,,,,,18.0,19.0,18.0,19.0,19.0,19.0,19.0,19.0,,,-6.0,1.2,,0.0,-8.0,4.998,,,0.654,0.776,0.0,17.3,,,,,,0.0,2026-01-31 16:45:19-08:00
70.06,1.0,8.0,2026-02-01 00:46:29,37.08159,-121.59957,305.0,0.0,231.1,-12.6,,,,,00:46:28,10.7,-2.3,52.8,0.0,101.0,-0.0,-0.04,1.0,,-32.0,21.0,0.0,30.44,849.0,,,241.0,,,,,0.0,0.0,,,,,,,,,,,,,,,,,,,0.0,17.0,0.0,0.0,30.2,0.0,,0.0,0.0,,,37.4,0.0,0.0,-0.7,0.9,0.3,,,,,18.0,19.0,18.0,19.0,19.0,19.0,19.0,19.0,,,-6.0,1.2,,0.0,-8.0,4.998,,,0.654,0.776,0.0,17.3,,,,,,0.0,2026-01-31 16:45:19-08:00
71.06,1.0,8.0,2026-02-01 00:46:30,37.08159,-121.59957,305.0,0.0,231.1,-12.6,,,,,00:46:29,10.7,-2.2,52.8,0.0,100.0,-0.0,-0.04,1.0,,-65.0,21.0,0.0,30.44,849.0,,,241.0,,,,,0.0,0.0,,,,,,,,,,,,,,,,,,,0.0,17.0,0.0,0.0,30.2,0.0,,0.0,0.0,,,37.4,0.0,0.0,-0.7,0.9,0.3,,,,,19.0,19.0,19.0,19.0,19.0,19.0,19.0,19.0,,,-6.0,1.1,,0.0,-8.0,4.998,,,0.654,0.776,0.0,17.3,,,,,,0.0,2026-01-31 16:45:19-08:00
72.06,1.0,8.0,2026-02-01 00:46:31,37.08159,-121.59957,304.0,0.0,231.1,-12.6,,,,,00:46:30,10.7,-2.2,52.8,0.0,99.0,0.0,-0.04,1.0,,-30.0,21.0,0.0,30.44,849.0,,,241.0,,,,,0.0,0.0,,,,,,,,,,,,,,,,,,,0.0,17.0,0.0,0.0,30.2,0.0,,0.0,0.0,,,37.4,0.0,0.0,-0.7,0.9,0.3,,,,,19.0,19.0,19.0,19.0,19.0,19.0,19.0,19.0,,,-6.0,1.1,,0.0,-8.0,4.998,,,0.656,0.779,0.0,17.3,,,,,,0.0,2026-01-31 16:45:19-08:00
73.06,1.0,8.0,2026-02-01 00:46:32,37.08159,-121.59957,304.0,0.0,231.1,-12.6,,,,,00:46:31,10.7,-2.2,52.8,0.0,99.0,-0.0,-0.04,1.0,,-21.0,21.0,0.0,30.44,847.0,,,241.0,,,,,0.0,0.0,,,,,,,,,,,,,,,,,,,0.0,17.0,0.0,0.0,30.2,0.0,,0.0,0.0,,,37.4,0.0,0.0,-0.7,0.9,0.3,,,,,19.0,19.0,19.0,19.0,19.0,19.0,19.0,19.0,,,-6.0,1.1,,0.0,-8.0,4.998,,,0.656,0.778,0.0,17.3,,,,,,0.0,2026-01-31 16:45:19-08:00
74.06,1.0,8.0,2026-02-01 00:46:33,37.08159,-121.59957,304.0,0.0,231.1,-12.6,,,,,00:46:32,10.8,-2.2,52.8,0.0,98.0,-0.0,-0.04,1.0,,-45.0,21.0,0.0,30.44,847.0,,,241.0,,,,,0.0,0.0,,,,,,,,,,,,,,,,,,,0.0,17.0,0.0,0.0,30.2,0.0,,0.0,0.0,,,37.4,0.0,0.0,-0.7,0.9,0.3,,,,,19.0,19.0,19.0,19.0,19.0,19.0,19.0,19.0,,,-6.0,1.0,,0.0,-8.0,4.998,,,0.654,0.779,0.0,17.3,,,,,,0.0,2026-01-31 16:45:19-08:00
75.06,1.0,8.0,2026-02-01 00:46:34,37.08159,-121.59957,304.0,0.0,231.1,-12.6,,,,,00:46:33,10.7,-2.2,52.8,0.0,96.0,-0.0,-0.04,1.0,,-81.0,21.0,0.0,30.44,847.0,,,241.0,,,,,0.0,0.0,,,,,,,,,,,,,,,,,,,0.0,17.0,0.0,0.0,30.2,0.0,,0.0,0.0,,,37.4,0.0,0.0,-0.7,0.9,0.3,,,,,19.0,19.0,19.0,19.0,19.0,19.0,19.0,19.0,,,-6.0,1.0,,0.0,-8.0,4.998,,,0.656,0.782,0.0,17.3,,,,,,0.0,2026-01-31 16:45:19-08:00
76.06,1.0,8.0,2026-02-01 00:46:35,37.08159,-121.59957,304.0,0.0,231.1,-12.6,,,,,00:46:34,10.7,-2.2,52.8,0.0,96.0,0.0,-0.04,1.0,,-31.0,21.0,0.0,30.44,843.0,,,241.0,,,,,0.0,0.0,,,,,,,,,,,,,,,,,,,0.0,17.0,0.0,0.0,30.2,0.0,,0.0,0.0,,,37.4,0.0,0.0,-0.7,0.9,0.3,,,,,19.0,19.0,19.0,19.0,19.0,19.0,19.0,19.0,,,-6.0,1.0,,0.0,-8.0,4.998,,,0.654,0.781,0.0,17.3,,,,,,0.0,2026-01-31 16:45:19-08:00
77.06,1.0,8.0,2026-02-01 00:46:36,37.08159,-121.59957,304.0,0.0,231.1,-12.6,,,,,00:46:35,10.7,-2.2,52.8,0.0,96.0,0.0,-0.04,1.0,,-1.0,21.0,0.0,30.44,843.0,,,241.0,,,,,0.0,0.0,,,,,,,,,,,,,,,,,,,0.0,17.0,0.0,0.0,30.2,0.0,,0.0,0.0,,,37.4,0.0,0.0,-0.7,0.9,0.3,,,,,19.0,19.0,19.0,19.0,19.0,19.0,19.0,19.0,,,-6.0,1.0,,0.0,-8.0,4.998,,,0.654,0.781,0.0,17.3,,,,,,0.0,2026-01-31 16:45:19-08:00
78.06,1.0,8.0,2026-02-01 00:46:37,37.08159,-121.59957,304.0,0.0,231.1,-12.6,,,,,00:46:36,10.7,-2.2,52.8,0.0,96.0,-0.0,-0.04,1.0,,-42.0,21.0,0.0,30.44,843.0,,,241.0,,,,,0.0,0.0,,,,,,,,,,,,,,,,,,,0.0,17.0,0.0,0.0,30.2,0.0,,0.0,0.0,,,37.4,0.0,0.0,-0.7,0.9,0.3,,,,,19.0,19.0,19.0,19.0,19.0,19.0,19.0,19.0,,,-6.0,1.0,,0.0,-8.0,4.998,,,0.654,0.781,0.0,17.3,,,,,,0.0,2026-01-31 16:45:19-08:00
79.06,1.0,8.0,2026-02-01 00:46:38,37.08159,-121.59957,304.0,0.0,231.1,-12.6,,,,,00:46:37,10.7,-2.3,52.8,0.0,96.0,0.0,-0.04,1.0,,5.0,21.0,0.0,30.44,843.0,,,241.0,,,,,0.0,0.0,,,,,,,,,,,,,,,,,,,0.0,17.0,0.0,0.0,30.2,0.0,,0.0,0.0,,,37.4,0.0,0.0,-0.7,0.9,0.3,,,,,19.0,19.0,19.0,19.0,19.0,19.0,19.0,19.0,,,-6.0,1.0,,0.0,-8.0,4.998,,,0.656,0.781,0.0,17.3,,,,,,0.0,2026-01-31 16:45:19-08:00
80.06,1.0,8.0,2026-02-01 00:46:39,37.08159,-121.59957,304.0,0.0,231.1,-12.6,,,,,00:46:38,10.7,-2.3,52.8,0.0,96.0,-0.0,-0.04,1.0,,23.0,21.0,0.0,30.44,843.0,,,241.0,,,,,0.0,0.0,,,,,,,,,,,,,,,,,,,0.0,17.0,0.0,0.0,30.2,0.0,,0.0,0.0,,,37.4,0.0,0.0,-0.7,0.9,0.3,,,,,19.0,19.0,19.0,19.0,19.0,19.0,19.0,19.0,,,-6.0,1.0,,0.0,-8.0,4.998,,,0.654,0.781,0.0,17.3,,,,,,0.0,2026-01-31 16:45:19-08:00
81.06,1.0,8.0,2026-02-01 00:46:40,37.08159,-121.59957,304.0,0.0,231.1,-12.6,,,,,00:46:39,10.7,-2.2,52.8,0.0,96.0,0.0,-0.04,1.0,,18.0,21.0,0.0,30.44,843.0,,,241.0,,,,,0.0,0.0,,,,,,,,,,,,,,,,,,,0.0,17.0,0.0,0.0,30.2,0.0,,0.0,0.0,,,37.4,0.0,0.0,-0.7,0.9,0.3,,,,,19.0,19.0,19.0,19.0,19.0,19.0,19.0,19.0,,,-6.0,1.0,,0.0,-8.0,4.998,,,0.654,0.781,0.0,17.3,,,,,,0.0,2026-01-31 16:45:19-08:00
82.06,1.0,8.0,2026-02-01 00:46:41,37.08159,-121.59957,304.0,0.0,231.1,-12.6,,,,,00:46:40,10.7,-2.2,52.8,0.0,96.0,-0.0,-0.04,1.0,,-12.0,21.0,0.0,30.44,843.0,,,241.0,,,,,0.0,0.0,,,,,,,,,,,,,,,,,,,0.0,17.0,0.0,0.0,30.2,0.0,,0.0,0.0,,,37.4,0.0,0.0,-0.7,0.9,0.3,,,,,19.0,19.0,19.0,19.0,19.0,19.0,19.0,19.0,,,-6.0,1.0,,0.0,-8.0,4.998,,,0.654,0.782,0.0,17.3,,,,,,0.0,2026-01-31 16:45:19-08:00
83.06,1.0,8.0,2026-02-01 00:46:42,37.08159,-121.59957,304.0,0.0,231.1,-12.6,,,,,00:46:41,10.7,-2.2,52.8,0.0,96.0,-0.0,-0.04,1.0,,51.0,21.0,0.0,30.44,843.0,,,241.0,,,,,0.0,0.0,,,,,,,,,,,,,,,,,,,0.0,17.0,0.0,0.0,30.2,0.0,,0.0,0.0,,,37.4,0.0,0.0,-0.7,0.9,0.3,,,,,19.0,19.0,19.0,19.0,19.0,19.0,19.0,19.0,,,-6.0,1.0,,0.0,-8.0,4.998,,,0.654,0.782,0.0,17.3,,,,,,0.0,2026-01-31 16:45:19-08:00
84.06,1.0,8.0,2026-02-01 00:46:43,37.08159,-121.59957,305.0,0.0,231.1,-12.6,,,,,00:46:42,10.8,-2.2,52.8,0.0,96.0,0.0,-0.04,1.0,,24.0,21.0,0.0,30.44,843.0,,,241.0,,,,,0.0,0.0,,,,,,,,,,,,,,,,,,,0.0,17.0,0.0,0.0,30.2,0.0,,0.0,0.0,,,37.4,0.0,0.0,-0.7,0.9,0.3,,,,,19.0,19.0,19.0,19.0,19.0,19.0,19.0,19.0,,,-6.0,1.0,,0.0,-8.0,4.998,,,0.656,0.782,0.0,17.3,,,,,,0.0,2026-01-31 16:45:19-08:00
85.06,1.0,8.0,2026-02-01 00:46:44,37.08159,-121.59957,305.0,0.0,231.1,-12.6,,,,,00:46:43,10.7,-2.2,52.9,0.0,96.0,0.0,-0.04,1.0,,3.0,21.0,0.0,30.44,843.0,,,241.0,,,,,0.0,0.0,,,,,,,,,,,,,,,,,,,0.0,17.0,0.0,0.0,30.2,0.0,,0.0,0.0,,,37.4,0.0,0.0,-0.7,0.9,0.3,,,,,19.0,19.0,19.0,19.0,19.0,19.0,19.0,19.0,,,-6.0,1.0,,0.0,-8.0,4.998,,,0.656,0.781,0.0,17.3,,,,,,0.0,2026-01-31 16:45:19-08:00
86.06,1.0,8.0,2026-02-01 00:46:45,37.08158,-121.59958,305.0,0.0,231.1,-12.6,,,,,00:46:44,10.7,-2.2,52.9,0.0,96.0,0.0,-0.04,1.0,,2.0,21.0,0.0,30.44,843.0,,,241.0,,,,,0.0,0.0,,,,,,,,,,,,,,,,,,,0.0,17.0,0.0,0.0,30.2,0.0,,0.0,0.0,,,37.4,0.0,0.0,-0.7,0.9,0.3,,,,,19.0,19.0,19.0,19.0,19.0,19.0,19.0,19.0,,,-6.0,1.0,,0.0,-8.0,4.998,,,0.654,0.782,0.0,17.3,,,,,,0.0,2026-01-31 16:45:19-08:00
87.06,2.0,8.0,2026-02-01 00:46:46,37.08158,-121.59958,307.0,0.0,231.1,-12.6,,,,,00:46:45,10.7,-2.3,52.8,0.0,96.0,-0.0,-0.04,1.0,,2.0,21.0,0.0,30.44,844.0,,,241.0,,,,,0.0,0.0,,,,,,,,,,,,,,,,,,,0.0,17.0,0.0,0.0,30.2,0.0,,0.0,0.0,,,37.4,0.0,0.0,-0.7,0.9,0.3,,,,,19.0,19.0,19.0,19.0,19.0,19.0,19.0,19.0,,,-6.0,0.0,,0.0,-8.0,4.998,,,0.654,0.781,0.0,17.3,,,,,,0.0,2026-01-31 16:45:19-08:00
88.06,2.0,8.0,2026-02-01 00:46:47,37.08158,-121.59958,307.0,0.0,231.1,-12.6,,,,,00:46:46,10.7,-2.2,52.8,0.0,96.0,-0.0,-0.04,1.0,,11.0,21.0,0.0,30.44,844.0,,,241.0,,,,,0.0,0.0,,,,,,,,,,,,,,,,,,,0.0,17.0,0.0,0.0,30.2,0.0,,0.0,0.0,,,37.4,0.0,0.0,-0.7,0.9,0.3,,,,,19.0,19.0,19.0,19.0,19.0,19.0,19.0,19.0,,,-6.0,0.0,,0.0,-8.0,4.998,,,0.654,0.781,0.0,17.3,,,,,,0.0,2026-01-31 16:45:19-08:00
89.06,2.0,8.0,2026-02-01 00:46:48,37.08157,-121.59958,308.0,0.0,231.1,-12.6,,,,,00:46:47,10.7,-2.2,52.8,0.0,96.0,-0.0,-0.04,1.0,,35.0,21.0,0.0,30.44,844.0,,,241.0,,,,,0.0,0.0,,,,,,,,,,,,,,,,,,,0.0,17.0,0.0,0.0,30.2,0.0,,0.0,0.0,,,37.4,0.0,0.0,-0.7,0.9,0.3,,,,,19.0,19.0,19.0,19.0,19.0,19.0,19.0,19.0,,,-6.0,0.0,,0.0,-8.0,4.998,,,0.654,0.781,0.0,17.3,,,,,,0.0,2026-01-31 16:45:19-08:00
90.06,2.0,8.0,2026-02-01 00:46:49,37.08157,-121.59958,309.0,0.0,231.1,-12.6,,,,,00:46:48,10.7,-2.2,52.8,0.0,96.0,-0.0,-0.04,1.0,,18.0,21.0,0.0,30.44,844.0,,,241.0,,,,,0.0,0.0,,,,,,,,,,,,,,,,,,,0.0,17.0,0.0,0.0,30.2,0.0,,0.0,0.0,,,37.4,0.0,0.0,-0.7,0.9,0.3,,,,,19.0,19.0,19.0,19.0,19.0,19.0,19.0,20.0,,,-6.0,0.0,,0.0,-8.0,4.998,,,0.654,0.781,0.0,17.3,,,,,,0.0,2026-01-31 16:45:19-08:00
91.06,2.0,8.0,2026-02-01 00:46:50,37.08157,-121.59958,310.0,0.0,231.1,-12.6,,,,,00:46:49,10.7,-2.3,52.8,0.0,96.0,-0.0,-0.04,1.0,,26.0,21.0,0.0,30.44,844.0,,,241.0,,,,,0.0,0.0,,,,,,,,,,,,,,,,,,,0.0,17.0,0.0,0.0,30.2,0.0,,0.0,0.0,,,37.4,0.0,0.0,-0.7,0.9,0.3,,,,,19.0,19.0,19.0,19.0,19.0,19.0,19.0,20.0,,,-6.0,0.0,,0.0,-8.0,4.998,,,0.654,0.782,0.0,17.3,,,,,,0.0,2026-01-31 16:45:19-08:00
92.06,2.0,8.0,2026-02-01 00:46:51,37.08157,-121.59958,311.0,0.0,231.1,-12.6,,,,,00:46:50,10.7,-2.3,52.8,0.0,96.0,-0.0,-0.04,1.0,,36.0,21.0,0.0,30.44,844.0,,,241.0,,,,,0.0,0.0,,,,,,,,,,,,,,,,,,,0.0,17.0,0.0,0.0,30.2,0.0,,0.0,0.0,,,37.4,0.0,0.0,-0.7,0.9,0.3,,,,,19.0,19.0,19.0,19.0,19.0,19.0,19.0,19.0,,,-6.0,0.0,,0.0,-8.0,4.998,,,0.656,0.784,0.0,17.3,,,,,,0.0,2026-01-31 16:45:19-08:00
93.06,2.0,8.0,2026-02-01 00:46:52,37.08157,-121.59958,309.0,0.0,231.1,-12.6,,,,,00:46:51,10.7,-2.3,52.8,0.0,96.0,-0.0,-0.04,1.0,,25.0,21.0,0.0,30.44,853.0,,,241.0,,,,,0.0,0.0,,,,,,,,,,,,,,,,,,,0.0,17.0,0.0,0.0,30.2,0.0,,0.0,0.0,,,37.4,0.0,0.0,-0.7,0.9,0.3,,,,,19.0,19.0,19.0,19.0,19.0,19.0,19.0,20.0,,,-6.0,0.0,,0.0,-8.0,4.998,,,0.656,0.785,0.0,17.3,,,,,,0.0,2026-01-31 16:45:19-08:00
94.06,2.0,8.0,2026-02-01 00:46:53,37.08157,-121.59958,310.0,0.0,231.1,-12.6,,,,,00:46:52,10.7,-2.3,52.7,0.0,96.0,-0.0,-0.04,1.0,,39.0,21.0,0.0,30.44,853.0,,,241.0,,,,,0.0,0.0,,,,,,,,,,,,,,,,,,,0.0,17.0,0.0,0.0,30.2,0.0,,0.0,0.0,,,37.4,0.0,0.0,-0.7,0.9,0.3,,,,,19.0,19.0,19.0,19.0,19.0,19.0,19.0,20.0,,,-6.0,0.0,,0.0,-8.0,4.998,,,0.654,0.787,0.0,17.3,,,,,,0.0,2026-01-31 16:45:19-08:00
95.06,2.0,8.0,2026-02-01 00:46:54,37.08157,-121.59959,310.0,0.0,231.1,-12.6,,,,,00:46:53,10.7,-2.3,52.7,0.0,96.0,-0.0,-0.04,1.0,,55.0,21.0,0.0,30.44,853.0,,,241.0,,,,,0.0,0.0,,,,,,,,,,,,,,,,,,,0.0,17.0,0.0,0.0,30.2,0.0,,0.0,0.0,,,37.4,0.0,0.0,-0.7,0.9,0.3,,,,,19.0,19.0,19.0,19.0,19.0,19.0,19.0,20.0,,,-6.0,0.0,,0.0,-8.0,4.998,,,0.654,0.787,0.0,17.3,,,,,,0.0,2026-01-31 16:45:19-08:00
96.06,2.0,8.0,2026-02-01 00:46:55,37.08158,-121.59958,311.0,0.0,231.1,-12.6,,,,,00:46:54,10.7,-2.3,52.8,0.0,96.0,-0.0,-0.04,1.0,,42.0,21.0,0.0,30.44,853.0,,,241.0,,,,,0.0,0.0,,,,,,,,,,,,,,,,,,,0.0,17.0,0.0,0.0,30.2,0.0,,0.0,0.0,,,37.4,0.0,0.0,-0.7,0.9,0.3,,,,,19.0,19.0,19.0,19.0,19.0,19.0,19.0,20.0,,,-6.0,0.0,,0.0,-8.0,4.998,,,0.654,0.795,0.0,17.3,,,,,,0.0,2026-01-31 16:45:19-08:00
97.06,2.0,8.0,2026-02-01 00:46:56,37.08158,-121.59958,311.0,0.0,231.1,-12.6,,,,,00:46:55,10.7,-2.3,52.8,0.0,96.0,0.0,-0.04,1.0,,58.0,21.0,0.0,30.44,853.0,,,241.0,,,,,0.0,0.0,,,,,,,,,,,,,,,,,,,0.0,17.0,0.0,0.0,30.2,0.0,,0.0,0.0,,,37.4,0.0,0.0,-0.7,0.9,0.3,,,,,19.0,19.0,19.0,19.0,19.0,19.0,19.0,20.0,,,-6.0,0.0,,0.0,-8.0,4.998,,,0.656,0.807,0.0,17.3,,,,,,0.0,2026-01-31 16:45:19-08:00
98.06,2.0,8.0,2026-02-01 00:46:57,37.08158,-121.59958,311.0,0.0,231.1,-12.6,,,,,00:46:56,10.7,-2.3,52.8,0.0,98.0,-0.0,-0.04,1.0,,47.0,21.0,0.0,30.44,853.0,,,241.0,,,,,0.0,0.0,,,,,,,,,,,,,,,,,,,0.0,17.0,0.0,0.0,30.2,0.0,,0.0,0.0,,,37.4,0.0,0.0,-0.7,0.9,0.3,,,,,19.0,19.0,19.0,19.0,19.0,19.0,19.0,19.0,,,-6.0,0.0,,0.0,-8.0,4.998,,,0.656,0.82,0.0,17.3,,,,,,0.0,2026-01-31 16:45:19-08:00
99.06,2.0,8.0,2026-02-01 00:46:58,37.08158,-121.59958,311.0,0.0,231.1,-12.6,,,,,00:46:57,10.7,-2.3,52.8,0.0,98.0,0.0,-0.04,1.0,,57.0,21.0,0.0,30.44,857.0,,,241.0,,,,,0.0,0.0,,,,,,,,,,,,,,,,,,,0.0,17.0,0.0,0.0,30.2,0.0,,0.0,0.0,,,37.4,0.0,0.0,-0.7,0.9,0.3,,,,,19.0,19.0,19.0,19.0,19.0,19.0,19.0,20.0,,,-6.0,0.0,,0.0,-8.0,4.998,,,0.656,0.804,0.0,17.3,,,,,,0.0,2026-01-31 16:45:19-08:00
100.06,2.0,8.0,2026-02-01 00:46:59,37.08158,-121.59958,311.0,0.0,231.1,-12.6,,,,,00:46:58,10.7,-2.2,52.8,0.0,99.0,0.0,-0.04,1.0,,33.0,21.0,0.0,30.44,856.0,,,241.0,,,,,0.0,0.0,,,,,,,,,,,,,,,,,,,0.0,17.0,0.0,0.0,30.2,0.0,,0.0,0.0,,,37.4,0.0,0.0,-0.7,0.9,0.3,,,,,19.0,19.0,19.0,19.0,19.0,19.0,19.0,20.0,,,-6.0,0.0,,0.0,-8.0,4.998,,,0.656,0.795,0.0,17.3,,,,,,0.0,2026-01-31 16:45:19-08:00
101.06,2.0,8.0,2026-02-01 00:47:00,37.08158,-121.59958,312.0,0.0,231.1,-12.6,,,,,00:46:59,10.7,-2.2,52.9,0.0,100.0,0.0,-0.04,1.0,,68.0,21.0,0.0,30.44,856.0,,,241.0,,,,,0.0,0.0,,,,,,,,,,,,,,,,,,,0.0,17.0,0.0,0.0,30.2,0.0,,0.0,0.0,,,37.4,0.0,0.0,-0.7,0.9,0.3,,,,,19.0,19.0,19.0,19.0,19.0,19.0,19.0,20.0,,,-6.0,0.0,,0.0,-8.0,4.998,,,0.656,0.793,0.0,17.3,,,,,,0.0,2026-01-31 16:45:19-08:00
102.06,2.0,8.0,2026-02-01 00:47:01,37.08158,-121.59959,312.0,0.1,231.1,-12.6,,,,,00:47:00,10.8,-2.2,52.8,0.0,101.0,0.0,-0.04,1.0,,34.0,21.0,0.0,30.44,856.0,,,241.0,,,,,0.0,0.0,,,,,,,,,,,,,,,,,,,0.0,17.0,0.0,0.0,30.2,0.0,,0.0,0.0,,,37.4,0.0,0.0,-0.7,0.9,0.3,,,,,19.0,19.0,19.0,19.0,19.0,19.0,19.0,20.0,,,-6.0,0.0,,0.0,-8.0,4.998,,,0.654,0.795,0.0,17.3,,,,,,0.0,2026-01-31 16:45:19-08:00
103.06,2.0,8.0,2026-02-01 00:47:02,37.08158,-121.59959,312.0,0.1,231.1,-12.6,,,,,00:47:01,10.8,-2.3,52.8,0.0,101.0,-0.0,-0.04,1.0,,7.0,21.0,0.0,30.44,860.0,,,241.0,,,,,0.0,0.0,,,,,,,,,,,,,,,,,,,0.0,17.0,0.0,0.0,30.2,0.0,,0.0,0.0,,,37.4,0.0,0.0,-0.7,0.9,0.3,,,,,19.0,19.0,19.0,19.0,19.0,19.0,19.0,19.0,,,-6.0,0.0,,0.0,-8.0,4.998,,,0.654,0.795,0.0,17.3,,,,,,0.0,2026-01-31 16:45:19-08:00
104.06,2.0,8.0,2026-02-01 00:47:03,37.08158,-121.59959,313.0,0.1,231.1,-12.6,,,,,00:47:02,10.8,-2.3,52.8,0.0,101.0,-0.0,-0.04,1.0,,18.0,21.0,0.0,30.44,860.0,,,241.0,,,,,0.0,0.0,,,,,,,,,,,,,,,,,,,0.0,17.0,0.0,0.0,30.2,0.0,,0.0,0.0,,,37.4,0.0,0.0,-0.7,0.9,0.3,,,,,19.0,19.0,19.0,19.0,19.0,19.0,19.0,19.0,,,-6.0,0.0,,0.0,-8.0,4.998,,,0.656,0.795,0.0,17.3,,,,,,0.0,2026-01-31 16:45:19-08:00
105.06,2.0,8.0,2026-02-01 00:47:04,37.08158,-121.59959,314.0,0.1,231.1,-12.6,,,,,00:47:03,10.8,-2.3,52.7,0.0,101.0,-0.0,-0.04,1.0,,13.0,21.0,0.0,30.44,859.0,,,241.0,,,,,0.0,0.0,,,,,,,,,,,,,,,,,,,0.0,17.0,0.0,0.0,30.2,0.0,,0.0,0.0,,,37.4,0.0,0.0,-0.7,0.9,0.3,,,,,19.0,19.0,19.0,19.0,19.0,19.0,19.0,19.0,,,-6.0,0.0,,0.0,-8.0,4.998,,,0.656,0.793,0.0,17.3,,,,,,0.0,2026-01-31 16:45:19-08:00
106.06,2.0,8.0,2026-02-01 00:47:05,37.08158,-121.59959,314.0,0.1,231.1,-12.6,,,,,00:47:04,10.8,-2.3,52.7,0.0,101.0,-0.0,-0.04,1.0,,35.0,21.0,0.0,30.44,859.0,,,241.0,,,,,0.0,0.0,,,,,,,,,,,,,,,,,,,0.0,17.0,0.0,0.0,30.2,0.0,,0.0,0.0,,,37.4,0.0,0.0,-0.7,0.9,0.3,,,,,19.0,19.0,19.0,19.0,19.0,19.0,19.0,19.0,,,-6.0,0.0,,0.0,-8.0,4.998,,,0.654,0.793,0.0,17.3,,,,,,0.0,2026-01-31 16:45:19-08:00
107.06,2.0,8.0,2026-02-01 00:47:06,37.08158,-121.59959,314.0,0.0,231.1,-12.6,,,,,00:47:05,10.8,-2.3,52.7,0.0,101.0,-0.0,-0.04,1.0,,32.0,21.0,0.0,30.44,859.0,,,241.0,,,,,0.0,0.0,,,,,,,,,,,,,,,,,,,0.0,17.0,0.0,0.0,30.2,0.0,,0.0,0.0,,,37.4,0.0,0.0,-0.7,0.9,0.3,,,,,19.0,19.0,19.0,19.0,19.0,19.0,19.0,19.0,,,-5.0,0.0,,0.0,-8.0,4.998,,,0.656,0.791,0.0,17.3,,,,,,0.0,2026-01-31 16:45:19-08:00
108.06,2.0,8.0,2026-02-01 00:47:07,37.08158,-121.59959,315.0,0.1,231.1,-12.6,,,,,00:47:06,10.8,-2.3,52.7,0.0,102.0,0.0,-0.04,1.0,,25.0,21.0,0.0,30.44,861.0,,,241.0,,,,,0.0,0.0,,,,,,,,,,,,,,,,,,,0.0,17.0,0.0,0.0,30.2,0.0,,0.0,0.0,,,37.4,0.0,0.0,-0.7,0.9,0.3,,,,,19.0,19.0,18.0,19.0,19.0,19.0,19.0,20.0,,,-5.0,0.0,,0.0,-8.0,4.998,,,0.654,0.791,0.0,17.3,,,,,,0.0,2026-01-31 16:45:19-08:00
109.06,2.0,8.0,2026-02-01 00:47:08,37.08158,-121.59959,314.0,0.1,231.1,-12.6,,,,,00:47:07,10.8,-2.3,52.7,0.0,102.0,-0.0,-0.04,1.0,,18.0,21.0,0.0,30.44,861.0,,,241.0,,,,,0.0,0.0,,,,,,,,,,,,,,,,,,,0.0,17.0,0.0,0.0,30.2,0.0,,0.0,0.0,,,37.4,0.0,0.0,-0.7,0.9,0.3,,,,,19.0,19.0,19.0,19.0,19.0,19.0,19.0,19.0,,,-5.0,0.0,,0.0,-8.0,4.998,,,0.654,0.791,0.0,17.3,,,,,,0.0,2026-01-31 16:45:19-08:00
110.06,2.0,8.0,2026-02-01 00:47:09,37.08158,-121.59959,314.0,0.1,231.1,-12.6,,,,,00:47:08,10.7,-2.3,52.7,0.0,102.0,0.0,-0.04,1.0,,25.0,21.0,0.0,30.44,861.0,,,241.0,,,,,0.0,0.0,,,,,,,,,,,,,,,,,,,0.0,17.0,0.0,0.0,30.2,0.0,,0.0,0.0,,,37.4,0.0,0.0,-0.7,0.9,0.3,,,,,19.0,19.0,19.0,19.0,19.0,19.0,19.0,19.0,,,-5.0,0.0,,0.0,-8.0,4.998,,,0.654,0.791,0.0,17.3,,,,,,0.0,2026-01-31 16:45:19-08:00
111.06,2.0,8.0,2026-02-01 00:47:10,37.08158,-121.59959,314.0,0.1,231.1,-12.6,,,,,00:47:09,10.7,-2.3,52.8,0.0,102.0,0.0,-0.04,1.0,,22.0,21.0,0.0,30.44,861.0,,,241.0,,,,,0.0,0.0,,,,,,,,,,,,,,,,,,,0.0,17.0,0.0,0.0,30.2,0.0,,0.0,0.0,,,37.4,0.0,0.0,-0.7,0.9,0.3,,,,,19.0,19.0,19.0,19.0,19.0,19.0,19.0,19.0,,,-5.0,0.0,,0.0,-8.0,4.998,,,0.656,0.79,0.0,17.3,,,,,,0.0,2026-01-31 16:45:19-08:00
112.06,2.0,8.0,2026-02-01 00:47:11,37.08158,-121.59959,314.0,0.1,231.1,-12.6,,,,,00:47:10,10.8,-2.3,52.7,0.0,103.0,0.0,-0.04,1.0,,27.0,21.0,0.0,30.44,861.0,,,241.0,,,,,0.0,0.0,,,,,,,,,,,,,,,,,,,0.0,17.0,0.0,0.0,30.2,0.0,,0.0,0.0,,,37.4,0.0,0.0,-0.7,0.9,0.3,,,,,19.0,19.0,19.0,19.0,19.0,19.0,19.0,19.0,,,-5.0,0.0,,0.0,-8.0,4.998,,,0.656,0.784,0.0,17.3,,,,,,0.0,2026-01-31 16:45:19-08:00
113.06,2.0,8.0,2026-02-01 00:47:12,37.08158,-121.59959,314.0,0.0,231.1,-12.6,,,,,00:47:11,10.7,-2.3,52.7,0.0,103.0,-0.0,-0.04,1.0,,7.0,21.0,0.0,30.44,861.0,,,241.0,,,,,0.0,0.0,,,,,,,,,,,,,,,,,,,0.0,17.0,0.0,0.0,30.2,0.0,,0.0,0.0,,,37.4,0.0,0.0,-0.7,0.9,0.3,,,,,19.0,19.0,19.0,19.0,19.0,19.0,19.0,19.0,,,-5.0,0.0,,0.0,-8.0,4.998,,,0.654,0.781,0.0,17.3,,,,,,0.0,2026-01-31 16:45:19-08:00
114.06,2.0,8.0,2026-02-01 00:47:13,37.08158,-121.59959,316.0,0.1,231.1,-12.6,,,,,00:47:12,10.7,-2.4,52.6,0.0,103.0,-0.0,-0.04,1.0,,-5.0,21.0,0.0,30.44,862.0,,,241.0,,,,,0.0,0.0,,,,,,,,,,,,,,,,,,,0.0,17.0,0.0,0.0,30.2,0.0,,0.0,0.0,,,37.4,0.0,0.0,-0.7,0.9,0.3,,,,,19.0,19.0,19.0,19.0,19.0,19.0,19.0,19.0,,,-5.0,0.0,,0.0,-8.0,4.998,,,0.654,0.781,0.0,17.3,,,,,,0.0,2026-01-31 16:45:19-08:00
115.06,2.0,8.0,2026-02-01 00:47:14,37.08158,-121.59959,317.0,0.0,231.1,-12.6,,,,,00:47:13,10.8,-2.4,52.6,0.0,103.0,-0.0,-0.04,1.0,,5.0,21.0,0.0,30.44,862.0,,,241.0,,,,,0.0,0.0,,,,,,,,,,,,,,,,,,,0.0,17.0,0.0,0.0,30.2,0.0,,0.0,0.0,,,37.4,0.0,0.0,-0.7,0.9,0.3,,,,,19.0,19.0,19.0,19.0,19.0,19.0,19.0,19.0,,,-5.0,0.0,,0.0,-8.0,4.998,,,0.656,0.779,0.0,17.3,,,,,,0.0,2026-01-31 16:45:19-08:00
116.06,2.0,8.0,2026-02-01 00:47:15,37.08158,-121.59959,317.0,0.1,231.1,-12.6,,,,,00:47:14,10.7,-2.4,52.6,0.0,103.0,-0.0,-0.04,1.0,,-21.0,21.0,0.0,30.44,862.0,,,241.0,,,,,0.0,0.0,,,,,,,,,,,,,,,,,,,0.0,17.0,0.0,0.0,30.2,0.0,,0.0,0.0,,,37.4,0.0,0.0,-0.7,0.9,0.3,,,,,19.0,19.0,19.0,19.0,19.0,19.0,19.0,19.0,,,-5.0,0.0,,0.0,-8.0,4.998,,,0.654,0.78,0.0,17.3,,,,,,0.0,2026-01-31 16:45:19-08:00
117.06,2.0,8.0,2026-02-01 00:47:16,37.08158,-121.59959,317.0,0.1,231.1,-12.6,,,,,00:47:15,10.7,-2.4,52.6,0.0,103.0,-0.0,-0.04,1.0,,2.0,21.0,0.0,30.44,862.0,,,241.0,,,,,0.0,0.0,,,,,,,,,,,,,,,,,,,0.0,17.0,0.0,0.0,30.2,0.0,,0.0,0.0,,,37.4,0.0,0.0,-0.7,0.9,0.3,,,,,19.0,19.0,19.0,19.0,19.0,19.0,19.0,19.0,,,-5.0,0.0,,0.0,-8.0,4.998,,,0.656,0.779,0.0,17.3,,,,,,0.0,2026-01-31 16:45:19-08:00
118.06,2.0,8.0,2026-02-01 00:47:17,37.08158,-121.59959,318.0,0.1,231.1,-12.6,,,,,00:47:16,10.8,-2.4,52.6,0.0,103.0,-0.0,-0.04,1.0,,-18.0,21.0,0.0,30.44,862.0,,,241.0,,,,,0.0,0.0,,,,,,,,,,,,,,,,,,,0.0,17.0,0.0,0.0,30.2,0.0,,0.0,0.0,,,37.4,0.0,0.0,-0.7,0.9,0.3,,,,,19.0,19.0,18.0,19.0,19.0,19.0,19.0,19.0,,,-5.0,0.0,,0.0,-8.0,4.998,,,0.654,0.778,0.0,17.3,,,,,,0.0,2026-01-31 16:45:19-08:00
119.06,2.0,8.0,2026-02-01 00:47:18,37.08158,-121.59959,318.0,0.0,231.1,-12.6,,,,,00:47:17,10.8,-2.4,52.7,0.0,103.0,0.0,-0.04,1.0,,-8.0,21.0,0.0,30.44,862.0,,,241.0,,,,,0.0,0.0,,,,,,,,,,,,,,,,,,,0.0,17.0,0.0,0.0,30.2,0.0,,0.0,0.0,,,37.4,0.0,0.0,-0.7,0.9,0.3,,,,,19.0,19.0,19.0,19.0,19.0,19.0,19.0,19.0,,,-5.0,0.0,,0.0,-8.0,4.998,,,0.654,0.778,0.0,17.3,,,,,,0.0,2026-01-31 16:45:19-08:00
120.06,2.0,8.0,2026-02-01 00:47:19,37.0816,-121.5996,327.0,0.1,231.1,-12.6,,,,,00:47:18,10.8,-2.3,52.7,0.0,103.0,0.0,-0.04,1.0,,-29.0,21.0,0.0,30.44,863.0,,,241.0,,,,,0.0,0.0,,,,,,,,,,,,,,,,,,,0.0,17.0,0.0,0.0,30.2,0.0,,0.0,0.0,,,37.4,0.0,0.0,-0.7,0.9,0.3,,,,,18.0,19.0,18.0,19.0,19.0,19.0,19.0,19.0,,,-5.0,0.0,,0.0,-8.0,4.998,,,0.654,0.776,0.0,17.3,,,,,,0.0,2026-01-31 16:45:19-08:00
121.06,2.0,8.0,2026-02-01 00:47:20,37.0816,-121.5996,326.0,0.1,231.1,-12.6,,,,,00:47:19,10.8,-2.3,52.7,0.0,103.0,-0.0,-0.04,1.0,,-5.0,21.0,0.0,30.44,863.0,,,241.0,,,,,0.0,0.0,,,,,,,,,,,,,,,,,,,0.0,17.0,0.0,0.0,30.2,0.0,,0.0,0.0,,,37.4,0.0,0.0,-0.7,0.9,0.3,,,,,19.0,19.0,18.0,19.0,19.0,19.0,19.0,19.0,,,-5.0,0.0,,0.0,-8.0,4.998,,,0.656,0.776,0.0,17.3,,,,,,0.0,2026-01-31 16:45:19-08:00
122.06,2.0,8.0,2026-02-01 00:47:21,37.0816,-121.59961,326.0,0.0,231.1,-12.6,,,,,00:47:20,10.8,-2.3,52.7,0.0,103.0,0.0,-0.04,1.0,,16.0,21.0,0.0,30.44,863.0,,,241.0,,,,,0.0,0.0,,,,,,,,,,,,,,,,,,,0.0,17.0,0.0,0.0,30.2,0.0,,0.0,0.0,,,37.4,0.0,0.0,-0.7,0.9,0.3,,,,,18.0,19.0,18.0,19.0,19.0,19.0,19.0,19.0,,,-5.0,0.0,,0.0,-8.0,4.998,,,0.654,0.776,0.0,17.3,,,,,,0.0,2026-01-31 16:45:19-08:00
123.06,2.0,8.0,2026-02-01 00:47:22,37.0816,-121.59961,327.0,0.1,231.1,-12.6,,,,,00:47:21,10.8,-2.3,52.7,0.0,103.0,0.0,-0.04,1.0,,-3.0,21.0,0.0,30.44,862.0,,,241.0,,,,,0.0,0.0,,,,,,,,,,,,,,,,,,,0.0,17.0,0.0,0.0,30.2,0.0,,0.0,0.0,,,37.4,0.0,0.0,-0.7,0.9,0.3,,,,,18.0,19.0,18.0,19.0,19.0,19.0,19.0,19.0,,,-5.0,0.0,,0.0,-8.0,4.998,,,0.656,0.776,0.0,17.3,,,,,,0.0,2026-01-31 16:45:19-08:00
124.06,2.0,8.0,2026-02-01 00:47:23,37.0816,-121.59961,327.0,0.0,231.1,-12.6,,,,,00:47:22,10.7,-2.3,52.7,0.0,103.0,0.0,-0.04,1.0,,-15.0,21.0,0.0,30.44,863.0,,,241.0,,,,,0.0,0.0,,,,,,,,,,,,,,,,,,,0.0,17.0,0.0,0.0,30.2,0.0,,0.0,0.0,,,37.4,0.0,0.0,-0.7,0.9,0.3,,,,,19.0,19.0,18.0,19.0,19.0,19.0,19.0,19.0,,,-5.0,0.0,,0.0,-8.0,4.998,,,0.654,0.776,0.0,17.3,,,,,,0.0,2026-01-31 16:45:19-08:00
125.06,2.0,8.0,2026-02-01 00:47:24,37.0816,-121.59961,328.0,0.0,231.1,-12.6,,,,,00:47:23,10.7,-2.3,52.7,0.0,103.0,0.0,-0.04,1.0,,-11.0,21.0,0.0,30.44,863.0,,,241.0,,,,,0.0,0.0,,,,,,,,,,,,,,,,,,,0.0,17.0,0.0,0.0,30.2,0.0,,0.0,0.0,,,37.4,0.0,0.0,-0.7,0.9,0.3,,,,,18.0,19.0,18.0,19.0,19.0,19.0,19.0,19.0,,,-5.0,0.0,,0.0,-8.0,4.998,,,0.654,0.775,0.0,17.3,,,,,,0.0,2026-01-31 16:45:19-08:00
126.06,2.0,8.0,2026-02-01 00:47:25,37.0816,-121.59961,328.0,0.0,231.1,-12.6,,,,,00:47:24,10.7,-2.3,52.7,0.0,103.0,-0.0,-0.04,1.0,,12.0,21.0,0.0,30.44,863.0,,,241.0,,,,,0.0,0.0,,,,,,,,,,,,,,,,,,,0.0,17.0,0.0,0.0,30.2,0.0,,0.0,0.0,,,37.4,0.0,0.0,-0.7,0.9,0.3,,,,,18.0,19.0,19.0,19.0,19.0,19.0,19.0,19.0,,,-5.0,0.0,,0.0,-8.0,4.998,,,0.654,0.775,0.0,17.3,,,,,,0.0,2026-01-31 16:45:19-08:00
127.06,2.0,8.0,2026-02-01 00:47:26,37.0816,-121.59962,328.0,0.1,231.1,-12.6,,,,,00:47:25,10.7,-2.2,52.7,0.0,103.0,0.0,-0.04,1.0,,0.0,21.0,0.0,30.44,863.0,,,241.0,,,,,0.0,0.0,,,,,,,,,,,,,,,,,,,0.0,17.0,0.0,0.0,30.2,0.0,,0.0,0.0,,,37.4,0.0,0.0,-0.7,0.9,0.3,,,,,18.0,19.0,18.0,19.0,19.0,19.0,19.0,19.0,,,-5.0,0.0,,0.0,-8.0,4.998,,,0.654,0.775,0.0,17.3,,,,,,0.0,2026-01-31 16:45:19-08:00
128.06,2.0,8.0,2026-02-01 00:47:27,37.0816,-121.59962,328.0,0.1,231.1,-12.6,,,,,00:47:26,10.7,-2.3,52.7,0.0,103.0,-0.0,-0.04,1.0,,0.0,21.0,0.0,30.44,863.0,,,241.0,,,,,0.0,0.0,,,,,,,,,,,,,,,,,,,0.0,17.0,0.0,0.0,30.2,0.0,,0.0,0.0,,,37.4,0.0,0.0,-0.7,0.9,0.3,,,,,19.0,19.0,19.0,19.0,19.0,19.0,19.0,19.0,,,-5.0,0.0,,0.0,-8.0,4.998,,,0.656,0.775,0.0,17.3,,,,,,0.0,2026-01-31 16:45:19-08:00
129.06,2.0,8.0,2026-02-01 00:47:28,37.0816,-121.59962,328.0,0.1,231.1,-12.6,,,,,00:47:27,10.7,-2.2,52.8,0.0,103.0,0.0,-0.04,1.0,,52.0,21.0,0.0,30.44,863.0,,,241.0,,,,,0.0,0.0,,,,,,,,,,,,,,,,,,,0.0,17.0,0.0,0.0,30.2,0.0,,0.0,0.0,,,37.4,0.0,0.0,-0.7,0.9,0.3,,,,,18.0,19.0,18.0,19.0,19.0,19.0,19.0,19.0,,,-5.0,0.0,,0.0,-8.0,4.998,,,0.654,0.775,0.0,17.3,,,,,,0.0,2026-01-31 16:45:19-08:00
130.06,2.0,8.0,2026-02-01 00:47:29,37.0816,-121.59962,328.0,0.0,231.1,-12.6,,,,,00:47:28,10.7,-2.2,52.8,0.0,103.0,0.0,-0.04,1.0,,28.0,21.0,0.0,30.44,863.0,,,241.0,,,,,0.0,0.0,,,,,,,,,,,,,,,,,,,0.0,17.0,0.0,0.0,30.2,0.0,,0.0,0.0,,,37.4,0.0,0.0,-0.7,0.9,0.3,,,,,19.0,19.0,19.0,19.0,19.0,19.0,19.0,19.0,,,-5.0,0.0,,0.0,-8.0,4.998,,,0.654,0.775,0.0,17.3,,,,,,0.0,2026-01-31 16:45:19-08:00
131.06,2.0,8.0,2026-02-01 00:47:30,37.08161,-121.59962,328.0,0.0,231.1,-12.6,,,,,00:47:29,10.7,-2.2,52.8,0.0,103.0,0.0,-0.04,1.0,,1.0,21.0,0.0,30.44,863.0,,,241.0,,,,,0.0,0.0,,,,,,,,,,,,,,,,,,,0.0,17.0,0.0,0.0,30.2,0.0,,0.0,0.0,,,37.4,0.0,0.0,-0.7,0.9,0.3,,,,,19.0,19.0,19.0,19.0,19.0,19.0,19.0,19.0,,,-5.0,0.0,,0.0,-8.0,4.998,,,0.656,0.775,0.0,17.3,,,,,,0.0,2026-01-31 16:45:19-08:00
132.06,2.0,8.0,2026-02-01 00:47:31,37.08161,-121.59962,328.0,0.0,231.1,-12.6,,,,,00:47:30,10.7,-2.2,52.8,0.0,103.0,-0.0,-0.04,1.0,,11.0,21.0,0.0,30.44,863.0,,,241.0,,,,,0.0,0.0,,,,,,,,,,,,,,,,,,,0.0,17.0,0.0,0.0,30.2,0.0,,0.0,0.0,,,37.4,0.0,0.0,-0.7,0.9,0.3,,,,,19.0,19.0,19.0,19.0,19.0,19.0,19.0,19.0,,,-5.0,0.0,,0.0,-8.0,4.998,,,0.656,0.775,0.0,17.3,,,,,,0.0,2026-01-31 16:45:19-08:00
133.06,2.0,8.0,2026-02-01 00:47:32,37.0816,-121.59961,328.0,0.1,231.1,-12.6,,,,,00:47:31,10.7,-2.2,52.8,0.0,103.0,-0.0,-0.04,1.0,,-2.0,21.0,0.0,30.44,871.0,,,241.0,,,,,0.0,0.0,,,,,,,,,,,,,,,,,,,0.0,17.0,0.0,0.0,30.2,0.0,,0.0,0.0,,,37.4,0.0,0.0,-0.7,0.9,0.3,,,,,19.0,19.0,19.0,19.0,19.0,19.0,19.0,19.0,,,-5.0,0.0,,0.0,-8.0,4.998,,,0.656,0.775,0.0,17.3,,,,,,0.0,2026-01-31 16:45:19-08:00
134.06,2.0,8.0,2026-02-01 00:47:33,37.0816,-121.59961,327.0,0.1,231.1,-12.6,,,,,00:47:32,10.8,-2.2,52.8,0.0,103.0,-0.0,-0.04,1.0,,-19.0,21.0,0.0,30.44,871.0,,,241.0,,,,,0.0,0.0,,,,,,,,,,,,,,,,,,,0.0,17.0,0.0,0.0,30.2,0.0,,0.0,0.0,,,37.4,0.0,0.0,-0.7,0.9,0.3,,,,,19.0,19.0,19.0,19.0,19.0,19.0,19.0,19.0,,,-5.0,0.0,,0.0,-8.0,4.998,,,0.654,0.775,0.0,17.3,,,,,,0.0,2026-01-31 16:45:19-08:00
135.06,2.0,8.0,2026-02-01 00:47:34,37.0816,-121.59961,327.0,0.1,231.1,-12.6,,,,,00:47:33,10.7,-2.1,52.8,0.0,103.0,0.0,-0.04,1.0,,-12.0,21.0,0.0,30.44,871.0,,,241.0,,,,,0.0,0.0,,,,,,,,,,,,,,,,,,,0.0,17.0,0.0,0.0,30.2,0.0,,0.0,0.0,,,37.4,0.0,0.0,-0.7,0.9,0.3,,,,,19.0,19.0,19.0,19.0,19.0,19.0,19.0,19.0,,,-5.0,0.0,,0.0,-8.0,4.998,,,0.654,0.775,0.0,17.3,,,,,,0.0,2026-01-31 16:45:19-08:00
136.06,2.0,8.0,2026-02-01 00:47:35,37.0816,-121.59961,327.0,0.1,231.1,-12.6,,,,,00:47:34,10.7,-2.2,52.8,0.0,103.0,-0.0,-0.04,1.0,,3.0,21.0,0.0,30.44,863.0,,,241.0,,,,,0.0,0.0,,,,,,,,,,,,,,,,,,,0.0,17.0,0.0,0.0,30.2,0.0,,0.0,0.0,,,37.4,0.0,0.0,-0.7,0.9,0.3,,,,,19.0,19.0,19.0,19.0,19.0,19.0,19.0,19.0,,,-5.0,0.0,,0.0,-8.0,4.998,,,0.654,0.775,0.0,17.3,,,,,,0.0,2026-01-31 16:45:19-08:00
137.06,2.0,8.0,2026-02-01 00:47:36,37.0816,-121.59962,327.0,0.0,231.1,-12.6,,,,,00:47:35,10.8,-2.2,52.7,0.0,103.0,-0.0,-0.04,1.0,,-25.0,21.0,0.0,30.44,863.0,,,241.0,,,,,0.0,0.0,,,,,,,,,,,,,,,,,,,0.0,17.0,0.0,0.0,30.2,0.0,,0.0,0.0,,,37.4,0.0,0.0,-0.7,0.9,0.3,,,,,19.0,19.0,19.0,19.0,19.0,19.0,19.0,19.0,,,-5.0,0.0,,0.0,-8.0,4.998,,,0.656,0.775,0.0,17.3,,,,,,0.0,2026-01-31 16:45:19-08:00
138.06,2.0,8.0,2026-02-01 00:47:37,37.0816,-121.59962,328.0,0.0,231.1,-12.6,,,,,00:47:36,10.7,-2.2,52.7,0.0,103.0,-0.0,-0.04,1.0,,-1.0,21.0,0.0,30.44,863.0,,,241.0,,,,,0.0,0.0,,,,,,,,,,,,,,,,,,,0.0,17.0,0.0,0.0,30.2,0.0,,0.0,0.0,,,37.4,0.0,0.0,-0.7,0.9,0.3,,,,,19.0,19.0,19.0,19.0,19.0,19.0,19.0,19.0,,,-5.0,0.0,,0.0,-8.0,4.998,,,0.654,0.775,0.0,17.3,,,,,,0.0,2026-01-31 16:45:19-08:00
139.06,2.0,8.0,2026-02-01 00:47:38,37.0816,-121.59962,328.0,0.0,231.1,-12.6,,,,,00:47:37,10.8,-2.2,52.7,0.0,103.0,-0.0,-0.04,1.0,,-20.0,21.0,0.0,30.44,872.0,,,241.0,,,,,0.0,0.0,,,,,,,,,,,,,,,,,,,0.0,17.0,0.0,0.0,30.2,0.0,,0.0,0.0,,,37.4,0.0,0.0,-0.7,0.9,0.3,,,,,19.0,19.0,19.0,19.0,19.0,19.0,19.0,19.0,,,-5.0,0.0,,0.0,-8.0,4.998,,,0.654,0.775,0.0,17.3,,,,,,0.0,2026-01-31 16:45:19-08:00
140.06,2.0,8.0,2026-02-01 00:47:39,37.0816,-121.59962,328.0,0.1,231.1,-12.6,,,,,00:47:38,10.7,-2.2,52.8,0.0,103.0,0.0,-0.04,1.0,,27.0,21.0,0.0,30.44,871.0,,,241.0,,,,,0.0,0.0,,,,,,,,,,,,,,,,,,,0.0,17.0,0.0,0.0,30.2,0.0,,0.0,0.0,,,37.4,0.0,0.0,-0.7,0.9,0.3,,,,,19.0,19.0,19.0,19.0,19.0,19.0,19.0,19.0,,,-5.0,0.0,,0.0,-8.0,4.998,,,0.654,0.775,0.0,17.3,,,,,,0.0,2026-01-31 16:45:19-08:00
141.06,2.0,8.0,2026-02-01 00:47:40,37.0816,-121.59962,328.0,0.4,231.1,-12.6,,,,,00:47:39,10.8,-2.2,52.8,0.0,103.0,0.0,-0.04,1.0,,25.0,21.0,0.0,30.44,871.0,,,241.0,,,,,0.0,0.0,,,,,,,,,,,,,,,,,,,0.0,17.0,0.0,0.0,30.2,0.0,,0.0,0.0,,,37.4,0.0,0.0,-0.7,0.9,0.3,,,,,19.0,19.0,19.0,19.0,19.0,19.0,19.0,19.0,,,-5.0,0.0,,0.0,-8.0,4.998,,,0.654,0.775,0.0,17.3,,,,,,0.0,2026-01-31 16:45:19-08:00
142.06,2.0,8.0,2026-02-01 00:47:41,37.0816,-121.59962,329.0,0.1,231.1,-12.6,,,,,00:47:40,10.8,-2.2,52.7,0.0,103.0,-0.0,-0.04,1.0,,28.0,21.0,0.0,30.44,871.0,,,241.0,,,,,0.0,0.0,,,,,,,,,,,,,,,,,,,0.0,17.0,0.0,0.0,30.2,0.0,,0.0,0.0,,,37.4,0.0,0.0,-0.7,0.9,0.3,,,,,19.0,19.0,19.0,19.0,19.0,19.0,19.0,19.0,,,-5.0,0.0,,0.0,-8.0,4.998,,,0.654,0.775,0.0,17.3,,,,,,0.0,2026-01-31 16:45:19-08:00
143.06,2.0,8.0,2026-02-01 00:47:42,37.08161,-121.59962,329.0,0.1,231.1,-12.6,,,,,00:47:41,10.8,-2.2,52.7,0.0,103.0,0.0,-0.04,1.0,,51.0,21.0,0.0,30.44,873.0,,,241.0,,,,,0.0,0.0,,,,,,,,,,,,,,,,,,,0.0,17.0,0.0,0.0,30.2,0.0,,0.0,0.0,,,37.4,0.0,0.0,-0.7,0.9,0.3,,,,,19.0,19.0,19.0,19.0,19.0,19.0,19.0,19.0,,,-5.0,0.0,,0.0,-8.0,4.998,,,0.654,0.775,0.0,17.3,,,,,,0.0,2026-01-31 16:45:19-08:00
144.06,2.0,8.0,2026-02-01 00:47:43,37.08161,-121.59962,329.0,0.1,231.1,-12.6,,,,,00:47:42,10.8,-2.2,52.8,0.0,104.0,0.0,-0.04,1.0,,26.0,21.0,0.0,30.44,873.0,,,241.0,,,,,0.0,0.0,,,,,,,,,,,,,,,,,,,0.0,17.0,0.0,0.0,30.2,0.0,,0.0,0.0,,,37.4,0.0,0.0,-0.7,0.9,0.3,,,,,19.0,19.0,19.0,19.0,19.0,19.0,19.0,19.0,,,-5.0,0.0,,0.0,-8.0,4.998,,,0.654,0.775,0.0,17.3,,,,,,0.0,2026-01-31 16:45:19-08:00
145.06,2.0,8.0,2026-02-01 00:47:44,37.0816,-121.59961,329.0,0.0,231.1,-12.6,,,,,00:47:43,10.8,-2.2,52.8,0.0,104.0,0.0,-0.04,1.0,,2.0,21.0,0.0,30.44,873.0,,,241.0,,,,,0.0,0.0,,,,,,,,,,,,,,,,,,,0.0,17.0,0.0,0.0,30.2,0.0,,0.0,0.0,,,37.4,0.0,0.0,-0.7,0.9,0.3,,,,,19.0,19.0,19.0,19.0,19.0,19.0,19.0,19.0,,,-5.0,0.0,,0.0,-8.0,4.998,,,0.654,0.776,0.0,17.3,,,,,,0.0,2026-01-31 16:45:19-08:00
146.06,2.0,8.0,2026-02-01 00:47:45,37.0816,-121.59961,329.0,0.0,231.1,-12.6,,,,,00:47:44,10.7,-2.1,52.8,0.0,104.0,-0.0,-0.04,1.0,,8.0,21.0,0.0,30.44,874.0,,,241.0,,,,,0.0,0.0,,,,,,,,,,,,,,,,,,,0.0,17.0,0.0,0.0,30.2,0.0,,0.0,0.0,,,37.4,0.0,0.0,-0.7,0.9,0.3,,,,,19.0,19.0,19.0,19.0,19.0,19.0,19.0,19.0,,,-5.0,0.0,,0.0,-8.0,4.998,,,0.654,0.776,0.0,17.3,,,,,,0.0,2026-01-31 16:45:19-08:00
147.06,2.0,8.0,2026-02-01 00:47:46,37.0816,-121.59961,329.0,0.0,231.1,-12.6,,,,,00:47:45,10.8,-2.1,52.8,0.0,104.0,-0.0,-0.04,1.0,,28.0,21.0,0.0,30.44,874.0,,,241.0,,,,,0.0,0.0,,,,,,,,,,,,,,,,,,,0.0,17.0,0.0,0.0,30.2,0.0,,0.0,0.0,,,37.4,0.0,0.0,-0.7,0.9,0.3,,,,,19.0,19.0,19.0,19.0,19.0,19.0,19.0,19.0,,,-5.0,0.0,,0.0,-8.0,4.998,,,0.654,0.776,0.0,17.3,,,,,,0.0,2026-01-31 16:45:19-08:00
148.06,2.0,8.0,2026-02-01 00:47:47,37.0816,-121.59961,329.0,0.0,231.1,-12.6,,,,,00:47:46,10.8,-2.2,52.8,0.0,105.0,0.0,-0.04,1.0,,-2.0,21.0,0.0,30.44,874.0,,,241.0,,,,,0.0,0.0,,,,,,,,,,,,,,,,,,,0.0,17.0,0.0,0.0,30.2,0.0,,0.0,0.0,,,37.4,0.0,0.0,-0.7,0.9,0.3,,,,,19.0,19.0,19.0,19.0,19.0,19.0,19.0,20.0,,,-5.0,0.0,,0.0,-8.0,4.998,,,0.654,0.778,0.0,17.3,,,,,,0.0,2026-01-31 16:45:19-08:00
149.06,2.0,8.0,2026-02-01 00:47:48,37.08161,-121.59962,329.0,0.1,231.1,-12.6,,,,,00:47:47,10.8,-2.2,52.8,0.0,105.0,0.0,-0.04,1.0,,-5.0,21.0,0.0,30.44,875.0,,,241.0,,,,,0.0,0.0,,,,,,,,,,,,,,,,,,,0.0,17.0,0.0,0.0,30.2,0.0,,0.0,0.0,,,37.4,0.0,0.0,-0.7,0.9,0.3,,,,,19.0,19.0,19.0,19.0,19.0,19.0,19.0,20.0,,,-5.0,0.0,,0.0,-8.0,4.998,,,0.656,0.778,0.0,17.3,,,,,,0.0,2026-01-31 16:45:19-08:00
