Session Time,GPS Fix Quality,Number of Satellites,GPS Date & Time,Latitude (deg),Longitude (deg),GPS Altitude (feet),Ground Speed (knots),Ground Track (deg),Mag Var (deg),Cross Track Error (NM),Destination Waypoint ID,Range to Destination (NM),Bearing to Destination (deg),System Time,Pitch (deg),Roll (deg),Magnetic Heading (deg),Indicated Airspeed (knots),Pressure Altitude (ft),Turn Rate (deg/s),Lateral Accel (g),Vertical Accel(g),Angle of Attack (%),Vertical Speed (ft/min),OAT (deg C),True Airspeed (knots),Barometer Setting (inHg),Density Altitude (ft),Wind Direction (deg),Wind Speed (knots),Heading Bug (deg),Altitude Bug (ft),Airspeed Bug (knots),Vertical Speed Bug (ft/min),Course (deg),CDI Source Type,CDI Source Port,CDI Scale (NM),CDI Deflection (%),Glideslope (%),AP Engaged,AP Roll Mode,AP Roll Force,AP Roll Position (steps),AP Roll Slip (bool),AP Pitch Force,AP Pitch Position (steps),AP Pitch Slip (bool),AP Yaw Force,AP Yaw Position,AP Yaw Slip (bool),Transponder Status,Transponder Reply (bool),Transponder Identing (bool),Transponder Code (octal),Oil Pressure (PSI),Oil Temp (deg C),RPM L,RPM R,Manifold Pressure (inHg),Fuel Flow 1 (gal/hr),Fuel Flow 2 (gal/hr),Total Fuel Flow (gal/hr),Fuel Pressure (PSI),Fuel Level L (gal),Fuel Level R (gal),Fuel Remaining (gal),Volts 1,Volts 2,Amps,Hobbs Time,Tach Time,Thermocouple 1 (deg C),Thermocouple 2 (deg C),Thermocouple 3 (deg C),Thermocouple 4 (deg C),CHT 4 (deg C),EGT 4 (deg C),CHT 3 (deg C),EGT 3 (deg C),CHT 2 (deg C),EGT 2 (deg C),CHT 1 (deg C),EGT 1 (deg C),Thermocouple 13 (deg C),Thermocouple 14 (deg C),ELEV POSITION (%),CO PPM PRESSURE (PSI),GP Input 3,FUEL PRESSURE (PSI),AILERN POSITION (%),CANOPY CONTACT (V),GP Input 7,GP Input 8,LEFT LEVEL (Sensor V),RIGHT LEVEL (Sensor V),OIL PRESSURE (PSI),OIL TEMPERATURE (deg C),GP Input 13,Contacts,Percent Power,EGT Leaning State,Unnamed: 103,OAT (deg F),Oil Temp (deg F),Thermocouple 1 (deg F),Thermocouple 2 (deg F),Thermocouple 3 (deg F),Thermocouple 4 (deg F),CHT 4 (deg F),EGT 4 (deg F),CHT 3 (deg F),EGT 3 (deg F),CHT 2 (deg F),EGT 2 (deg F),CHT 1 (deg F),EGT 1 (deg F),Thermocouple 13 (deg F),Thermocouple 14 (deg F),OIL TEMPERATURE (deg F),RPM,AVG_CHT,CHT_Delta_T,OIL_Delta_T,Fuel Flow Integral,Distance Traveled,MPG,Max CHT,Engine Run,Flight ID
5.06,1,5,2026-05-20 21:26:46,37.08162,-121.59956,354.0,0.3,336.1,-12.6,0.0,0.0,0.0,0.0,0.0,10.5,-0.6,0.5,0.0,332.0,-0.0,-0.01,1.0,99.0,-87.0,35.0,0.0,29.95,2768.0,0.0,0.0,319.0,0.0,0.0,0.0,0.0,0.0,0.0,0.0,0.0,0.0,0.0,0.0,0.0,0.0,0.0,0.0,0.0,0.0,0.0,0.0,0.0,0.0,0.0,0.0,0.0,0.0,27.0,0.0,0.0,29.9,0.0,0.0,0.0,1.2,0.0,0.0,32.6,0.0,0.0,-0.0,15.5,12.8,0.0,0.0,0.0,0.0,29.0,30.0,29.0,30.0,29.0,31.0,29.0,31.0,0.0,0.0,8.0,254.1,0.0,1.2,1.0,4.998,0.0,0.0,0.653,0.939,0.0,27.4,0.0,0.0,0.0,,0.0,95.0,80.6,0.0,0.0,0.0,0.0,84.2,86.0,84.2,86.0,84.2,87.8,84.2,87.8,0.0,0.0,81.32,0.0,84.2,-10.799999999999997,-13.680000000000007,0.0,0.0,0.0,395.6,True,2026-05-20 14:26:46-07:00
6.06,1,7,2026-05-20 21:26:47,37.08159,-121.59961,384.0,0.0,336.1,-12.6,0.0,0.0,0.0,0.0,0.0,10.6,-0.6,0.5,0.0,329.0,-0.0,-0.01,1.0,99.0,-121.0,35.0,0.0,29.95,2768.0,0.0,0.0,319.0,0.0,0.0,0.0,0.0,0.0,0.0,0.0,0.0,0.0,0.0,0.0,0.0,0.0,0.0,0.0,0.0,0.0,0.0,0.0,0.0,0.0,0.0,0.0,0.0,0.0,27.0,0.0,0.0,29.9,0.0,0.0,0.0,1.2,0.0,0.0,32.6,0.0,0.0,-0.1,15.5,12.8,0.0,0.0,0.0,0.0,29.0,30.0,29.0,30.0,29.0,31.0,29.0,31.0,0.0,0.0,8.0,254.1,0.0,1.2,1.0,4.998,0.0,0.0,0.653,0.928,0.0,27.4,0.0,0.0,0.0,,0.0,95.0,80.6,0.0,0.0,0.0,0.0,84.2,86.0,84.2,86.0,84.2,87.8,84.2,87.8,0.0,0.0,81.32,0.0,84.2,-10.799999999999997,-13.680000000000007,0.0,0.253,0.0,395.6,True,2026-05-20 14:26:46-07:00
7.06,1,9,2026-05-20 21:26:48,37.08168,-121.59957,410.0,0.0,336.1,-12.6,0.0,0.0,0.0,0.0,0.0,10.6,-0.6,0.5,0.0,328.0,-0.0,-0.01,1.0,99.0,-107.0,35.0,0.0,29.95,2765.0,0.0,0.0,319.0,0.0,0.0,0.0,0.0,0.0,0.0,0.0,0.0,0.0,0.0,0.0,0.0,0.0,0.0,0.0,0.0,0.0,0.0,0.0,0.0,0.0,0.0,0.0,0.0,0.0,27.0,0.0,0.0,29.9,0.0,0.0,0.0,1.2,0.0,0.0,32.6,0.0,0.0,-0.1,15.5,12.8,0.0,0.0,0.0,0.0,29.0,31.0,29.0,31.0,29.0,31.0,29.0,31.0,0.0,0.0,8.0,254.1,0.0,1.2,1.0,4.998,0.0,0.0,0.653,0.928,0.0,27.4,0.0,0.0,0.0,,0.0,95.0,80.6,0.0,0.0,0.0,0.0,84.2,87.8,84.2,87.8,84.2,87.8,84.2,87.8,0.0,0.0,81.32,0.0,84.2,-10.799999999999997,-13.680000000000007,0.0,0.253,0.0,395.6,True,2026-05-20 14:26:46-07:00
8.06,1,9,2026-05-20 21:26:49,37.08168,-121.59957,409.0,0.0,336.1,-12.6,0.0,0.0,0.0,0.0,0.0,10.5,-0.6,0.5,0.0,327.0,-0.0,-0.01,1.0,99.0,-88.0,35.0,0.0,29.95,2765.0,0.0,0.0,319.0,0.0,0.0,0.0,0.0,0.0,0.0,0.0,0.0,0.0,0.0,0.0,0.0,0.0,0.0,0.0,0.0,0.0,0.0,0.0,0.0,0.0,0.0,0.0,0.0,0.0,27.0,0.0,0.0,29.9,0.0,0.0,0.0,1.2,0.0,0.0,32.6,0.0,0.0,-0.1,15.5,12.8,0.0,0.0,0.0,0.0,29.0,31.0,29.0,31.0,29.0,31.0,29.0,31.0,0.0,0.0,8.0,254.1,0.0,1.2,1.0,4.998,0.0,0.0,0.653,0.924,0.0,27.4,0.0,0.0,0.0,,0.0,95.0,80.6,0.0,0.0,0.0,0.0,84.2,87.8,84.2,87.8,84.2,87.8,84.2,87.8,0.0,0.0,81.32,0.0,84.2,-10.799999999999997,-13.680000000000007,0.0,0.253,0.0,395.6,True,2026-05-20 14:26:46-07:00
9.06,1,9,2026-05-20 21:26:50,37.08168,-121.59957,408.0,0.0,336.1,-12.6,0.0,0.0,0.0,0.0,0.0,10.5,-0.6,0.4,0.0,327.0,-0.0,-0.01,1.0,99.0,-59.0,35.0,0.0,29.95,2765.0,0.0,0.0,319.0,0.0,0.0,0.0,0.0,0.0,0.0,0.0,0.0,0.0,0.0,0.0,0.0,0.0,0.0,0.0,0.0,0.0,0.0,0.0,0.0,0.0,0.0,0.0,0.0,0.0,27.0,0.0,0.0,29.9,0.0,0.0,0.0,1.2,0.0,0.0,32.6,0.0,0.0,-0.1,15.5,12.8,0.0,0.0,0.0,0.0,29.0,31.0,29.0,31.0,29.0,31.0,29.0,31.0,0.0,0.0,8.0,254.1,0.0,1.2,1.0,4.998,0.0,0.0,0.653,0.927,0.0,27.4,0.0,0.0,0.0,,0.0,95.0,80.6,0.0,0.0,0.0,0.0,84.2,87.8,84.2,87.8,84.2,87.8,84.2,87.8,0.0,0.0,81.32,0.0,84.2,-10.799999999999997,-13.680000000000007,0.0,0.253,0.0,395.6,True,2026-05-20 14:26:46-07:00
10.06,1,9,2026-05-20 21:26:51,37.08168,-121.59957,407.0,0.0,336.1,-12.6,0.0,0.0,0.0,0.0,0.0,10.6,-0.6,0.4,0.0,326.0,-0.1,-0.01,1.0,99.0,-52.0,35.0,0.0,29.95,2772.0,0.0,0.0,319.0,0.0,0.0,0.0,0.0,0.0,0.0,0.0,0.0,0.0,0.0,0.0,0.0,0.0,0.0,0.0,0.0,0.0,0.0,0.0,0.0,0.0,0.0,0.0,0.0,0.0,27.0,0.0,0.0,29.9,0.0,0.0,0.0,1.2,0.0,0.0,32.6,0.0,0.0,-0.1,15.5,12.8,0.0,0.0,0.0,0.0,29.0,31.0,29.0,31.0,29.0,31.0,29.0,31.0,0.0,0.0,8.0,254.1,0.0,1.2,1.0,4.998,0.0,0.0,0.653,0.925,0.0,27.4,0.0,0.0,0.0,,0.0,95.0,80.6,0.0,0.0,0.0,0.0,84.2,87.8,84.2,87.8,84.2,87.8,84.2,87.8,0.0,0.0,81.32,0.0,84.2,-10.799999999999997,-13.680000000000007,0.0,0.253,0.0,395.6,True,2026-05-20 14:26:46-07:00
11.06,1,9,2026-05-20 21:26:52,37.08168,-121.59957,406.0,0.0,336.1,-12.6,0.0,0.0,0.0,0.0,0.0,10.6,-0.7,0.4,0.0,326.0,-0.1,-0.01,1.0,99.0,-56.0,35.0,0.0,29.95,2772.0,0.0,0.0,319.0,0.0,0.0,0.0,0.0,0.0,0.0,0.0,0.0,0.0,0.0,0.0,0.0,0.0,0.0,0.0,0.0,0.0,0.0,0.0,0.0,0.0,0.0,0.0,0.0,0.0,27.0,0.0,0.0,29.9,0.0,0.0,0.0,1.2,0.0,0.0,32.6,0.0,0.0,-0.1,15.5,12.8,0.0,0.0,0.0,0.0,29.0,31.0,29.0,31.0,29.0,31.0,29.0,31.0,0.0,0.0,8.0,254.1,0.0,1.2,1.0,4.998,0.0,0.0,0.654,0.927,0.0,27.4,0.0,0.0,0.0,,0.0,95.0,80.6,0.0,0.0,0.0,0.0,84.2,87.8,84.2,87.8,84.2,87.8,84.2,87.8,0.0,0.0,81.32,0.0,84.2,-10.799999999999997,-13.680000000000007,0.0,0.253,0.0,395.6,True,2026-05-20 14:26:46-07:00
12.06,1,9,2026-05-20 21:26:53,37.08168,-121.59957,405.0,0.0,336.1,-12.6,0.0,0.0,0.0,0.0,0.0,10.6,-0.7,0.3,0.0,324.0,-0.1,-0.01,1.0,99.0,-56.0,35.0,0.0,29.95,2772.0,0.0,0.0,319.0,0.0,0.0,0.0,0.0,0.0,0.0,0.0,0.0,0.0,0.0,0.0,0.0,0.0,0.0,0.0,0.0,0.0,0.0,0.0,0.0,0.0,0.0,0.0,0.0,0.0,27.0,0.0,0.0,29.9,0.0,0.0,0.0,1.2,0.0,0.0,32.6,0.0,0.0,-0.1,15.5,12.8,0.0,0.0,0.0,0.0,29.0,31.0,29.0,31.0,29.0,31.0,29.0,31.0,0.0,0.0,8.0,254.1,0.0,1.2,1.0,4.998,0.0,0.0,0.653,0.929,0.0,27.4,0.0,0.0,0.0,,0.0,95.0,80.6,0.0,0.0,0.0,0.0,84.2,87.8,84.2,87.8,84.2,87.8,84.2,87.8,0.0,0.0,81.32,0.0,84.2,-10.799999999999997,-13.680000000000007,0.0,0.253,0.0,395.6,True,2026-05-20 14:26:46-07:00
13.06,1,9,2026-05-20 21:26:54,37.08168,-121.59958,404.0,0.0,336.1,-12.6,0.0,0.0,0.0,0.0,0.0,10.6,-0.7,0.4,0.0,324.0,-0.0,-0.01,1.0,99.0,-46.0,35.0,0.0,29.95,2769.0,0.0,0.0,319.0,0.0,0.0,0.0,0.0,0.0,0.0,0.0,0.0,0.0,0.0,0.0,0.0,0.0,0.0,0.0,0.0,0.0,0.0,0.0,0.0,0.0,0.0,0.0,0.0,0.0,27.0,0.0,0.0,29.9,0.0,0.0,0.0,1.2,0.0,0.0,32.6,0.0,0.0,-0.1,15.5,12.8,0.0,0.0,0.0,0.0,29.0,31.0,29.0,31.0,29.0,31.0,29.0,31.0,0.0,0.0,8.0,254.1,0.0,1.2,1.0,4.998,0.0,0.0,0.653,0.927,0.0,27.3,0.0,0.0,0.0,,0.0,95.0,80.6,0.0,0.0,0.0,0.0,84.2,87.8,84.2,87.8,84.2,87.8,84.2,87.8,0.0,0.0,81.14,0.0,84.2,-10.799999999999997,-13.86,0.0,0.253,0.0,395.6,True,2026-05-20 14:26:46-07:00
14.06,1,9,2026-05-20 21:26:55,37.08168,-121.59958,403.0,0.0,336.1,-12.6,0.0,0.0,0.0,0.0,0.0,10.6,-0.6,0.4,0.0,324.0,-0.0,-0.01,1.0,99.0,-38.0,35.0,0.0,29.95,2769.0,0.0,0.0,319.0,0.0,0.0,0.0,0.0,0.0,0.0,0.0,0.0,0.0,0.0,0.0,0.0,0.0,0.0,0.0,0.0,0.0,0.0,0.0,0.0,0.0,0.0,0.0,0.0,0.0,27.0,0.0,0.0,29.9,0.0,0.0,0.0,1.2,0.0,0.0,32.6,0.0,0.0,-0.1,15.5,12.8,0.0,0.0,0.0,0.0,29.0,31.0,29.0,31.0,29.0,31.0,29.0,31.0,0.0,0.0,8.0,254.1,0.0,1.2,1.0,4.998,0.0,0.0,0.654,0.928,0.0,27.4,0.0,0.0,0.0,,0.0,95.0,80.6,0.0,0.0,0.0,0.0,84.2,87.8,84.2,87.8,84.2,87.8,84.2,87.8,0.0,0.0,81.32,0.0,84.2,-10.799999999999997,-13.680000000000007,0.0,0.253,0.0,395.6,True,2026-05-20 14:26:46-07:00
15.06,1,9,2026-05-20 21:26:56,37.08168,-121.59958,403.0,0.1,336.1,-12.6,0.0,0.0,0.0,0.0,0.0,10.6,-0.6,0.5,0.0,322.0,-0.0,-0.01,1.0,99.0,-75.0,35.0,0.0,29.95,2769.0,0.0,0.0,319.0,0.0,0.0,0.0,0.0,0.0,0.0,0.0,0.0,0.0,0.0,0.0,0.0,0.0,0.0,0.0,0.0,0.0,0.0,0.0,0.0,0.0,0.0,0.0,0.0,0.0,27.0,0.0,0.0,29.9,0.0,0.0,0.0,1.2,0.0,0.0,32.6,0.0,0.0,-0.1,15.5,12.8,0.0,0.0,0.0,0.0,29.0,31.0,29.0,31.0,29.0,31.0,29.0,31.0,0.0,0.0,8.0,254.1,0.0,1.2,1.0,4.998,0.0,0.0,0.653,0.927,0.0,27.3,0.0,0.0,0.0,,0.0,95.0,80.6,0.0,0.0,0.0,0.0,84.2,87.8,84.2,87.8,84.2,87.8,84.2,87.8,0.0,0.0,81.14,0.0,84.2,-10.799999999999997,-13.86,0.0,0.3373333333333333,0.0,395.6,True,2026-05-20 14:26:46-07:00
16.06,1,9,2026-05-20 21:26:57,37.08168,-121.59958,402.0,0.0,336.1,-12.6,0.0,0.0,0.0,0.0,0.0,10.5,-0.6,0.5,0.0,322.0,-0.0,-0.01,1.0,99.0,-53.0,35.0,0.0,29.95,2767.0,0.0,0.0,319.0,0.0,0.0,0.0,0.0,0.0,0.0,0.0,0.0,0.0,0.0,0.0,0.0,0.0,0.0,0.0,0.0,0.0,0.0,0.0,0.0,0.0,0.0,0.0,0.0,0.0,27.0,0.0,0.0,29.9,0.0,0.0,0.0,1.2,0.0,0.0,32.6,0.0,0.0,-0.1,15.5,12.8,0.0,0.0,0.0,0.0,29.0,31.0,29.0,31.0,29.0,31.0,29.0,31.0,0.0,0.0,8.0,254.1,0.0,1.2,1.0,4.998,0.0,0.0,0.653,0.928,0.0,27.4,0.0,0.0,0.0,,0.0,95.0,80.6,0.0,0.0,0.0,0.0,84.2,87.8,84.2,87.8,84.2,87.8,84.2,87.8,0.0,0.0,81.32,0.0,84.2,-10.799999999999997,-13.680000000000007,0.0,0.4216666666666665,0.0,395.6,True,2026-05-20 14:26:46-07:00
17.06,1,9,2026-05-20 21:26:58,37.08168,-121.59959,401.0,0.0,336.1,-12.6,0.0,0.0,0.0,0.0,0.0,10.6,-0.5,0.5,0.0,322.0,-0.0,-0.01,1.0,99.0,-54.0,35.0,0.0,29.95,2768.0,0.0,0.0,319.0,0.0,0.0,0.0,0.0,0.0,0.0,0.0,0.0,0.0,0.0,0.0,0.0,0.0,0.0,0.0,0.0,0.0,0.0,0.0,0.0,0.0,0.0,0.0,0.0,0.0,27.0,0.0,0.0,29.9,0.0,0.0,0.0,1.2,0.0,0.0,32.6,0.0,0.0,-0.1,15.5,12.8,0.0,0.0,0.0,0.0,29.0,31.0,29.0,31.0,29.0,31.0,29.0,31.0,0.0,0.0,8.0,254.1,0.0,1.2,1.0,4.998,0.0,0.0,0.653,0.929,0.0,27.3,0.0,0.0,0.0,,0.0,95.0,80.6,0.0,0.0,0.0,0.0,84.2,87.8,84.2,87.8,84.2,87.8,84.2,87.8,0.0,0.0,81.14,0.0,84.2,-10.799999999999997,-13.86,0.0,0.4216666666666665,0.0,395.6,True,2026-05-20 14:26:46-07:00
18.06,1,9,2026-05-20 21:26:59,37.08168,-121.59959,399.0,0.1,336.1,-12.6,0.0,0.0,0.0,0.0,0.0,10.6,-0.5,0.5,0.0,322.0,-0.0,-0.01,1.0,99.0,-8.0,35.0,0.0,29.95,2768.0,0.0,0.0,319.0,0.0,0.0,0.0,0.0,0.0,0.0,0.0,0.0,0.0,0.0,0.0,0.0,0.0,0.0,0.0,0.0,0.0,0.0,0.0,0.0,0.0,0.0,0.0,0.0,0.0,27.0,0.0,0.0,29.9,0.0,0.0,0.0,1.2,0.0,0.0,32.6,0.0,0.0,-0.1,15.5,12.8,0.0,0.0,0.0,0.0,29.0,31.0,29.0,31.0,29.0,31.0,29.0,31.0,0.0,0.0,8.0,254.1,0.0,1.2,1.0,4.998,0.0,0.0,0.653,0.931,0.0,27.3,0.0,0.0,0.0,,0.0,95.0,80.6,0.0,0.0,0.0,0.0,84.2,87.8,84.2,87.8,84.2,87.8,84.2,87.8,0.0,0.0,81.14,0.0,84.2,-10.799999999999997,-13.86,0.0,0.5059999999999998,0.0,395.6,True,2026-05-20 14:26:46-07:00
19.06,1,9,2026-05-20 21:27:00,37.08168,-121.59959,398.0,0.0,336.1,-12.6,0.0,0.0,0.0,0.0,0.0,10.6,-0.6,0.5,0.0,322.0,-0.0,-0.01,1.0,99.0,7.0,35.0,0.0,29.95,2768.0,0.0,0.0,319.0,0.0,0.0,0.0,0.0,0.0,0.0,0.0,0.0,0.0,0.0,0.0,0.0,0.0,0.0,0.0,0.0,0.0,0.0,0.0,0.0,0.0,0.0,0.0,0.0,0.0,27.0,0.0,0.0,29.9,0.0,0.0,0.0,1.2,0.0,0.0,32.6,0.0,0.0,-0.1,15.5,12.8,0.0,0.0,0.0,0.0,29.0,31.0,29.0,31.0,29.0,31.0,29.0,31.0,0.0,0.0,8.0,254.1,0.0,1.2,1.0,4.998,0.0,0.0,0.654,0.934,0.0,27.4,0.0,0.0,0.0,,0.0,95.0,80.6,0.0,0.0,0.0,0.0,84.2,87.8,84.2,87.8,84.2,87.8,84.2,87.8,0.0,0.0,81.32,0.0,84.2,-10.799999999999997,-13.680000000000007,0.0,0.5903333333333332,0.0,395.6,True,2026-05-20 14:26:46-07:00
20.06,1,9,2026-05-20 21:27:01,37.08168,-121.59959,397.0,0.0,336.1,-12.6,0.0,0.0,0.0,0.0,0.0,10.6,-0.6,0.6,0.0,322.0,-0.0,-0.01,1.0,99.0,-38.0,35.0,0.0,29.95,2777.0,0.0,0.0,319.0,0.0,0.0,0.0,0.0,0.0,0.0,0.0,0.0,0.0,0.0,0.0,0.0,0.0,0.0,0.0,0.0,0.0,0.0,0.0,0.0,0.0,0.0,0.0,0.0,0.0,27.0,0.0,0.0,29.9,0.0,0.0,0.0,1.2,0.0,0.0,32.6,0.0,0.0,-0.1,15.5,12.8,0.0,0.0,0.0,0.0,29.0,31.0,29.0,31.0,29.0,31.0,29.0,31.0,0.0,0.0,9.0,254.1,0.0,1.2,1.0,4.998,0.0,0.0,0.653,0.935,0.0,27.3,0.0,0.0,0.0,,0.0,95.0,80.6,0.0,0.0,0.0,0.0,84.2,87.8,84.2,87.8,84.2,87.8,84.2,87.8,0.0,0.0,81.14,0.0,84.2,-10.799999999999997,-13.86,0.0,0.5903333333333332,0.0,395.6,True,2026-05-20 14:26:46-07:00
21.06,1,9,2026-05-20 21:27:02,37.08168,-121.59959,396.0,0.0,336.1,-12.6,0.0,0.0,0.0,0.0,0.0,10.5,-0.6,0.5,0.0,320.0,-0.0,-0.01,1.0,99.0,-58.0,35.0,0.0,29.95,2774.0,0.0,0.0,319.0,0.0,0.0,0.0,0.0,0.0,0.0,0.0,0.0,0.0,0.0,0.0,0.0,0.0,0.0,0.0,0.0,0.0,0.0,0.0,0.0,0.0,0.0,0.0,0.0,0.0,27.0,0.0,0.0,29.9,0.0,0.0,0.0,1.2,0.0,0.0,32.6,0.0,0.0,-0.1,15.5,12.8,0.0,0.0,0.0,0.0,29.0,31.0,29.0,31.0,29.0,31.0,29.0,31.0,0.0,0.0,9.0,254.0,0.0,1.2,1.0,4.998,0.0,0.0,0.653,0.936,0.0,27.4,0.0,0.0,0.0,,0.0,95.0,80.6,0.0,0.0,0.0,0.0,84.2,87.8,84.2,87.8,84.2,87.8,84.2,87.8,0.0,0.0,81.32,0.0,84.2,-10.799999999999997,-13.680000000000007,0.0,0.5903333333333332,0.0,395.6,True,2026-05-20 14:26:46-07:00
22.06,1,9,2026-05-20 21:27:03,37.08168,-121.5996,395.0,0.1,336.1,-12.6,0.0,0.0,0.0,0.0,0.0,10.5,-0.7,0.5,0.0,320.0,-0.0,-0.01,1.0,99.0,-32.0,35.0,0.0,29.95,2774.0,0.0,0.0,319.0,0.0,0.0,0.0,0.0,0.0,0.0,0.0,0.0,0.0,0.0,0.0,0.0,0.0,0.0,0.0,0.0,0.0,0.0,0.0,0.0,0.0,0.0,0.0,0.0,0.0,27.0,0.0,0.0,29.9,0.0,0.0,0.0,1.2,0.0,0.0,32.6,0.0,0.0,-0.1,15.5,12.8,0.0,0.0,0.0,0.0,29.0,31.0,29.0,31.0,30.0,31.0,30.0,31.0,0.0,0.0,9.0,254.0,0.0,1.2,1.0,4.998,0.0,0.0,0.653,0.936,0.0,27.4,0.0,0.0,0.0,,0.0,95.0,80.6,0.0,0.0,0.0,0.0,84.2,87.8,84.2,87.8,86.0,87.8,86.0,87.8,0.0,0.0,81.32,0.0,85.1,-9.900000000000006,-13.680000000000007,0.0,0.6746666666666665,0.0,395.6,True,2026-05-20 14:26:46-07:00
23.06,1,9,2026-05-20 21:27:04,37.08169,-121.5996,394.0,0.0,336.1,-12.6,0.0,0.0,0.0,0.0,0.0,10.6,-0.7,0.4,0.0,319.0,-0.0,-0.01,1.0,99.0,-49.0,35.0,0.0,29.95,2774.0,0.0,0.0,319.0,0.0,0.0,0.0,0.0,0.0,0.0,0.0,0.0,0.0,0.0,0.0,0.0,0.0,0.0,0.0,0.0,0.0,0.0,0.0,0.0,0.0,0.0,0.0,0.0,0.0,27.0,0.0,0.0,29.9,0.0,0.0,0.0,1.0,0.0,0.0,32.6,0.0,0.0,-0.1,15.5,12.8,0.0,0.0,0.0,0.0,29.0,31.0,29.0,31.0,30.0,31.0,30.0,31.0,0.0,0.0,9.0,254.0,0.0,1.0,1.0,4.998,0.0,0.0,0.653,0.94,0.0,27.4,0.0,0.0,0.0,,0.0,95.0,80.6,0.0,0.0,0.0,0.0,84.2,87.8,84.2,87.8,86.0,87.8,86.0,87.8,0.0,0.0,81.32,0.0,85.1,-9.900000000000006,-13.680000000000007,0.0,0.7589999999999998,0.0,395.6,True,2026-05-20 14:26:46-07:00
24.06,1,9,2026-05-20 21:27:05,37.08169,-121.5996,393.0,0.0,336.1,-12.6,0.0,0.0,0.0,0.0,0.0,10.6,-0.7,0.4,0.0,318.0,-0.0,-0.01,1.0,99.0,-48.0,35.0,0.0,29.95,2774.0,0.0,0.0,319.0,0.0,0.0,0.0,0.0,0.0,0.0,0.0,0.0,0.0,0.0,0.0,0.0,0.0,0.0,0.0,0.0,0.0,0.0,0.0,0.0,0.0,0.0,0.0,0.0,0.0,27.0,0.0,0.0,29.9,0.0,0.0,0.0,1.0,0.0,0.0,32.6,0.0,0.0,-0.1,15.5,12.8,0.0,0.0,0.0,0.0,29.0,31.0,29.0,31.0,30.0,31.0,30.0,31.0,0.0,0.0,9.0,254.0,0.0,1.0,1.0,4.998,0.0,0.0,0.653,0.942,0.0,27.3,0.0,0.0,0.0,,0.0,95.0,80.6,0.0,0.0,0.0,0.0,84.2,87.8,84.2,87.8,86.0,87.8,86.0,87.8,0.0,0.0,81.14,0.0,85.1,-9.900000000000006,-13.86,0.0,0.7589999999999998,0.0,395.6,True,2026-05-20 14:26:46-07:00
25.06,1,9,2026-05-20 21:27:06,37.08169,-121.5996,393.0,0.0,336.1,-12.6,0.0,0.0,0.0,0.0,0.0,10.5,-0.6,0.4,0.0,317.0,-0.0,-0.01,1.0,99.0,-76.0,35.0,0.0,29.95,2775.0,0.0,0.0,319.0,0.0,0.0,0.0,0.0,0.0,0.0,0.0,0.0,0.0,0.0,0.0,0.0,0.0,0.0,0.0,0.0,0.0,0.0,0.0,0.0,0.0,0.0,0.0,0.0,0.0,27.0,0.0,0.0,29.9,0.0,0.0,0.0,0.6,0.0,0.0,32.6,0.0,0.0,-0.1,15.5,12.8,0.0,0.0,0.0,0.0,29.0,31.0,29.0,31.0,30.0,31.0,30.0,31.0,0.0,0.0,9.0,254.0,0.0,0.6,1.0,4.998,0.0,0.0,0.654,0.938,0.0,27.4,0.0,0.0,0.0,,0.0,95.0,80.6,0.0,0.0,0.0,0.0,84.2,87.8,84.2,87.8,86.0,87.8,86.0,87.8,0.0,0.0,81.32,0.0,85.1,-9.900000000000006,-13.680000000000007,0.0,0.7589999999999998,0.0,395.6,True,2026-05-20 14:26:46-07:00
26.06,1,9,2026-05-20 21:27:07,37.08169,-121.59961,392.0,0.0,336.1,-12.6,0.0,0.0,0.0,0.0,0.0,10.6,-0.7,0.4,0.0,317.0,-0.0,-0.01,1.0,99.0,-28.0,35.0,0.0,29.95,2775.0,0.0,0.0,319.0,0.0,0.0,0.0,0.0,0.0,0.0,0.0,0.0,0.0,0.0,0.0,0.0,0.0,0.0,0.0,0.0,0.0,0.0,0.0,0.0,0.0,0.0,0.0,0.0,0.0,27.0,0.0,0.0,29.9,0.0,0.0,0.0,0.1,0.0,0.0,32.6,0.0,0.0,-0.1,15.5,12.8,0.0,0.0,0.0,0.0,29.0,31.0,29.0,31.0,30.0,31.0,30.0,31.0,0.0,0.0,9.0,254.0,0.0,0.1,1.0,4.998,0.0,0.0,0.653,0.942,0.0,27.3,0.0,0.0,0.0,,0.0,95.0,80.6,0.0,0.0,0.0,0.0,84.2,87.8,84.2,87.8,86.0,87.8,86.0,87.8,0.0,0.0,81.14,0.0,85.1,-9.900000000000006,-13.86,0.0,0.7589999999999998,0.0,395.6,True,2026-05-20 14:26:46-07:00
27.06,1,9,2026-05-20 21:27:08,37.0817,-121.59961,392.0,0.0,336.1,-12.6,0.0,0.0,0.0,0.0,0.0,10.5,-0.7,0.4,0.0,317.0,-0.0,-0.01,1.0,99.0,-32.0,35.0,0.0,29.95,2775.0,0.0,0.0,319.0,0.0,0.0,0.0,0.0,0.0,0.0,0.0,0.0,0.0,0.0,0.0,0.0,0.0,0.0,0.0,0.0,0.0,0.0,0.0,0.0,0.0,0.0,0.0,0.0,0.0,27.0,0.0,0.0,29.9,0.0,0.0,0.0,9.3,0.0,0.0,32.6,0.0,0.0,-0.1,15.5,12.8,0.0,0.0,0.0,0.0,29.0,31.0,29.0,31.0,30.0,31.0,30.0,31.0,0.0,0.0,9.0,254.0,0.0,9.3,1.0,4.998,0.0,0.0,0.653,0.946,0.0,27.4,0.0,0.0,0.0,,0.0,95.0,80.6,0.0,0.0,0.0,0.0,84.2,87.8,84.2,87.8,86.0,87.8,86.0,87.8,0.0,0.0,81.32,0.0,85.1,-9.900000000000006,-13.680000000000007,0.0,0.7589999999999998,0.0,395.6,True,2026-05-20 14:26:46-07:00
28.06,1,9,2026-05-20 21:27:09,37.0817,-121.59961,392.0,0.0,336.1,-12.6,0.0,0.0,0.0,0.0,0.0,10.6,-0.6,0.4,0.0,316.0,-0.0,-0.01,1.0,99.0,-55.0,35.0,0.0,29.95,2783.0,0.0,0.0,319.0,0.0,0.0,0.0,0.0,0.0,0.0,0.0,0.0,0.0,0.0,0.0,0.0,0.0,0.0,0.0,0.0,0.0,0.0,0.0,0.0,0.0,0.0,0.0,0.0,0.0,27.0,0.0,0.0,29.9,0.0,0.0,0.0,29.0,0.0,0.0,32.6,0.0,0.0,-0.1,15.5,12.8,0.0,0.0,0.0,0.0,29.0,31.0,29.0,31.0,30.0,31.0,30.0,31.0,0.0,0.0,9.0,254.0,0.0,29.0,1.0,4.998,0.0,0.0,0.654,0.944,0.0,27.4,0.0,0.0,0.0,,0.0,95.0,80.6,0.0,0.0,0.0,0.0,84.2,87.8,84.2,87.8,86.0,87.8,86.0,87.8,0.0,0.0,81.32,0.0,85.1,-9.900000000000006,-13.680000000000007,0.0,0.7589999999999998,0.0,395.6,True,2026-05-20 14:26:46-07:00
29.06,1,9,2026-05-20 21:27:10,37.0817,-121.59961,392.0,0.0,336.1,-12.6,0.0,0.0,0.0,0.0,0.0,10.6,-0.6,0.4,0.0,313.0,-0.0,-0.01,1.0,99.0,-96.0,35.0,0.0,29.95,2783.0,0.0,0.0,319.0,0.0,0.0,0.0,0.0,0.0,0.0,0.0,0.0,0.0,0.0,0.0,0.0,0.0,0.0,0.0,0.0,0.0,0.0,0.0,0.0,0.0,0.0,0.0,0.0,0.0,27.0,0.0,0.0,29.9,0.1,0.0,0.1,31.1,0.0,0.0,32.6,0.0,0.0,-0.1,15.5,12.8,0.0,0.0,0.0,0.0,29.0,31.0,29.0,31.0,30.0,31.0,30.0,31.0,0.0,0.0,9.0,254.0,0.0,31.1,1.0,4.998,0.0,0.0,0.654,0.947,0.0,27.4,0.0,0.0,0.0,,0.0,95.0,80.6,0.0,0.0,0.0,0.0,84.2,87.8,84.2,87.8,86.0,87.8,86.0,87.8,0.0,0.0,81.32,0.0,85.1,-9.900000000000006,-13.680000000000007,1.388888888888889e-05,0.7589999999999998,0.0,395.6,True,2026-05-20 14:26:46-07:00
30.06,1,9,2026-05-20 21:27:11,37.0817,-121.59961,391.0,0.1,336.1,-12.6,0.0,0.0,0.0,0.0,0.0,10.7,-0.6,0.4,0.0,312.0,-0.0,-0.01,1.0,99.0,-94.0,35.0,0.0,29.95,2783.0,0.0,0.0,319.0,0.0,0.0,0.0,0.0,0.0,0.0,0.0,0.0,0.0,0.0,0.0,0.0,0.0,0.0,0.0,0.0,0.0,0.0,0.0,0.0,0.0,0.0,0.0,0.0,0.0,27.0,0.0,0.0,29.9,0.5,0.0,0.5,30.9,0.0,0.0,32.6,0.0,0.0,-0.1,15.5,12.8,0.0,0.0,0.0,0.0,29.0,31.0,29.0,31.0,30.0,31.0,30.0,31.0,0.0,0.0,9.0,254.0,0.0,30.9,1.0,4.998,0.0,0.0,0.653,0.94,0.0,27.4,0.0,0.0,0.0,,0.0,95.0,80.6,0.0,0.0,0.0,0.0,84.2,87.8,84.2,87.8,86.0,87.8,86.0,87.8,0.0,0.0,81.32,0.0,85.1,-9.900000000000006,-13.680000000000007,9.722222222222222e-05,0.8433333333333332,0.2,395.6,True,2026-05-20 14:26:46-07:00
31.06,1,9,2026-05-20 21:27:12,37.0817,-121.59961,391.0,0.1,336.1,-12.6,0.0,0.0,0.0,0.0,0.0,10.6,-0.6,0.4,0.0,309.0,-0.0,-0.01,1.0,99.0,-143.0,35.0,0.0,29.95,2777.0,0.0,0.0,319.0,0.0,0.0,0.0,0.0,0.0,0.0,0.0,0.0,0.0,0.0,0.0,0.0,0.0,0.0,0.0,0.0,0.0,0.0,0.0,0.0,0.0,0.0,0.0,0.0,0.0,27.0,0.0,0.0,29.9,1.4,0.0,1.4,30.7,0.0,0.0,32.6,0.0,0.0,-0.1,15.5,12.8,0.0,0.0,0.0,0.0,29.0,31.0,29.0,31.0,30.0,31.0,30.0,31.0,0.0,0.0,9.0,254.0,0.0,30.7,1.0,4.998,0.0,0.0,0.653,0.947,0.0,27.4,0.0,0.0,0.0,,0.0,95.0,80.6,0.0,0.0,0.0,0.0,84.2,87.8,84.2,87.8,86.0,87.8,86.0,87.8,0.0,0.0,81.32,0.0,85.1,-9.900000000000006,-13.680000000000007,0.0003611111111111111,1.0119999999999998,0.07142857142857144,395.6,True,2026-05-20 14:26:46-07:00
32.06,1,9,2026-05-20 21:27:13,37.0817,-121.59961,391.0,0.1,336.1,-12.6,0.0,0.0,0.0,0.0,0.0,10.6,-0.6,0.5,0.0,308.0,-0.0,-0.01,1.0,99.0,-121.0,35.0,0.0,29.95,2777.0,0.0,0.0,319.0,0.0,0.0,0.0,0.0,0.0,0.0,0.0,0.0,0.0,0.0,0.0,0.0,0.0,0.0,0.0,0.0,0.0,0.0,0.0,0.0,0.0,0.0,0.0,0.0,0.0,27.0,0.0,0.0,29.9,2.1,0.0,2.1,31.3,0.0,0.0,32.6,0.0,0.0,-0.1,15.5,12.8,0.0,0.0,0.0,0.0,29.0,31.0,29.0,31.0,30.0,31.0,30.0,31.0,0.0,0.0,8.0,254.0,0.0,31.3,1.0,4.998,0.0,0.0,0.653,0.956,0.0,27.4,0.0,0.0,0.0,,0.0,95.0,80.6,0.0,0.0,0.0,0.0,84.2,87.8,84.2,87.8,86.0,87.8,86.0,87.8,0.0,0.0,81.32,0.0,85.1,-9.900000000000006,-13.680000000000007,0.0008472222222222239,1.1806666666666672,0.047619047619047616,395.6,True,2026-05-20 14:26:46-07:00
33.06,1,9,2026-05-20 21:27:14,37.08171,-121.59961,391.0,0.0,336.1,-12.6,0.0,0.0,0.0,0.0,0.0,10.6,-0.6,0.4,0.0,307.0,-0.0,-0.01,1.0,99.0,-96.0,35.0,0.0,29.95,2777.0,0.0,0.0,319.0,0.0,0.0,0.0,0.0,0.0,0.0,0.0,0.0,0.0,0.0,0.0,0.0,0.0,0.0,0.0,0.0,0.0,0.0,0.0,0.0,0.0,0.0,0.0,0.0,0.0,27.0,0.0,0.0,29.9,2.7,0.0,2.7,31.5,0.0,0.0,32.6,0.0,0.0,-0.1,15.5,12.8,0.0,0.0,0.0,0.0,29.0,31.0,29.0,31.0,30.0,31.0,30.0,31.0,0.0,0.0,8.0,254.0,0.0,31.5,1.0,4.998,0.0,0.0,0.653,0.951,0.0,27.4,0.0,0.0,0.0,,0.0,95.0,80.6,0.0,0.0,0.0,0.0,84.2,87.8,84.2,87.8,86.0,87.8,86.0,87.8,0.0,0.0,81.32,0.0,85.1,-9.900000000000006,-13.680000000000007,0.0015138888888888906,1.2650000000000003,0.0,395.6,True,2026-05-20 14:26:46-07:00
34.06,1,9,2026-05-20 21:27:15,37.08171,-121.59962,388.0,0.0,336.1,-12.6,0.0,0.0,0.0,0.0,0.0,10.6,-0.6,0.5,0.0,305.0,-0.0,-0.01,1.0,99.0,-98.0,35.0,0.0,29.95,2770.0,0.0,0.0,319.0,0.0,0.0,0.0,0.0,0.0,0.0,0.0,0.0,0.0,0.0,0.0,0.0,0.0,0.0,0.0,0.0,0.0,0.0,0.0,0.0,0.0,0.0,0.0,0.0,0.0,27.0,0.0,0.0,29.9,3.1,0.0,3.1,32.0,0.0,0.0,32.6,0.0,0.0,-0.1,15.5,12.8,0.0,0.0,0.0,0.0,29.0,31.0,29.0,31.0,30.0,31.0,30.0,31.0,0.0,0.0,8.0,254.0,0.0,32.0,1.0,4.998,0.0,0.0,0.653,0.95,0.0,27.3,0.0,0.0,0.0,,0.0,95.0,80.6,0.0,0.0,0.0,0.0,84.2,87.8,84.2,87.8,86.0,87.8,86.0,87.8,0.0,0.0,81.14,0.0,85.1,-9.900000000000006,-13.86,0.002319444444444446,1.2650000000000003,0.0,395.6,True,2026-05-20 14:26:46-07:00
35.06,1,9,2026-05-20 21:27:16,37.08171,-121.59962,388.0,0.0,336.1,-12.6,0.0,0.0,0.0,0.0,0.0,10.6,-0.6,0.5,0.0,305.0,-0.0,-0.01,1.0,99.0,-65.0,35.0,0.0,29.95,2771.0,0.0,0.0,319.0,0.0,0.0,0.0,0.0,0.0,0.0,0.0,0.0,0.0,0.0,0.0,0.0,0.0,0.0,0.0,0.0,0.0,0.0,0.0,0.0,0.0,0.0,0.0,0.0,0.0,27.0,0.0,0.0,29.9,2.7,0.0,2.7,32.6,0.0,0.0,32.6,0.0,0.0,-0.1,15.5,12.8,0.0,0.0,0.0,0.0,29.0,31.0,29.0,31.0,30.0,31.0,30.0,31.0,0.0,0.0,8.0,254.0,0.0,32.6,1.0,4.998,0.0,0.0,0.653,0.947,0.0,27.4,0.0,0.0,0.0,,0.0,95.0,80.6,0.0,0.0,0.0,0.0,84.2,87.8,84.2,87.8,86.0,87.8,86.0,87.8,0.0,0.0,81.32,0.0,85.1,-9.900000000000006,-13.680000000000007,0.003125000000000002,1.2650000000000003,0.0,395.6,True,2026-05-20 14:26:46-07:00
36.06,1,9,2026-05-20 21:27:17,37.08171,-121.59962,390.0,0.0,336.1,-12.6,0.0,0.0,0.0,0.0,0.0,10.6,-0.6,0.5,0.0,303.0,-0.0,-0.01,1.0,99.0,-97.0,35.0,0.0,29.95,2771.0,0.0,0.0,319.0,0.0,0.0,0.0,0.0,0.0,0.0,0.0,0.0,0.0,0.0,0.0,0.0,0.0,0.0,0.0,0.0,0.0,0.0,0.0,0.0,0.0,0.0,0.0,0.0,0.0,27.0,0.0,0.0,29.9,2.4,0.0,2.4,32.2,0.0,0.0,32.6,0.0,0.0,-0.1,15.5,12.8,0.0,0.0,0.0,0.0,29.0,31.0,29.0,31.0,30.0,31.0,30.0,31.0,0.0,0.0,8.0,254.0,0.0,32.2,1.0,4.998,0.0,0.0,0.653,0.946,0.0,27.4,0.0,0.0,0.0,,0.0,95.0,80.6,0.0,0.0,0.0,0.0,84.2,87.8,84.2,87.8,86.0,87.8,86.0,87.8,0.0,0.0,81.32,0.0,85.1,-9.900000000000006,-13.680000000000007,0.0038333333333333353,1.2650000000000003,0.0,395.6,True,2026-05-20 14:26:46-07:00
37.06,1,9,2026-05-20 21:27:18,37.08171,-121.59962,390.0,0.1,336.1,-12.6,0.0,0.0,0.0,0.0,0.0,10.6,-0.6,0.5,0.0,303.0,-0.0,-0.01,1.0,99.0,-77.0,35.0,0.0,29.95,2771.0,0.0,0.0,319.0,0.0,0.0,0.0,0.0,0.0,0.0,0.0,0.0,0.0,0.0,0.0,0.0,0.0,0.0,0.0,0.0,0.0,0.0,0.0,0.0,0.0,0.0,0.0,0.0,0.0,27.0,0.0,0.0,29.9,2.4,0.0,2.4,32.0,0.0,0.0,32.6,0.0,0.0,-0.1,15.5,12.8,0.0,0.0,0.0,0.0,29.0,31.0,29.0,31.0,30.0,31.0,30.0,31.0,0.0,0.0,8.0,254.0,0.0,32.0,1.0,4.998,0.0,0.0,0.653,0.963,0.0,27.3,0.0,0.0,0.0,,0.0,95.0,80.6,0.0,0.0,0.0,0.0,84.2,87.8,84.2,87.8,86.0,87.8,86.0,87.8,0.0,0.0,81.14,0.0,85.1,-9.900000000000006,-13.86,0.004500000000000002,1.3493333333333337,0.04166666666666667,395.6,True,2026-05-20 14:26:46-07:00
38.06,1,9,2026-05-20 21:27:19,37.08172,-121.59962,390.0,0.0,336.1,-12.6,0.0,0.0,0.0,0.0,0.0,10.6,-0.6,0.5,0.0,302.0,-0.0,-0.01,1.0,99.0,-63.0,35.0,0.0,29.95,2776.0,0.0,0.0,319.0,0.0,0.0,0.0,0.0,0.0,0.0,0.0,0.0,0.0,0.0,0.0,0.0,0.0,0.0,0.0,0.0,0.0,0.0,0.0,0.0,0.0,0.0,0.0,0.0,0.0,27.0,0.0,0.0,29.9,0.0,0.0,0.0,31.8,0.0,0.0,32.6,0.0,0.0,-0.1,15.5,12.8,0.0,0.0,0.0,0.0,29.0,31.0,29.0,31.0,30.0,31.0,30.0,31.0,0.0,0.0,8.0,254.0,0.0,31.8,1.0,4.998,0.0,0.0,0.653,0.931,0.0,27.4,0.0,0.0,0.0,,0.0,95.0,80.6,0.0,0.0,0.0,0.0,84.2,87.8,84.2,87.8,86.0,87.8,86.0,87.8,0.0,0.0,81.32,0.0,85.1,-9.900000000000006,-13.680000000000007,0.004833333333333335,1.433666666666667,0.0,395.6,True,2026-05-20 14:26:46-07:00
39.06,1,9,2026-05-20 21:27:20,37.08171,-121.59962,390.0,0.1,336.1,-12.6,0.0,0.0,0.0,0.0,0.0,10.6,-0.6,0.6,0.0,300.0,-0.0,-0.01,1.0,99.0,-83.0,35.0,0.0,29.95,2773.0,0.0,0.0,319.0,0.0,0.0,0.0,0.0,0.0,0.0,0.0,0.0,0.0,0.0,0.0,0.0,0.0,0.0,0.0,0.0,0.0,0.0,0.0,0.0,0.0,0.0,0.0,0.0,0.0,27.0,0.0,0.0,29.9,0.0,0.0,0.0,31.6,0.0,0.0,32.6,0.0,0.0,-0.1,15.5,12.8,0.0,0.0,0.0,0.0,29.0,31.0,29.0,31.0,30.0,31.0,30.0,31.0,0.0,0.0,8.0,254.0,0.0,31.6,1.0,4.998,0.0,0.0,0.653,0.928,0.0,27.4,0.0,0.0,0.0,,0.0,95.0,80.6,0.0,0.0,0.0,0.0,84.2,87.8,84.2,87.8,86.0,87.8,86.0,87.8,0.0,0.0,81.32,0.0,85.1,-9.900000000000006,-13.680000000000007,0.004833333333333335,1.5180000000000005,0.0,395.6,True,2026-05-20 14:26:46-07:00
40.06,1,9,2026-05-20 21:27:21,37.08171,-121.59962,390.0,0.1,336.1,-12.6,0.0,0.0,0.0,0.0,0.0,10.6,-0.6,0.5,0.0,299.0,-0.0,-0.01,1.0,99.0,-86.0,35.0,0.0,29.95,2773.0,0.0,0.0,319.0,0.0,0.0,0.0,0.0,0.0,0.0,0.0,0.0,0.0,0.0,0.0,0.0,0.0,0.0,0.0,0.0,0.0,0.0,0.0,0.0,0.0,0.0,0.0,0.0,0.0,27.0,0.0,0.0,29.9,0.0,0.0,0.0,31.4,0.0,0.0,32.6,0.0,0.0,-0.1,15.5,12.8,0.0,0.0,0.0,0.0,29.0,31.0,29.0,31.0,30.0,31.0,30.0,31.0,0.0,0.0,8.0,219.1,0.0,31.4,1.0,4.998,0.0,0.0,0.653,0.941,0.0,27.4,0.0,0.0,0.0,,0.0,95.0,80.6,0.0,0.0,0.0,0.0,84.2,87.8,84.2,87.8,86.0,87.8,86.0,87.8,0.0,0.0,81.32,0.0,85.1,-9.900000000000006,-13.680000000000007,0.004833333333333335,1.686666666666667,0.0,395.6,True,2026-05-20 14:26:46-07:00
41.06,1,9,2026-05-20 21:27:22,37.08171,-121.59961,390.0,0.0,336.1,-12.6,0.0,0.0,0.0,0.0,0.0,10.6,-0.6,0.5,0.0,299.0,-0.0,-0.01,1.0,99.0,-11.0,35.0,0.0,29.95,2773.0,0.0,0.0,319.0,0.0,0.0,0.0,0.0,0.0,0.0,0.0,0.0,0.0,0.0,0.0,0.0,0.0,0.0,0.0,0.0,0.0,0.0,0.0,0.0,0.0,0.0,0.0,0.0,0.0,27.0,0.0,0.0,29.9,0.0,0.0,0.0,31.2,0.0,0.0,32.6,0.0,0.0,-0.1,15.5,12.8,0.0,0.0,0.0,0.0,29.0,31.0,29.0,31.0,30.0,31.0,30.0,31.0,0.0,0.0,8.0,170.5,0.0,31.2,1.0,4.998,0.0,0.0,0.653,0.953,0.0,27.4,0.0,0.0,0.0,,0.0,95.0,80.6,0.0,0.0,0.0,0.0,84.2,87.8,84.2,87.8,86.0,87.8,86.0,87.8,0.0,0.0,81.32,0.0,85.1,-9.900000000000006,-13.680000000000007,0.004833333333333335,1.7710000000000004,0.0,395.6,True,2026-05-20 14:26:46-07:00
42.06,1,9,2026-05-20 21:27:23,37.08171,-121.59961,390.0,0.1,336.1,-12.6,0.0,0.0,0.0,0.0,0.0,10.6,-0.7,0.5,0.0,299.0,-0.0,-0.01,1.0,99.0,-37.0,35.0,0.0,29.95,2774.0,0.0,0.0,319.0,0.0,0.0,0.0,0.0,0.0,0.0,0.0,0.0,0.0,0.0,0.0,0.0,0.0,0.0,0.0,0.0,0.0,0.0,0.0,0.0,0.0,0.0,0.0,0.0,0.0,27.0,0.0,0.0,29.9,0.0,0.0,0.0,31.1,0.0,0.0,32.6,0.0,0.0,-0.1,15.5,12.8,0.0,0.0,0.0,0.0,29.0,31.0,29.0,31.0,30.0,31.0,30.0,31.0,0.0,0.0,8.0,132.8,0.0,31.1,1.0,4.998,0.0,0.0,0.653,0.958,0.0,27.4,0.0,0.0,0.0,,0.0,95.0,80.6,0.0,0.0,0.0,0.0,84.2,87.8,84.2,87.8,86.0,87.8,86.0,87.8,0.0,0.0,81.32,0.0,85.1,-9.900000000000006,-13.680000000000007,0.004833333333333335,1.8553333333333337,0.0,395.6,True,2026-05-20 14:26:46-07:00
43.06,1,9,2026-05-20 21:27:24,37.08171,-121.59961,390.0,0.0,336.1,-12.6,0.0,0.0,0.0,0.0,0.0,10.6,-0.6,0.5,0.0,299.0,0.0,-0.01,1.0,99.0,-25.0,35.0,0.0,29.95,2774.0,0.0,0.0,319.0,0.0,0.0,0.0,0.0,0.0,0.0,0.0,0.0,0.0,0.0,0.0,0.0,0.0,0.0,0.0,0.0,0.0,0.0,0.0,0.0,0.0,0.0,0.0,0.0,0.0,27.0,0.0,0.0,29.9,0.0,0.0,0.0,30.9,0.0,0.0,32.6,0.0,0.0,-0.1,15.5,12.8,0.0,0.0,0.0,0.0,29.0,31.0,29.0,31.0,30.0,31.0,30.0,31.0,0.0,0.0,7.0,103.4,0.0,30.9,1.0,4.998,0.0,0.0,0.653,0.957,0.0,27.4,0.0,0.0,0.0,,0.0,95.0,80.6,0.0,0.0,0.0,0.0,84.2,87.8,84.2,87.8,86.0,87.8,86.0,87.8,0.0,0.0,81.32,0.0,85.1,-9.900000000000006,-13.680000000000007,0.004833333333333335,1.939666666666667,0.0,395.6,True,2026-05-20 14:26:46-07:00
44.06,1,9,2026-05-20 21:27:25,37.08172,-121.59961,389.0,0.0,336.1,-12.6,0.0,0.0,0.0,0.0,0.0,10.6,-0.6,0.6,0.0,299.0,0.0,-0.01,1.0,99.0,-18.0,35.0,0.0,29.95,2774.0,0.0,0.0,319.0,0.0,0.0,0.0,0.0,0.0,0.0,0.0,0.0,0.0,0.0,0.0,0.0,0.0,0.0,0.0,0.0,0.0,0.0,0.0,0.0,0.0,0.0,0.0,0.0,0.0,27.0,0.0,0.0,29.9,0.0,0.0,0.0,30.8,0.0,0.0,32.6,0.0,0.0,-0.1,15.5,12.8,0.0,0.0,0.0,0.0,29.0,31.0,29.0,31.0,30.0,31.0,30.0,31.0,0.0,0.0,7.0,80.6,0.0,30.8,1.0,4.998,0.0,0.0,0.653,0.951,0.0,27.4,0.0,0.0,0.0,,0.0,95.0,80.6,0.0,0.0,0.0,0.0,84.2,87.8,84.2,87.8,86.0,87.8,86.0,87.8,0.0,0.0,81.32,0.0,85.1,-9.900000000000006,-13.680000000000007,0.004833333333333335,1.939666666666667,0.0,395.6,True,2026-05-20 14:26:46-07:00
45.06,1,9,2026-05-20 21:27:26,37.08172,-121.59961,389.0,0.0,336.1,-12.6,0.0,0.0,0.0,0.0,0.0,10.6,-0.6,0.6,0.0,299.0,0.0,-0.01,1.0,99.0,-22.0,35.0,0.0,29.95,2784.0,0.0,0.0,319.0,0.0,0.0,0.0,0.0,0.0,0.0,0.0,0.0,0.0,0.0,0.0,0.0,0.0,0.0,0.0,0.0,0.0,0.0,0.0,0.0,0.0,0.0,0.0,0.0,0.0,27.0,0.0,0.0,29.9,0.0,0.0,0.0,30.7,0.0,0.0,32.6,0.0,0.0,-0.1,15.5,12.8,0.0,0.0,0.0,0.0,29.0,31.0,29.0,31.0,30.0,31.0,30.0,31.0,0.0,0.0,7.0,62.8,0.0,30.7,1.0,4.998,0.0,0.0,0.653,0.945,0.0,27.4,0.0,0.0,0.0,,0.0,95.0,80.6,0.0,0.0,0.0,0.0,84.2,87.8,84.2,87.8,86.0,87.8,86.0,87.8,0.0,0.0,81.32,0.0,85.1,-9.900000000000006,-13.680000000000007,0.004833333333333335,1.939666666666667,0.0,395.6,True,2026-05-20 14:26:46-07:00
46.06,1,9,2026-05-20 21:27:27,37.08172,-121.59961,389.0,0.1,336.1,-12.6,0.0,0.0,0.0,0.0,0.0,10.7,-0.6,0.6,0.0,299.0,0.0,-0.01,1.0,99.0,-22.0,35.0,0.0,29.95,2784.0,0.0,0.0,319.0,0.0,0.0,0.0,0.0,0.0,0.0,0.0,0.0,0.0,0.0,0.0,0.0,0.0,0.0,0.0,0.0,0.0,0.0,0.0,0.0,0.0,0.0,0.0,0.0,0.0,27.0,0.0,0.0,29.9,0.0,0.0,0.0,30.6,0.0,0.0,32.6,0.0,0.0,-0.1,15.5,12.8,0.0,0.0,0.0,0.0,29.0,31.0,29.0,31.0,30.0,31.0,30.0,31.0,0.0,0.0,7.0,49.1,0.0,30.6,1.0,4.998,0.0,0.0,0.653,0.917,0.0,27.4,0.0,0.0,0.0,,0.0,95.0,80.6,0.0,0.0,0.0,0.0,84.2,87.8,84.2,87.8,86.0,87.8,86.0,87.8,0.0,0.0,81.32,0.0,85.1,-9.900000000000006,-13.680000000000007,0.004833333333333335,2.0240000000000005,0.0,395.6,True,2026-05-20 14:26:46-07:00
47.06,1,9,2026-05-20 21:27:28,37.08172,-121.59961,389.0,0.0,336.1,-12.6,0.0,0.0,0.0,0.0,0.0,10.7,-0.6,0.6,0.0,299.0,0.0,-0.01,1.0,99.0,-25.0,35.0,0.0,29.95,2784.0,0.0,0.0,319.0,0.0,0.0,0.0,0.0,0.0,0.0,0.0,0.0,0.0,0.0,0.0,0.0,0.0,0.0,0.0,0.0,0.0,0.0,0.0,0.0,0.0,0.0,0.0,0.0,0.0,27.0,0.0,0.0,29.9,0.0,0.0,0.0,30.5,0.0,0.0,32.6,0.0,0.0,-0.1,15.5,12.8,0.0,0.0,0.0,0.0,30.0,31.0,29.0,31.0,30.0,31.0,30.0,31.0,0.0,0.0,7.0,38.3,0.0,30.5,1.0,4.998,0.0,0.0,0.654,0.905,0.0,27.4,0.0,0.0,0.0,,0.0,95.0,80.6,0.0,0.0,0.0,0.0,86.0,87.8,84.2,87.8,86.0,87.8,86.0,87.8,0.0,0.0,81.32,0.0,85.55,-9.450000000000003,-13.680000000000007,0.004833333333333335,2.108333333333334,0.0,395.6,True,2026-05-20 14:26:46-07:00
48.06,1,9,2026-05-20 21:27:29,37.08172,-121.59961,389.0,0.0,336.1,-12.6,0.0,0.0,0.0,0.0,0.0,10.7,-0.6,0.6,0.0,297.0,0.0,-0.01,1.0,99.0,-32.0,35.0,0.0,29.95,2783.0,0.0,0.0,319.0,0.0,0.0,0.0,0.0,0.0,0.0,0.0,0.0,0.0,0.0,0.0,0.0,0.0,0.0,0.0,0.0,0.0,0.0,0.0,0.0,0.0,0.0,0.0,0.0,0.0,27.0,0.0,0.0,29.9,0.0,0.0,0.0,30.4,0.0,0.0,32.6,0.0,0.0,-0.1,15.5,12.8,0.0,0.0,0.0,0.0,30.0,31.0,29.0,31.0,30.0,31.0,30.0,31.0,0.0,0.0,7.0,30.0,0.0,30.4,1.0,4.998,0.0,0.0,0.653,0.906,0.0,27.4,0.0,0.0,0.0,,0.0,95.0,80.6,0.0,0.0,0.0,0.0,86.0,87.8,84.2,87.8,86.0,87.8,86.0,87.8,0.0,0.0,81.32,0.0,85.55,-9.450000000000003,-13.680000000000007,0.004833333333333335,2.108333333333334,0.0,395.6,True,2026-05-20 14:26:46-07:00
49.06,1,9,2026-05-20 21:27:30,37.08172,-121.59961,388.0,0.0,336.1,-12.6,0.0,0.0,0.0,0.0,0.0,10.7,-0.5,0.6,0.0,297.0,-0.0,-0.01,1.0,99.0,-18.0,35.0,0.0,29.95,2783.0,0.0,0.0,319.0,0.0,0.0,0.0,0.0,0.0,0.0,0.0,0.0,0.0,0.0,0.0,0.0,0.0,0.0,0.0,0.0,0.0,0.0,0.0,0.0,0.0,0.0,0.0,0.0,0.0,27.0,0.0,0.0,29.9,0.0,0.0,0.0,30.2,0.0,0.0,32.6,0.0,0.0,-0.1,15.5,12.8,0.0,0.0,0.0,0.0,30.0,31.0,29.0,31.0,30.0,31.0,30.0,31.0,0.0,0.0,7.0,23.5,0.0,30.2,1.0,4.998,0.0,0.0,0.654,0.941,0.0,27.4,0.0,0.0,0.0,,0.0,95.0,80.6,0.0,0.0,0.0,0.0,86.0,87.8,84.2,87.8,86.0,87.8,86.0,87.8,0.0,0.0,81.32,0.0,85.55,-9.450000000000003,-13.680000000000007,0.004833333333333335,2.108333333333334,0.0,395.6,True,2026-05-20 14:26:46-07:00
50.06,1,9,2026-05-20 21:27:31,37.08172,-121.59961,388.0,0.0,336.1,-12.6,0.0,0.0,0.0,0.0,0.0,10.7,-0.6,0.6,0.0,297.0,0.0,-0.01,1.0,99.0,-2.0,35.0,0.0,29.95,2783.0,0.0,0.0,319.0,0.0,0.0,0.0,0.0,0.0,0.0,0.0,0.0,0.0,0.0,0.0,0.0,0.0,0.0,0.0,0.0,0.0,0.0,0.0,0.0,0.0,0.0,0.0,0.0,0.0,27.0,0.0,0.0,29.9,0.0,0.0,0.0,30.2,0.0,0.0,32.6,0.0,0.0,-0.1,15.5,12.8,0.0,0.0,0.0,0.0,30.0,31.0,29.0,31.0,30.0,31.0,30.0,31.0,0.0,0.0,7.0,18.5,0.0,30.2,1.0,4.998,0.0,0.0,0.653,0.957,0.0,27.4,0.0,0.0,0.0,,0.0,95.0,80.6,0.0,0.0,0.0,0.0,86.0,87.8,84.2,87.8,86.0,87.8,86.0,87.8,0.0,0.0,81.32,0.0,85.55,-9.450000000000003,-13.680000000000007,0.004833333333333335,2.108333333333334,0.0,395.6,True,2026-05-20 14:26:46-07:00
51.06,1,9,2026-05-20 21:27:32,37.08172,-121.59961,388.0,0.0,336.1,-12.6,0.0,0.0,0.0,0.0,0.0,10.7,-0.6,0.6,0.0,297.0,-0.0,-0.01,1.0,99.0,38.0,35.0,0.0,29.95,2782.0,0.0,0.0,319.0,0.0,0.0,0.0,0.0,0.0,0.0,0.0,0.0,0.0,0.0,0.0,0.0,0.0,0.0,0.0,0.0,0.0,0.0,0.0,0.0,0.0,0.0,0.0,0.0,0.0,27.0,0.0,0.0,29.9,0.0,0.0,0.0,30.0,0.0,0.0,32.6,0.0,0.0,-0.1,15.5,12.8,0.0,0.0,0.0,0.0,30.0,31.0,29.0,31.0,30.0,31.0,30.0,31.0,0.0,0.0,7.0,14.6,0.0,30.0,1.0,4.998,0.0,0.0,0.653,0.95,0.0,27.4,0.0,0.0,0.0,,0.0,95.0,80.6,0.0,0.0,0.0,0.0,86.0,87.8,84.2,87.8,86.0,87.8,86.0,87.8,0.0,0.0,81.32,0.0,85.55,-9.450000000000003,-13.680000000000007,0.004833333333333335,2.108333333333334,0.0,395.6,True,2026-05-20 14:26:46-07:00
52.06,1,9,2026-05-20 21:27:33,37.08172,-121.59961,388.0,0.0,336.1,-12.6,0.0,0.0,0.0,0.0,0.0,10.7,-0.6,0.6,0.0,297.0,-0.0,-0.01,1.0,99.0,27.0,35.0,0.0,29.95,2784.0,0.0,0.0,319.0,0.0,0.0,0.0,0.0,0.0,0.0,0.0,0.0,0.0,0.0,0.0,0.0,0.0,0.0,0.0,0.0,0.0,0.0,0.0,0.0,0.0,0.0,0.0,0.0,0.0,27.0,0.0,0.0,29.9,0.0,0.0,0.0,29.9,0.0,0.0,32.6,0.0,0.0,-0.1,15.5,12.8,0.0,0.0,0.0,0.0,30.0,31.0,29.0,31.0,30.0,31.0,30.0,31.0,0.0,0.0,7.0,11.6,0.0,29.9,1.0,4.998,0.0,0.0,0.654,0.939,0.0,27.4,0.0,0.0,0.0,,0.0,95.0,80.6,0.0,0.0,0.0,0.0,86.0,87.8,84.2,87.8,86.0,87.8,86.0,87.8,0.0,0.0,81.32,0.0,85.55,-9.450000000000003,-13.680000000000007,0.004833333333333335,2.108333333333334,0.0,395.6,True,2026-05-20 14:26:46-07:00
53.06,1,10,2026-05-20 21:27:34,37.08173,-121.59966,419.0,0.0,336.1,-12.6,0.0,0.0,0.0,0.0,0.0,10.7,-0.6,0.6,0.0,297.0,-0.0,-0.01,1.0,99.0,25.0,35.0,0.0,29.95,2784.0,0.0,0.0,319.0,0.0,0.0,0.0,0.0,0.0,0.0,0.0,0.0,0.0,0.0,0.0,0.0,0.0,0.0,0.0,0.0,0.0,0.0,0.0,0.0,0.0,0.0,0.0,0.0,0.0,27.0,0.0,0.0,29.9,0.0,0.0,0.0,29.8,0.0,0.0,32.6,0.0,0.0,-0.1,15.5,12.8,0.0,0.0,0.0,0.0,30.0,31.0,29.0,31.0,30.0,31.0,30.0,31.0,0.0,0.0,7.0,9.2,0.0,29.8,1.0,4.998,0.0,0.0,0.654,0.941,0.0,27.4,0.0,0.0,0.0,,0.0,95.0,80.6,0.0,0.0,0.0,0.0,86.0,87.8,84.2,87.8,86.0,87.8,86.0,87.8,0.0,0.0,81.32,0.0,85.55,-9.450000000000003,-13.680000000000007,0.004833333333333335,2.108333333333334,0.0,395.6,True,2026-05-20 14:26:46-07:00
54.06,1,10,2026-05-20 21:27:35,37.08173,-121.59966,418.0,0.0,336.1,-12.6,0.0,0.0,0.0,0.0,0.0,10.7,-0.6,0.6,0.0,297.0,-0.0,-0.01,1.0,99.0,12.0,35.0,0.0,29.95,2784.0,0.0,0.0,319.0,0.0,0.0,0.0,0.0,0.0,0.0,0.0,0.0,0.0,0.0,0.0,0.0,0.0,0.0,0.0,0.0,0.0,0.0,0.0,0.0,0.0,0.0,0.0,0.0,0.0,27.0,0.0,0.0,29.9,0.0,0.0,0.0,29.8,0.0,0.0,32.6,0.0,0.0,-0.1,15.5,12.8,0.0,0.0,0.0,0.0,30.0,31.0,29.0,31.0,30.0,31.0,30.0,31.0,0.0,0.0,7.0,7.4,0.0,29.8,1.0,4.998,0.0,0.0,0.653,0.944,0.0,27.4,0.0,0.0,0.0,,0.0,95.0,80.6,0.0,0.0,0.0,0.0,86.0,87.8,84.2,87.8,86.0,87.8,86.0,87.8,0.0,0.0,81.32,0.0,85.55,-9.450000000000003,-13.680000000000007,0.004833333333333335,2.108333333333334,0.0,395.6,True,2026-05-20 14:26:46-07:00
55.06,1,10,2026-05-20 21:27:36,37.08173,-121.59966,418.0,0.0,336.1,-12.6,0.0,0.0,0.0,0.0,0.0,10.7,-0.6,0.5,0.0,297.0,-0.0,-0.01,1.0,99.0,22.0,35.0,0.0,29.95,2793.0,0.0,0.0,319.0,0.0,0.0,0.0,0.0,0.0,0.0,0.0,0.0,0.0,0.0,0.0,0.0,0.0,0.0,0.0,0.0,0.0,0.0,0.0,0.0,0.0,0.0,0.0,0.0,0.0,27.0,0.0,0.0,29.9,0.0,0.0,0.0,29.7,0.0,0.0,32.6,0.0,0.0,-0.1,15.5,12.8,0.0,0.0,0.0,0.0,30.0,31.0,29.0,31.0,30.0,31.0,30.0,31.0,0.0,0.0,7.0,5.9,0.0,29.7,1.0,4.998,0.0,0.0,0.653,0.941,0.0,27.4,0.0,0.0,0.0,,0.0,95.0,80.6,0.0,0.0,0.0,0.0,86.0,87.8,84.2,87.8,86.0,87.8,86.0,87.8,0.0,0.0,81.32,0.0,85.55,-9.450000000000003,-13.680000000000007,0.004833333333333335,2.108333333333334,0.0,395.6,True,2026-05-20 14:26:46-07:00
56.06,1,10,2026-05-20 21:27:37,37.08173,-121.59966,417.0,0.0,336.1,-12.6,0.0,0.0,0.0,0.0,0.0,10.7,-0.6,0.5,0.0,297.0,-0.0,-0.01,1.0,99.0,8.0,35.0,0.0,29.95,2793.0,0.0,0.0,319.0,0.0,0.0,0.0,0.0,0.0,0.0,0.0,0.0,0.0,0.0,0.0,0.0,0.0,0.0,0.0,0.0,0.0,0.0,0.0,0.0,0.0,0.0,0.0,0.0,0.0,27.0,0.0,0.0,29.9,0.0,0.0,0.0,29.6,0.0,0.0,32.6,0.0,0.0,-0.1,15.5,12.8,0.0,0.0,0.0,0.0,30.0,31.0,29.0,31.0,30.0,31.0,30.0,31.0,0.0,0.0,7.0,4.8,0.0,29.6,1.0,4.998,0.0,0.0,0.653,0.944,0.0,27.4,0.0,0.0,0.0,,0.0,95.0,80.6,0.0,0.0,0.0,0.0,86.0,87.8,84.2,87.8,86.0,87.8,86.0,87.8,0.0,0.0,81.32,0.0,85.55,-9.450000000000003,-13.680000000000007,0.004833333333333335,2.108333333333334,0.0,395.6,True,2026-05-20 14:26:46-07:00
57.06,1,10,2026-05-20 21:27:38,37.08173,-121.59966,417.0,0.0,336.1,-12.6,0.0,0.0,0.0,0.0,0.0,10.7,-0.6,0.4,0.0,297.0,-0.0,-0.01,1.0,99.0,-15.0,35.0,0.0,29.95,2793.0,0.0,0.0,319.0,0.0,0.0,0.0,0.0,0.0,0.0,0.0,0.0,0.0,0.0,0.0,0.0,0.0,0.0,0.0,0.0,0.0,0.0,0.0,0.0,0.0,0.0,0.0,0.0,0.0,27.0,0.0,0.0,29.9,0.0,0.0,0.0,29.5,0.0,0.0,32.6,0.0,0.0,-0.1,15.5,12.8,0.0,0.0,0.0,0.0,30.0,31.0,29.0,31.0,30.0,31.0,30.0,31.0,0.0,0.0,7.0,4.0,0.0,29.5,1.0,4.998,0.0,0.0,0.653,0.935,0.0,27.4,0.0,0.0,0.0,,0.0,95.0,80.6,0.0,0.0,0.0,0.0,86.0,87.8,84.2,87.8,86.0,87.8,86.0,87.8,0.0,0.0,81.32,0.0,85.55,-9.450000000000003,-13.680000000000007,0.004833333333333335,2.108333333333334,0.0,395.6,True,2026-05-20 14:26:46-07:00
58.06,1,10,2026-05-20 21:27:39,37.08173,-121.59966,417.0,0.0,336.1,-12.6,0.0,0.0,0.0,0.0,0.0,10.7,-0.6,0.4,0.0,297.0,-0.0,-0.01,1.0,99.0,-39.0,35.0,0.0,29.95,2793.0,0.0,0.0,319.0,0.0,0.0,0.0,0.0,0.0,0.0,0.0,0.0,0.0,0.0,0.0,0.0,0.0,0.0,0.0,0.0,0.0,0.0,0.0,0.0,0.0,0.0,0.0,0.0,0.0,27.0,0.0,0.0,29.9,0.0,0.0,0.0,29.4,0.0,0.0,32.6,0.0,0.0,-0.1,15.5,12.8,0.0,0.0,0.0,0.0,30.0,31.0,29.0,31.0,30.0,31.0,30.0,31.0,0.0,0.0,7.0,3.3,0.0,29.4,1.0,4.998,0.0,0.0,0.653,0.941,0.0,27.4,0.0,0.0,0.0,,0.0,95.0,80.6,0.0,0.0,0.0,0.0,86.0,87.8,84.2,87.8,86.0,87.8,86.0,87.8,0.0,0.0,81.32,0.0,85.55,-9.450000000000003,-13.680000000000007,0.004833333333333335,2.108333333333334,0.0,395.6,True,2026-05-20 14:26:46-07:00
59.06,1,10,2026-05-20 21:27:40,37.08174,-121.59966,415.0,0.0,336.1,-12.6,0.0,0.0,0.0,0.0,0.0,10.7,-0.6,0.5,0.0,297.0,-0.0,-0.01,1.0,99.0,-40.0,35.0,0.0,29.95,2793.0,0.0,0.0,319.0,0.0,0.0,0.0,0.0,0.0,0.0,0.0,0.0,0.0,0.0,0.0,0.0,0.0,0.0,0.0,0.0,0.0,0.0,0.0,0.0,0.0,0.0,0.0,0.0,0.0,27.0,0.0,0.0,29.9,0.0,0.0,0.0,29.3,0.0,0.0,32.6,0.0,0.0,-0.1,15.5,12.8,0.0,0.0,0.0,0.0,30.0,31.0,29.0,31.0,30.0,31.0,30.0,31.0,0.0,0.0,7.0,2.8,0.0,29.3,1.0,4.998,0.0,0.0,0.653,0.944,0.0,27.4,0.0,0.0,0.0,,0.0,95.0,80.6,0.0,0.0,0.0,0.0,86.0,87.8,84.2,87.8,86.0,87.8,86.0,87.8,0.0,0.0,81.32,0.0,85.55,-9.450000000000003,-13.680000000000007,0.004833333333333335,2.108333333333334,0.0,395.6,True,2026-05-20 14:26:46-07:00
60.06,1,10,2026-05-20 21:27:41,37.08174,-121.59966,414.0,0.0,336.1,-12.6,0.0,0.0,0.0,0.0,0.0,10.7,-0.6,0.5,0.0,297.0,-0.0,-0.01,1.0,99.0,-44.0,35.0,0.0,29.95,2793.0,0.0,0.0,319.0,0.0,0.0,0.0,0.0,0.0,0.0,0.0,0.0,0.0,0.0,0.0,0.0,0.0,0.0,0.0,0.0,0.0,0.0,0.0,0.0,0.0,0.0,0.0,0.0,0.0,27.0,0.0,0.0,29.9,0.0,0.0,0.0,29.2,0.0,0.0,32.6,0.0,0.0,-0.1,15.5,12.8,0.0,0.0,0.0,0.0,30.0,31.0,29.0,31.0,30.0,31.0,30.0,31.0,0.0,0.0,7.0,2.4,0.0,29.2,1.0,4.998,0.0,0.0,0.654,0.936,0.0,27.4,0.0,0.0,0.0,,0.0,95.0,80.6,0.0,0.0,0.0,0.0,86.0,87.8,84.2,87.8,86.0,87.8,86.0,87.8,0.0,0.0,81.32,0.0,85.55,-9.450000000000003,-13.680000000000007,0.004833333333333335,2.108333333333334,0.0,395.6,True,2026-05-20 14:26:46-07:00
61.06,1,10,2026-05-20 21:27:42,37.08173,-121.59966,415.0,0.0,336.1,-12.6,0.0,0.0,0.0,0.0,0.0,10.7,-0.6,0.6,0.0,297.0,-0.0,-0.01,1.0,99.0,-32.0,35.0,0.0,29.95,2793.0,0.0,0.0,319.0,0.0,0.0,0.0,0.0,0.0,0.0,0.0,0.0,0.0,0.0,0.0,0.0,0.0,0.0,0.0,0.0,0.0,0.0,0.0,0.0,0.0,0.0,0.0,0.0,0.0,24.0,0.0,0.0,29.9,0.0,0.0,0.0,29.2,0.0,0.0,32.6,0.0,0.0,-0.1,15.5,12.8,0.0,0.0,0.0,0.0,28.0,29.0,28.0,29.0,28.0,29.0,28.0,30.0,0.0,0.0,6.0,2.1,0.0,29.2,1.0,4.998,0.0,0.0,0.653,0.931,0.0,23.7,0.0,0.0,0.0,,0.0,95.0,75.2,0.0,0.0,0.0,0.0,82.4,84.2,82.4,84.2,82.4,84.2,82.4,86.0,0.0,0.0,74.66,0.0,82.4,-12.599999999999994,-20.340000000000003,0.004833333333333335,2.108333333333334,0.0,395.6,True,2026-05-20 14:26:46-07:00
62.06,1,10,2026-05-20 21:27:43,37.08173,-121.59966,415.0,0.0,336.1,-12.6,0.0,0.0,0.0,0.0,0.0,10.7,-0.8,0.7,0.0,297.0,-0.0,-0.01,0.9,99.0,-55.0,35.0,0.0,29.95,2793.0,0.0,0.0,319.0,0.0,0.0,0.0,0.0,0.0,0.0,0.0,0.0,0.0,0.0,0.0,0.0,0.0,0.0,0.0,0.0,0.0,0.0,0.0,0.0,0.0,0.0,0.0,0.0,0.0,25.0,531.0,531.0,28.9,0.1,0.0,0.1,28.8,0.0,0.0,32.6,0.0,0.0,-0.2,15.5,12.8,0.0,0.0,0.0,0.0,29.0,38.0,29.0,46.0,29.0,31.0,29.0,39.0,0.0,0.0,11.0,1.8,0.0,28.8,1.0,4.998,0.0,0.0,0.654,0.92,0.2,25.5,0.0,0.0,0.0,,0.0,95.0,77.0,0.0,0.0,0.0,0.0,84.2,100.4,84.2,114.8,84.2,87.8,84.2,102.2,0.0,0.0,77.9,531.0,84.2,-10.799999999999997,-17.099999999999994,0.004847222222222224,2.108333333333334,0.0,395.6,True,2026-05-20 14:26:46-07:00
63.06,1,10,2026-05-20 21:27:44,37.08167,-121.59962,427.0,0.1,336.1,-12.6,0.0,0.0,0.0,0.0,0.0,10.6,-0.6,0.7,0.0,297.0,-0.0,-0.01,0.9,99.0,-17.0,36.0,0.0,29.95,2795.0,0.0,0.0,319.0,0.0,0.0,0.0,0.0,0.0,0.0,0.0,0.0,0.0,0.0,0.0,0.0,0.0,0.0,0.0,0.0,0.0,0.0,0.0,0.0,0.0,0.0,0.0,0.0,5.0,27.0,1191.0,1191.0,19.9,1.2,0.0,1.2,23.7,0.0,0.0,32.6,0.0,0.0,-0.2,15.5,12.8,0.0,0.0,0.0,0.0,30.0,102.0,30.0,88.0,30.0,93.0,30.0,102.0,0.0,0.0,11.0,1.6,0.0,23.7,1.0,4.998,0.0,0.0,0.654,0.93,4.9,27.4,0.0,0.0,3.0,P,0.0,96.8,80.6,0.0,0.0,0.0,0.0,86.0,215.6,86.0,190.4,86.0,199.4,86.0,215.6,0.0,0.0,81.32,1191.0,86.0,-10.799999999999997,-15.480000000000004,0.0050277777777777794,2.192666666666667,0.08333333333333334,395.6,True,2026-05-20 14:26:46-07:00
64.06,1,10,2026-05-20 21:27:45,37.08173,-121.59959,451.0,0.0,336.1,-12.6,0.0,0.0,0.0,0.0,0.0,10.7,-0.5,0.6,0.0,296.0,-0.0,-0.01,1.0,99.0,-58.0,36.0,0.0,29.95,2795.0,0.0,0.0,319.0,0.0,0.0,0.0,0.0,0.0,0.0,0.0,0.0,0.0,0.0,0.0,0.0,0.0,0.0,0.0,0.0,0.0,0.0,0.0,0.0,0.0,0.0,0.0,0.0,6.0,27.0,1324.0,1324.0,17.0,1.9,0.0,1.9,24.3,0.0,0.0,32.6,0.0,0.0,-0.2,15.5,12.8,0.0,0.0,0.0,0.0,30.0,170.0,30.0,150.0,30.0,153.0,30.0,157.0,0.0,0.0,11.0,1.5,0.0,24.3,1.0,4.998,0.0,0.0,0.654,0.907,5.6,27.3,0.0,0.0,0.0,,0.0,96.8,80.6,0.0,0.0,0.0,0.0,86.0,338.0,86.0,302.0,86.0,307.4,86.0,314.6,0.0,0.0,81.14,1324.0,86.0,-10.799999999999997,-15.659999999999997,0.005458333333333335,2.2770000000000006,0.0,395.6,True,2026-05-20 14:26:46-07:00
65.06,1,10,2026-05-20 21:27:46,37.08173,-121.59959,450.0,0.1,336.1,-12.6,0.0,0.0,0.0,0.0,0.0,10.7,-0.5,0.6,0.0,294.0,-0.1,-0.01,1.0,99.0,-78.0,36.0,0.0,29.95,2795.0,0.0,0.0,319.0,0.0,0.0,0.0,0.0,0.0,0.0,0.0,0.0,0.0,0.0,0.0,0.0,0.0,0.0,0.0,0.0,0.0,0.0,0.0,0.0,0.0,0.0,0.0,0.0,12.0,27.0,1102.0,1102.0,16.2,2.0,0.0,2.0,25.1,0.0,0.0,32.6,0.0,0.0,-0.2,15.5,12.8,0.0,0.0,0.0,0.0,30.0,228.0,30.0,202.0,31.0,198.0,30.0,218.0,0.0,0.0,11.0,1.4,0.0,25.1,1.0,4.998,0.0,0.0,0.652,0.912,11.6,27.2,0.0,0.0,0.0,,0.0,96.8,80.6,0.0,0.0,0.0,0.0,86.0,442.4,86.0,395.6,87.8,388.4,86.0,424.4,0.0,0.0,80.96,1102.0,86.45,-10.349999999999994,-15.840000000000003,0.006000000000000002,2.3613333333333335,0.05,395.6,True,2026-05-20 14:26:46-07:00
66.06,1,10,2026-05-20 21:27:47,37.08175,-121.5996,435.0,0.0,336.1,-12.6,0.0,0.0,0.0,0.0,0.0,10.7,-0.5,0.6,0.0,294.0,-0.0,-0.02,0.9,99.0,-42.0,36.0,0.0,29.95,2804.0,0.0,0.0,319.0,0.0,0.0,0.0,0.0,0.0,0.0,0.0,0.0,0.0,0.0,0.0,0.0,0.0,0.0,0.0,0.0,0.0,0.0,0.0,0.0,0.0,0.0,0.0,0.0,18.0,27.0,482.0,482.0,23.2,2.1,0.0,2.1,24.2,0.0,0.0,32.6,0.0,0.0,-0.2,15.5,12.8,0.0,0.0,0.0,0.0,31.0,212.0,30.0,243.0,31.0,183.0,31.0,238.0,0.0,0.0,11.0,1.3,0.0,24.2,1.0,4.998,0.0,0.0,0.654,0.907,18.4,27.1,0.0,0.0,0.0,,0.0,96.8,80.6,0.0,0.0,0.0,0.0,87.8,413.6,86.0,469.4,87.8,361.4,87.8,460.4,0.0,0.0,80.78,482.0,87.35000000000001,-9.449999999999989,-16.019999999999996,0.006569444444444446,2.445666666666667,0.0,395.6,True,2026-05-20 14:26:46-07:00
67.06,1,10,2026-05-20 21:27:48,37.08176,-121.59961,431.0,0.1,336.1,-12.6,0.0,0.0,0.0,0.0,0.0,10.7,-0.7,0.6,0.0,294.0,-0.0,-0.02,1.0,99.0,-31.0,36.0,0.0,29.95,2804.0,0.0,0.0,319.0,0.0,0.0,0.0,0.0,0.0,0.0,0.0,0.0,0.0,0.0,0.0,0.0,0.0,0.0,0.0,0.0,0.0,0.0,0.0,0.0,0.0,0.0,0.0,0.0,27.0,27.0,1277.0,1277.0,21.7,2.7,0.0,2.7,24.8,0.0,0.0,32.6,0.0,0.0,-0.2,15.5,12.8,0.0,0.0,0.0,0.0,31.0,230.0,31.0,272.0,31.0,199.0,31.0,256.0,0.0,0.0,11.0,1.2,0.0,24.8,1.0,4.998,0.0,0.0,0.654,0.89,26.7,27.1,0.0,0.0,12.0,P,0.0,96.8,80.6,0.0,0.0,0.0,0.0,87.8,446.0,87.8,521.6,87.8,390.2,87.8,492.8,0.0,0.0,80.78,1277.0,87.8,-9.0,-16.019999999999996,0.007236111111111113,2.5300000000000002,0.037037037037037035,395.6,True,2026-05-20 14:26:46-07:00
68.06,1,10,2026-05-20 21:27:49,37.08174,-121.59959,434.0,0.0,336.1,-12.6,0.0,0.0,0.0,0.0,0.0,10.6,-0.6,0.5,0.0,294.0,-0.0,-0.01,1.0,99.0,-47.0,36.0,0.0,29.95,2804.0,0.0,0.0,319.0,0.0,0.0,0.0,0.0,0.0,0.0,0.0,0.0,0.0,0.0,0.0,0.0,0.0,0.0,0.0,0.0,0.0,0.0,0.0,0.0,0.0,0.0,0.0,0.0,44.0,27.0,1393.0,1393.0,16.8,2.9,0.0,2.9,25.4,0.0,0.0,32.6,0.0,0.0,-0.2,15.5,12.8,0.0,0.0,0.0,0.0,31.0,276.0,31.0,309.0,31.0,249.0,31.0,295.0,0.0,0.0,11.0,1.2,0.0,25.4,1.0,4.998,0.0,0.0,0.654,0.892,44.1,27.0,0.0,0.0,0.0,,0.0,96.8,80.6,0.0,0.0,0.0,0.0,87.8,528.8,87.8,588.2,87.8,480.2,87.8,563.0,0.0,0.0,80.6,1393.0,87.8,-9.0,-16.200000000000003,0.008013888888888892,2.6143333333333336,0.0,395.6,True,2026-05-20 14:26:46-07:00
69.06,1,10,2026-05-20 21:27:50,37.08174,-121.59959,433.0,0.1,336.1,-12.6,0.0,0.0,0.0,0.0,0.0,10.6,-0.6,0.5,0.0,293.0,-0.1,-0.01,1.0,99.0,-31.0,36.0,0.0,29.95,2814.0,0.0,0.0,319.0,0.0,0.0,0.0,0.0,0.0,0.0,0.0,0.0,0.0,0.0,0.0,0.0,0.0,0.0,0.0,0.0,0.0,0.0,0.0,0.0,0.0,0.0,0.0,0.0,67.0,27.0,1331.0,1331.0,15.1,2.9,0.0,2.9,25.6,0.0,0.0,32.6,0.0,0.0,-0.2,15.5,12.8,0.0,0.0,0.0,0.0,31.0,317.0,31.0,343.0,32.0,298.0,31.0,340.0,0.0,0.0,11.0,1.1,0.0,25.6,1.0,4.998,0.0,0.0,0.654,0.889,66.6,26.9,0.0,0.0,0.0,,0.0,96.8,80.6,0.0,0.0,0.0,0.0,87.8,602.6,87.8,649.4,89.6,568.4,87.8,644.0,0.0,0.0,80.42,1331.0,88.25,-8.549999999999997,-16.379999999999995,0.008819444444444446,2.698666666666667,0.034482758620689655,395.6,True,2026-05-20 14:26:46-07:00
70.06,1,10,2026-05-20 21:27:51,37.08174,-121.59959,432.0,0.0,336.1,-12.6,0.0,0.0,0.0,0.0,0.0,10.7,-0.6,0.5,0.0,293.0,-0.0,-0.01,1.0,99.0,-47.0,36.0,0.0,29.95,2814.0,0.0,0.0,319.0,0.0,0.0,0.0,0.0,0.0,0.0,0.0,0.0,0.0,0.0,0.0,0.0,0.0,0.0,0.0,0.0,0.0,0.0,0.0,0.0,0.0,0.0,0.0,0.0,72.0,27.0,1040.0,1040.0,13.2,2.7,0.0,2.7,25.6,0.0,0.0,32.6,0.0,0.0,-0.2,15.5,12.8,0.0,0.0,0.0,0.0,32.0,343.0,32.0,367.0,32.0,330.0,32.0,362.0,0.0,0.0,10.0,1.1,0.0,25.6,1.0,4.998,0.0,0.0,0.654,0.901,71.6,26.9,0.0,0.0,0.0,,0.0,96.8,80.6,0.0,0.0,0.0,0.0,89.6,649.4,89.6,692.6,89.6,626.0,89.6,683.6,0.0,0.0,80.42,1040.0,89.6,-7.200000000000003,-16.379999999999995,0.009597222222222224,2.7830000000000004,0.0,395.6,True,2026-05-20 14:26:46-07:00
71.06,1,10,2026-05-20 21:27:52,37.08174,-121.59959,432.0,0.0,336.1,-12.6,0.0,0.0,0.0,0.0,0.0,10.7,-0.6,0.5,0.0,292.0,-0.0,-0.01,0.9,99.0,-23.0,36.0,0.0,29.95,2814.0,0.0,0.0,319.0,0.0,0.0,0.0,0.0,0.0,0.0,0.0,0.0,0.0,0.0,0.0,0.0,0.0,0.0,0.0,0.0,0.0,0.0,0.0,0.0,0.0,0.0,0.0,0.0,71.0,27.0,995.0,995.0,13.2,2.5,0.0,2.5,25.6,0.0,0.0,32.6,0.0,0.0,-0.2,15.5,12.8,0.0,0.0,0.0,0.0,32.0,361.0,32.0,385.0,33.0,360.0,32.0,379.0,0.0,0.0,11.0,1.1,0.0,25.6,1.0,4.998,0.0,0.0,0.654,0.936,70.8,26.9,0.0,0.0,0.0,,0.0,96.8,80.6,0.0,0.0,0.0,0.0,89.6,681.8,89.6,725.0,91.4,680.0,89.6,714.2,0.0,0.0,80.42,995.0,90.05000000000001,-6.749999999999986,-16.379999999999995,0.010319444444444447,2.7830000000000004,0.0,395.6,True,2026-05-20 14:26:46-07:00
72.06,1,10,2026-05-20 21:27:53,37.08174,-121.59959,431.0,0.0,336.1,-12.6,0.0,0.0,0.0,0.0,0.0,10.7,-0.6,0.5,0.0,292.0,-0.0,-0.01,0.9,99.0,-8.0,36.0,0.0,29.95,2824.0,0.0,0.0,319.0,0.0,0.0,0.0,0.0,0.0,0.0,0.0,0.0,0.0,0.0,0.0,0.0,0.0,0.0,0.0,0.0,0.0,0.0,0.0,0.0,0.0,0.0,0.0,0.0,70.0,27.0,960.0,960.0,13.4,2.4,0.0,2.4,25.6,0.0,0.0,32.6,0.0,0.0,-0.2,15.5,12.8,0.0,0.0,0.0,0.0,33.0,376.0,33.0,400.0,33.0,382.0,33.0,394.0,0.0,0.0,11.0,1.0,0.0,25.6,1.0,4.998,0.0,0.0,0.653,0.913,69.8,26.9,0.0,0.0,0.0,,0.0,96.8,80.6,0.0,0.0,0.0,0.0,91.4,708.8,91.4,752.0,91.4,719.6,91.4,741.2,0.0,0.0,80.42,960.0,91.4,-5.3999999999999915,-16.379999999999995,0.011000000000000003,2.7830000000000004,0.0,395.6,True,2026-05-20 14:26:46-07:00
73.06,1,10,2026-05-20 21:27:54,37.08174,-121.59959,431.0,0.0,336.1,-12.6,0.0,0.0,0.0,0.0,0.0,10.7,-0.6,0.5,0.0,292.0,-0.0,-0.01,1.0,99.0,2.0,36.0,0.0,29.95,2824.0,0.0,0.0,319.0,0.0,0.0,0.0,0.0,0.0,0.0,0.0,0.0,0.0,0.0,0.0,0.0,0.0,0.0,0.0,0.0,0.0,0.0,0.0,0.0,0.0,0.0,0.0,0.0,69.0,28.0,921.0,921.0,13.7,2.4,0.0,2.4,25.7,0.0,0.0,32.6,0.0,0.0,12.3,15.5,12.8,0.0,0.0,0.0,0.0,34.0,390.0,34.0,413.0,34.0,397.0,33.0,408.0,0.0,0.0,11.0,1.0,0.0,25.7,1.0,4.998,0.0,0.0,0.654,0.946,69.2,28.2,0.0,0.0,0.0,,0.0,96.8,82.4,0.0,0.0,0.0,0.0,93.2,734.0,93.2,775.4,93.2,746.6,91.4,766.4,0.0,0.0,82.75999999999999,921.0,92.75,-4.049999999999997,-14.040000000000006,0.011666666666666669,2.7830000000000004,0.0,395.6,True,2026-05-20 14:26:46-07:00
74.06,1,10,2026-05-20 21:27:55,37.08174,-121.59959,430.0,0.1,336.1,-12.6,0.0,0.0,0.0,0.0,0.0,10.7,-0.6,0.4,0.0,292.0,-0.0,-0.01,1.0,99.0,20.0,36.0,0.0,29.95,2836.0,0.0,0.0,319.0,0.0,0.0,0.0,0.0,0.0,0.0,0.0,0.0,0.0,0.0,0.0,0.0,0.0,0.0,0.0,0.0,0.0,0.0,0.0,0.0,0.0,0.0,0.0,0.0,68.0,28.0,899.0,899.0,14.3,2.3,0.0,2.3,25.6,0.0,0.0,32.6,0.0,0.0,31.3,15.5,12.8,0.0,0.0,0.0,0.0,34.0,400.0,34.0,424.0,34.0,409.0,34.0,418.0,0.0,0.0,10.0,1.0,0.0,25.6,1.0,4.998,0.0,0.0,0.654,0.945,68.0,28.2,0.0,0.0,0.0,,0.0,96.8,82.4,0.0,0.0,0.0,0.0,93.2,752.0,93.2,795.2,93.2,768.2,93.2,784.4,0.0,0.0,82.75999999999999,899.0,93.2,-3.5999999999999943,-14.040000000000006,0.012319444444444447,2.8673333333333337,0.04347826086956522,395.6,True,2026-05-20 14:26:46-07:00
75.06,1,10,2026-05-20 21:27:56,37.08174,-121.59959,430.0,0.1,336.1,-12.6,0.0,0.0,0.0,0.0,0.0,10.7,-0.6,0.4,0.0,292.0,-0.0,-0.01,1.0,99.0,-5.0,36.0,0.0,29.95,2836.0,0.0,0.0,319.0,0.0,0.0,0.0,0.0,0.0,0.0,0.0,0.0,0.0,0.0,0.0,0.0,0.0,0.0,0.0,0.0,0.0,0.0,0.0,0.0,0.0,0.0,0.0,0.0,67.0,28.0,917.0,917.0,14.7,2.2,0.0,2.2,25.8,0.0,0.0,32.6,0.0,0.0,42.3,15.5,12.8,0.0,0.0,0.0,0.0,34.0,410.0,34.0,433.0,34.0,418.0,34.0,427.0,0.0,0.0,10.0,1.0,0.0,25.8,1.0,4.998,0.0,0.0,0.654,0.945,67.2,28.2,0.0,0.0,0.0,,0.0,96.8,82.4,0.0,0.0,0.0,0.0,93.2,770.0,93.2,811.4,93.2,784.4,93.2,800.6,0.0,0.0,82.75999999999999,917.0,93.2,-3.5999999999999943,-14.040000000000006,0.012944444444444446,3.0360000000000005,0.045454545454545456,395.6,True,2026-05-20 14:26:46-07:00
76.06,1,10,2026-05-20 21:27:57,37.08174,-121.59959,429.0,0.1,336.1,-12.6,0.0,0.0,0.0,0.0,0.0,10.6,-0.6,0.4,0.0,292.0,-0.0,-0.01,1.0,99.0,-1.0,36.0,0.0,29.95,2836.0,0.0,0.0,319.0,0.0,0.0,0.0,0.0,0.0,0.0,0.0,0.0,0.0,0.0,0.0,0.0,0.0,0.0,0.0,0.0,0.0,0.0,0.0,0.0,0.0,0.0,0.0,0.0,68.0,28.0,939.0,939.0,14.6,2.1,0.0,2.1,25.8,0.0,0.0,32.6,0.0,0.0,49.5,15.5,12.8,0.0,0.0,0.0,0.0,35.0,418.0,35.0,440.0,35.0,431.0,35.0,438.0,0.0,0.0,11.0,1.0,0.0,25.8,1.0,4.998,0.0,0.0,0.653,0.968,67.6,28.2,0.0,0.0,0.0,,0.0,96.8,82.4,0.0,0.0,0.0,0.0,95.0,784.4,95.0,824.0,95.0,807.8,95.0,820.4,0.0,0.0,82.75999999999999,939.0,95.0,-1.7999999999999972,-14.040000000000006,0.013541666666666669,3.204666666666667,0.047619047619047616,395.6,True,2026-05-20 14:26:46-07:00
77.06,1,10,2026-05-20 21:27:58,37.08174,-121.59959,428.0,0.1,336.1,-12.6,0.0,0.0,0.0,0.0,0.0,10.6,-0.6,0.4,0.0,292.0,-0.0,-0.01,1.0,99.0,-18.0,36.0,0.0,29.95,2846.0,0.0,0.0,319.0,0.0,0.0,0.0,0.0,0.0,0.0,0.0,0.0,0.0,0.0,0.0,0.0,0.0,0.0,0.0,0.0,0.0,0.0,0.0,0.0,0.0,0.0,0.0,0.0,68.0,28.0,931.0,931.0,14.2,2.0,0.0,2.0,25.8,0.0,0.0,32.6,0.0,0.0,54.0,15.5,12.8,0.0,0.0,0.0,0.0,35.0,426.0,35.0,445.0,35.0,443.0,36.0,449.0,0.0,0.0,10.0,1.0,0.0,25.8,1.0,4.998,0.0,0.0,0.653,0.968,67.9,28.2,0.0,0.0,0.0,,0.0,96.8,82.4,0.0,0.0,0.0,0.0,95.0,798.8,95.0,833.0,95.0,829.4,96.8,840.2,0.0,0.0,82.75999999999999,931.0,95.45,-1.3499999999999943,-14.040000000000006,0.014111111111111112,3.3733333333333335,0.05,395.6,True,2026-05-20 14:26:46-07:00
78.06,1,10,2026-05-20 21:27:59,37.08174,-121.59959,428.0,0.0,336.1,-12.6,0.0,0.0,0.0,0.0,0.0,10.6,-0.5,0.4,0.0,292.0,-0.0,-0.01,1.0,99.0,5.0,36.0,0.0,29.95,2848.0,0.0,0.0,319.0,0.0,0.0,0.0,0.0,0.0,0.0,0.0,0.0,0.0,0.0,0.0,0.0,0.0,0.0,0.0,0.0,0.0,0.0,0.0,0.0,0.0,0.0,0.0,0.0,67.0,28.0,865.0,865.0,14.2,1.9,0.0,1.9,25.8,0.0,0.0,32.6,0.0,0.0,55.8,15.5,12.8,0.0,0.0,0.0,0.0,36.0,433.0,36.0,450.0,36.0,455.0,36.0,461.0,0.0,0.0,10.0,1.0,0.0,25.8,1.0,4.998,0.0,0.0,0.654,0.968,67.1,28.1,0.0,0.0,0.0,,0.0,96.8,82.4,0.0,0.0,0.0,0.0,96.8,811.4,96.8,842.0,96.8,851.0,96.8,861.8,0.0,0.0,82.58,865.0,96.8,0.0,-14.219999999999999,0.01465277777777778,3.457666666666667,0.0,395.6,True,2026-05-20 14:26:46-07:00
79.06,1,10,2026-05-20 21:28:00,37.08174,-121.59959,427.0,0.0,336.1,-12.6,0.0,0.0,0.0,0.0,0.0,10.6,-0.5,0.5,0.0,292.0,-0.0,-0.01,1.0,99.0,12.0,36.0,0.0,29.95,2848.0,0.0,0.0,319.0,0.0,0.0,0.0,0.0,0.0,0.0,0.0,0.0,0.0,0.0,0.0,0.0,0.0,0.0,0.0,0.0,0.0,0.0,0.0,0.0,0.0,0.0,0.0,0.0,65.0,28.0,819.0,819.0,14.7,1.8,0.0,1.8,25.8,0.0,0.0,32.6,0.0,0.0,55.2,15.5,12.8,0.0,0.0,0.0,0.0,36.0,437.0,36.0,454.0,36.0,459.0,37.0,471.0,0.0,0.0,10.0,1.0,0.0,25.8,1.0,4.998,0.0,0.0,0.654,0.98,65.5,28.0,0.0,0.0,0.0,,0.0,96.8,82.4,0.0,0.0,0.0,0.0,96.8,818.6,96.8,849.2,96.8,858.2,98.6,879.8,0.0,0.0,82.4,819.0,97.25,0.45000000000000284,-14.399999999999991,0.015166666666666669,3.457666666666667,0.0,395.6,True,2026-05-20 14:26:46-07:00
80.06,1,10,2026-05-20 21:28:01,37.08174,-121.59959,427.0,0.0,336.1,-12.6,0.0,0.0,0.0,0.0,0.0,10.7,-0.5,0.5,0.0,292.0,-0.0,-0.01,1.0,99.0,51.0,36.0,0.0,29.95,2848.0,0.0,0.0,319.0,0.0,0.0,0.0,0.0,0.0,0.0,0.0,0.0,0.0,0.0,0.0,0.0,0.0,0.0,0.0,0.0,0.0,0.0,0.0,0.0,0.0,0.0,0.0,0.0,66.0,28.0,883.0,883.0,14.9,1.8,0.0,1.8,25.9,0.0,0.0,32.6,0.0,0.0,55.4,15.5,12.8,0.0,0.0,0.0,0.0,36.0,444.0,37.0,457.0,36.0,471.0,37.0,476.0,0.0,0.0,10.0,1.0,0.0,25.9,1.0,4.998,0.0,0.0,0.654,0.969,65.6,28.1,0.0,0.0,0.0,,0.0,96.8,82.4,0.0,0.0,0.0,0.0,96.8,831.2,98.6,854.6,96.8,879.8,98.6,888.8,0.0,0.0,82.58,883.0,97.7,0.9000000000000057,-14.219999999999999,0.01566666666666667,3.457666666666667,0.0,395.6,True,2026-05-20 14:26:46-07:00
81.06,1,10,2026-05-20 21:28:02,37.08175,-121.59959,426.0,0.1,336.1,-12.6,0.0,0.0,0.0,0.0,0.0,10.7,-0.5,0.5,0.0,292.0,-0.0,-0.01,1.0,99.0,50.0,36.0,0.0,29.95,2858.0,0.0,0.0,319.0,0.0,0.0,0.0,0.0,0.0,0.0,0.0,0.0,0.0,0.0,0.0,0.0,0.0,0.0,0.0,0.0,0.0,0.0,0.0,0.0,0.0,0.0,0.0,0.0,66.0,28.0,870.0,870.0,14.7,1.7,0.0,1.7,25.9,0.0,0.0,32.6,0.0,0.0,55.9,15.5,12.8,0.0,0.0,0.0,0.0,37.0,448.0,37.0,461.0,37.0,481.0,37.0,483.0,0.0,0.0,11.0,1.0,0.0,25.9,1.0,4.998,0.0,0.0,0.653,0.977,66.0,28.1,0.0,0.0,0.0,,0.0,96.8,82.4,0.0,0.0,0.0,0.0,98.6,838.4,98.6,861.8,98.6,897.8,98.6,901.4,0.0,0.0,82.58,870.0,98.6,1.7999999999999972,-14.219999999999999,0.01615277777777778,3.5420000000000003,0.05882352941176471,395.6,True,2026-05-20 14:26:46-07:00
82.06,1,10,2026-05-20 21:28:03,37.08175,-121.59959,426.0,0.1,336.1,-12.6,0.0,0.0,0.0,0.0,0.0,10.7,-0.6,0.5,0.0,292.0,-0.0,-0.01,1.0,99.0,31.0,36.0,0.0,29.95,2860.0,0.0,0.0,319.0,0.0,0.0,0.0,0.0,0.0,0.0,0.0,0.0,0.0,0.0,0.0,0.0,0.0,0.0,0.0,0.0,0.0,0.0,0.0,0.0,0.0,0.0,0.0,0.0,66.0,28.0,884.0,884.0,14.5,1.7,0.0,1.7,25.9,0.0,0.0,32.6,0.0,0.0,54.5,15.5,12.8,0.0,0.0,0.0,0.0,37.0,454.0,38.0,465.0,37.0,490.0,38.0,485.0,0.0,0.0,11.0,1.0,0.0,25.9,1.0,4.998,0.0,0.0,0.654,0.972,66.0,28.0,0.0,0.0,0.0,,0.0,96.8,82.4,0.0,0.0,0.0,0.0,98.6,849.2,100.4,869.0,98.6,914.0,100.4,905.0,0.0,0.0,82.4,884.0,99.5,2.700000000000003,-14.399999999999991,0.016625,3.710666666666667,0.05882352941176471,395.6,True,2026-05-20 14:26:46-07:00
83.06,1,10,2026-05-20 21:28:04,37.08175,-121.59959,425.0,0.0,336.1,-12.6,0.0,0.0,0.0,0.0,0.0,10.6,-0.6,0.5,0.0,292.0,-0.0,-0.01,1.0,99.0,48.0,36.0,0.0,29.95,2860.0,0.0,0.0,319.0,0.0,0.0,0.0,0.0,0.0,0.0,0.0,0.0,0.0,0.0,0.0,0.0,0.0,0.0,0.0,0.0,0.0,0.0,0.0,0.0,0.0,0.0,0.0,0.0,66.0,28.0,904.0,904.0,14.7,1.7,0.0,1.7,25.9,0.0,0.0,32.6,0.0,0.0,49.3,15.5,12.8,0.0,0.0,0.0,0.0,38.0,458.0,38.0,468.0,38.0,493.0,38.0,497.0,0.0,0.0,11.0,1.0,0.0,25.9,1.0,4.998,0.0,0.0,0.654,0.922,65.8,27.8,0.0,0.0,0.0,,0.0,96.8,82.4,0.0,0.0,0.0,0.0,100.4,856.4,100.4,874.4,100.4,919.4,100.4,926.6,0.0,0.0,82.04,904.0,100.4,3.6000000000000085,-14.759999999999991,0.017097222222222225,3.7950000000000004,0.0,395.6,True,2026-05-20 14:26:46-07:00
84.06,1,10,2026-05-20 21:28:05,37.08175,-121.59959,424.0,0.0,336.1,-12.6,0.0,0.0,0.0,0.0,0.0,10.6,-0.5,0.5,0.0,292.0,-0.0,-0.01,1.0,99.0,31.0,36.0,0.0,29.95,2860.0,0.0,0.0,319.0,0.0,0.0,0.0,0.0,0.0,0.0,0.0,0.0,0.0,0.0,0.0,0.0,0.0,0.0,0.0,-10.0,0.0,0.0,0.0,0.0,0.0,0.0,0.0,0.0,67.0,28.0,919.0,919.0,14.3,1.7,0.0,1.7,26.0,0.0,0.0,32.6,0.0,0.0,43.4,15.5,12.8,0.0,0.0,0.0,0.0,38.0,462.0,38.0,470.0,38.0,495.0,39.0,501.0,0.0,0.0,11.0,0.0,0.0,26.0,1.0,4.998,0.0,0.0,0.654,0.901,66.6,27.7,0.0,0.0,0.0,,0.0,96.8,82.4,0.0,0.0,0.0,0.0,100.4,863.6,100.4,878.0,100.4,923.0,102.2,933.8,0.0,0.0,81.86,919.0,100.85,4.049999999999997,-14.939999999999998,0.017569444444444447,3.7950000000000004,0.0,395.6,True,2026-05-20 14:26:46-07:00
85.06,1,10,2026-05-20 21:28:06,37.08175,-121.59959,424.0,0.1,336.1,-12.6,0.0,0.0,0.0,0.0,0.0,10.6,-0.5,0.5,0.0,292.0,-0.0,-0.01,1.0,99.0,7.0,36.0,0.0,29.95,2869.0,0.0,0.0,319.0,0.0,0.0,0.0,0.0,0.0,0.0,0.0,0.0,0.0,0.0,0.0,0.0,0.0,0.0,0.0,-16.0,0.0,0.0,0.0,0.0,0.0,0.0,0.0,0.0,67.0,28.0,889.0,889.0,14.0,1.7,0.0,1.7,25.9,0.0,0.0,32.6,0.0,0.0,37.9,15.5,12.8,0.0,0.0,0.0,0.0,38.0,466.0,39.0,473.0,38.0,502.0,39.0,506.0,0.0,0.0,11.0,0.0,0.0,25.9,1.0,4.998,0.0,0.0,0.653,0.901,67.1,27.7,0.0,0.0,0.0,,0.0,96.8,82.4,0.0,0.0,0.0,0.0,100.4,870.8,102.2,883.4,100.4,935.6,102.2,942.8,0.0,0.0,81.86,889.0,101.30000000000001,4.500000000000014,-14.939999999999998,0.018041666666666668,3.8793333333333337,0.05882352941176471,395.6,True,2026-05-20 14:26:46-07:00
86.06,1,10,2026-05-20 21:28:07,37.08175,-121.59959,423.0,0.0,336.1,-12.6,0.0,0.0,0.0,0.0,0.0,10.6,-0.6,0.5,0.0,292.0,-0.0,-0.01,1.0,99.0,-32.0,36.0,0.0,29.95,2869.0,0.0,0.0,319.0,0.0,0.0,0.0,0.0,0.0,0.0,0.0,0.0,0.0,0.0,0.0,0.0,0.0,0.0,0.0,-25.0,0.0,0.0,0.0,0.0,0.0,0.0,0.0,0.0,67.0,28.0,907.0,907.0,14.4,1.7,0.0,1.7,26.0,0.0,0.0,32.6,0.0,0.0,33.0,15.5,12.8,0.0,0.0,0.0,0.0,39.0,469.0,39.0,477.0,39.0,507.0,40.0,509.0,0.0,0.0,11.0,0.0,0.0,26.0,1.0,4.998,0.0,0.0,0.654,0.916,66.5,27.6,0.0,0.0,0.0,,0.0,96.8,82.4,0.0,0.0,0.0,0.0,102.2,876.2,102.2,890.6,102.2,944.6,104.0,948.2,0.0,0.0,81.68,907.0,102.64999999999999,5.849999999999994,-15.11999999999999,0.018513888888888892,3.963666666666667,0.0,395.6,True,2026-05-20 14:26:46-07:00
