Session Time,GPS Fix Quality,Number of Satellites,GPS Date & Time,Latitude (deg),Longitude (deg),GPS Altitude (feet),Ground Speed (knots),Ground Track (deg),Mag Var (deg),Cross Track Error (NM),Destination Waypoint ID,Range to Destination (NM),Bearing to Destination (deg),System Time,Pitch (deg),Roll (deg),Magnetic Heading (deg),Indicated Airspeed (knots),Pressure Altitude (ft),Turn Rate (deg/s),Lateral Accel (g),Vertical Accel(g),Angle of Attack (%),Vertical Speed (ft/min),OAT (deg C),True Airspeed (knots),Barometer Setting (inHg),Density Altitude (ft),Wind Direction (deg),Wind Speed (knots),Heading Bug (deg),Altitude Bug (ft),Airspeed Bug (knots),Vertical Speed Bug (ft/min),Course (deg),CDI Source Type,CDI Source Port,CDI Scale (NM),CDI Deflection (%),Glideslope (%),AP Engaged,AP Roll Mode,AP Roll Force,AP Roll Position (steps),AP Roll Slip (bool),AP Pitch Force,AP Pitch Position (steps),AP Pitch Slip (bool),AP Yaw Force,AP Yaw Position,AP Yaw Slip (bool),Transponder Status,Transponder Reply (bool),Transponder Identing (bool),Transponder Code (octal),Oil Pressure (PSI),Oil Temp (deg C),RPM L,RPM R,Manifold Pressure (inHg),Fuel Flow 1 (gal/hr),Fuel Flow 2 (gal/hr),Total Fuel Flow (gal/hr),Fuel Pressure (PSI),Fuel Level L (gal),Fuel Level R (gal),Fuel Remaining (gal),Volts 1,Volts 2,Amps,Hobbs Time,Tach Time,Thermocouple 1 (deg C),Thermocouple 2 (deg C),Thermocouple 3 (deg C),Thermocouple 4 (deg C),CHT 4 (deg C),EGT 4 (deg C),CHT 3 (deg C),EGT 3 (deg C),CHT 2 (deg C),EGT 2 (deg C),CHT 1 (deg C),EGT 1 (deg C),Thermocouple 13 (deg C),Thermocouple 14 (deg C),ELEV POSITION (%),CO PPM PRESSURE (PSI),GP Input 3,FUEL PRESSURE (PSI),AILERN POSITION (%),CANOPY CONTACT (V),GP Input 7,GP Input 8,LEFT LEVEL (Sensor V),RIGHT LEVEL (Sensor V),OIL PRESSURE (PSI),OIL TEMPERATURE (deg C),GP Input 13,Contacts,Percent Power,EGT Leaning State,Unnamed: 103,RPM,Flight ID
6.06,0.0,0.0,2026-01-10 22:05:33,37.08202,-121.59979,,0.1,341.1,-17.1,,,,,22:05:33,11.0,-0.9,51.3,0.0,-160.0,0.0,-0.01,1.0,,-84.0,15.0,0.0,30.44,-176.0,,,241.0,,,,,0.0,0.0,,,,,,,,,,,,,,,,,,,0.0,30.0,0.0,0.0,30.5,0.0,,0.0,0.6,,,37.7,0.0,0.0,-0.6,0.8,0.3,,,,,35.0,24.0,35.0,25.0,35.0,26.0,34.0,25.0,,,-2.0,254.4,,0.6,-9.0,0.0,,,0.653,0.732,0.0,30.3,,,,,,0.0,2026-01-10 14:05:33-08:00
7.06,1.0,5.0,2026-01-10 22:05:34,37.08199,-121.59982,306.0,0.1,341.1,-12.6,,,,,22:05:33,11.0,-0.9,51.3,0.0,-161.0,-0.0,-0.02,1.0,,-92.0,15.0,0.0,30.44,-173.0,,,241.0,,,,,0.0,0.0,,,,,,,,,,,,,,,,,,,0.0,30.0,0.0,0.0,30.5,0.0,,0.0,0.6,,,37.7,0.0,0.0,-0.6,0.8,0.3,,,,,35.0,24.0,35.0,25.0,35.0,26.0,34.0,25.0,,,-2.0,254.4,,0.6,-9.0,0.0,,,0.653,0.732,0.0,30.3,,,,,,0.0,2026-01-10 14:05:33-08:00
8.06,1.0,5.0,2026-01-10 22:05:35,37.08199,-121.59982,285.0,0.0,341.1,-12.6,,,,,22:05:34,11.0,-0.9,51.3,0.0,-162.0,0.0,-0.02,1.0,,-86.0,15.0,0.0,30.44,-173.0,,,241.0,,,,,0.0,0.0,,,,,,,,,,,,,,,,,,,0.0,30.0,0.0,0.0,30.5,0.0,,0.0,0.6,,,37.7,0.0,0.0,-0.6,0.8,0.3,,,,,35.0,24.0,35.0,25.0,35.0,26.0,34.0,25.0,,,-2.0,254.4,,0.6,-9.0,0.0,,,0.653,0.732,0.0,30.3,,,,,,0.0,2026-01-10 14:05:33-08:00
9.06,1.0,9.0,2026-01-10 22:05:36,37.0816,-121.59971,422.0,0.0,341.1,-12.6,,,,,22:05:35,11.0,-0.8,51.3,0.0,-162.0,0.0,-0.02,1.0,,-58.0,15.0,0.0,30.44,-173.0,,,241.0,,,,,0.0,0.0,,,,,,,,,,,,,,,,,,,0.0,30.0,0.0,0.0,30.5,0.0,,0.0,0.6,,,37.7,0.0,0.0,-0.6,0.8,0.3,,,,,35.0,24.0,35.0,25.0,35.0,26.0,34.0,25.0,,,-2.0,254.4,,0.6,-9.0,0.0,,,0.653,0.732,0.0,30.3,,,,,,0.0,2026-01-10 14:05:33-08:00
10.06,1.0,9.0,2026-01-10 22:05:37,37.0816,-121.59971,436.0,0.0,341.1,-12.6,,,,,22:05:36,11.0,-0.9,51.3,0.0,-163.0,0.0,-0.02,1.0,,-58.0,15.0,0.0,30.44,-174.0,,,241.0,,,,,0.0,0.0,,,,,,,,,,,,,,,,,,,0.0,30.0,0.0,0.0,30.5,0.0,,0.0,0.6,,,37.7,0.0,0.0,-0.6,0.8,0.3,,,,,35.0,25.0,35.0,25.0,35.0,26.0,34.0,25.0,,,-2.0,254.4,,0.6,-9.0,0.0,,,0.653,0.732,0.0,30.3,,,,,,0.0,2026-01-10 14:05:33-08:00
11.06,1.0,9.0,2026-01-10 22:05:38,37.0816,-121.59971,435.0,0.0,341.1,-12.6,,,,,22:05:37,11.0,-0.9,51.3,0.0,-164.0,-0.0,-0.02,1.0,,-44.0,15.0,0.0,30.44,-174.0,,,241.0,,,,,0.0,0.0,,,,,,,,,,,,,,,,,,,0.0,30.0,0.0,0.0,30.5,0.0,,0.0,0.6,,,37.7,0.0,0.0,-0.6,0.8,0.3,,,,,35.0,24.0,35.0,25.0,35.0,26.0,34.0,25.0,,,-2.0,254.4,,0.6,-9.0,0.0,,,0.653,0.732,0.0,30.3,,,,,,0.0,2026-01-10 14:05:33-08:00
12.06,1.0,9.0,2026-01-10 22:05:39,37.0816,-121.59972,434.0,0.0,341.1,-12.6,,,,,22:05:38,11.0,-0.9,51.2,0.0,-164.0,-0.0,-0.02,1.0,,-33.0,15.0,0.0,30.44,-174.0,,,241.0,,,,,0.0,0.0,,,,,,,,,,,,,,,,,,,0.0,30.0,0.0,0.0,30.5,0.0,,0.0,0.6,,,37.7,0.0,0.0,-0.6,0.8,0.3,,,,,35.0,24.0,35.0,25.0,35.0,26.0,34.0,25.0,,,-2.0,254.4,,0.6,-9.0,0.0,,,0.653,0.732,0.0,30.3,,,,,,0.0,2026-01-10 14:05:33-08:00
13.06,1.0,9.0,2026-01-10 22:05:40,37.0816,-121.59972,434.0,0.0,341.1,-12.6,,,,,22:05:39,11.1,-0.9,51.2,0.0,-165.0,0.0,-0.02,1.0,,-35.0,15.0,0.0,30.44,-176.0,,,241.0,,,,,0.0,0.0,,,,,,,,,,,,,,,,,,,0.0,30.0,0.0,0.0,30.5,0.0,,0.0,0.6,,,37.7,0.0,0.0,-0.6,0.8,0.3,,,,,35.0,24.0,35.0,25.0,35.0,26.0,34.0,25.0,,,-2.0,254.4,,0.6,-9.0,0.0,,,0.653,0.732,0.0,30.3,,,,,,0.0,2026-01-10 14:05:33-08:00
14.06,1.0,9.0,2026-01-10 22:05:41,37.08163,-121.59972,434.0,0.0,341.1,-12.6,,,,,22:05:40,11.0,-0.9,51.2,0.0,-166.0,-0.0,-0.02,1.0,,-38.0,15.0,0.0,30.44,-176.0,,,241.0,,,,,0.0,0.0,,,,,,,,,,,,,,,,,,,0.0,30.0,0.0,0.0,30.5,0.0,,0.0,0.6,,,37.7,0.0,0.0,-0.6,0.8,0.3,,,,,35.0,24.0,35.0,25.0,35.0,26.0,34.0,25.0,,,-2.0,254.4,,0.6,-9.0,0.0,,,0.653,0.732,0.0,30.3,,,,,,0.0,2026-01-10 14:05:33-08:00
15.06,1.0,10.0,2026-01-10 22:05:42,37.08159,-121.59972,432.0,0.0,341.1,-12.6,,,,,22:05:41,11.0,-0.9,51.2,0.0,-167.0,0.0,-0.02,1.0,,-72.0,15.0,0.0,30.44,-176.0,,,241.0,,,,,0.0,0.0,,,,,,,,,,,,,,,,,,,0.0,30.0,0.0,0.0,30.5,0.0,,0.0,0.6,,,37.7,0.0,0.0,-0.6,0.8,0.3,,,,,35.0,24.0,35.0,25.0,35.0,26.0,34.0,25.0,,,-2.0,254.4,,0.6,-9.0,0.0,,,0.653,0.732,0.0,30.3,,,,,,0.0,2026-01-10 14:05:33-08:00
16.06,1.0,10.0,2026-01-10 22:05:43,37.08159,-121.59972,434.0,0.0,341.1,-12.6,,,,,22:05:42,11.1,-0.9,51.2,0.0,-169.0,0.0,-0.02,1.0,,-91.0,15.0,0.0,30.44,-181.0,,,241.0,,,,,0.0,0.0,,,,,,,,,,,,,,,,,,,0.0,30.0,0.0,0.0,30.5,0.0,,0.0,0.6,,,37.7,0.0,0.0,-0.6,0.8,0.3,,,,,35.0,25.0,35.0,25.0,35.0,26.0,34.0,25.0,,,-2.0,254.4,,0.6,-9.0,0.0,,,0.653,0.732,0.0,30.3,,,,,,0.0,2026-01-10 14:05:33-08:00
17.06,1.0,10.0,2026-01-10 22:05:44,37.08159,-121.59972,434.0,0.0,341.1,-12.6,,,,,22:05:43,11.1,-0.9,51.2,0.0,-170.0,-0.0,-0.02,1.0,,-75.0,15.0,0.0,30.44,-181.0,,,241.0,,,,,0.0,0.0,,,,,,,,,,,,,,,,,,,0.0,30.0,0.0,0.0,30.5,0.0,,0.0,0.6,,,37.7,0.0,0.0,-0.6,0.8,0.3,,,,,35.0,24.0,35.0,25.0,35.0,26.0,34.0,25.0,,,-2.0,254.4,,0.6,-9.0,0.0,,,0.653,0.732,0.0,30.3,,,,,,0.0,2026-01-10 14:05:33-08:00
18.06,1.0,10.0,2026-01-10 22:05:45,37.08159,-121.59972,434.0,0.0,341.1,-12.6,,,,,22:05:44,11.0,-0.9,51.2,0.0,-170.0,0.0,-0.02,1.0,,-45.0,15.0,0.0,30.44,-181.0,,,241.0,,,,,0.0,0.0,,,,,,,,,,,,,,,,,,,0.0,30.0,0.0,0.0,30.5,0.0,,0.0,0.6,,,37.7,0.0,0.0,-0.6,0.8,0.3,,,,,35.0,24.0,35.0,25.0,35.0,26.0,34.0,25.0,,,-2.0,254.4,,0.6,-9.0,0.0,,,0.653,0.732,0.0,30.3,,,,,,0.0,2026-01-10 14:05:33-08:00
19.06,1.0,10.0,2026-01-10 22:05:46,37.08159,-121.59972,434.0,0.0,341.1,-12.6,,,,,22:05:45,11.0,-0.9,51.2,0.0,-171.0,0.0,-0.02,1.0,,-35.0,15.0,0.0,30.44,-184.0,,,241.0,,,,,0.0,0.0,,,,,,,,,,,,,,,,,,,0.0,30.0,0.0,0.0,30.5,0.0,,0.0,0.4,,,37.7,0.0,0.0,-0.6,0.8,0.3,,,,,35.0,24.0,35.0,25.0,35.0,26.0,34.0,25.0,,,-2.0,254.4,,0.4,-9.0,0.0,,,0.653,0.732,0.0,30.3,,,,,,0.0,2026-01-10 14:05:33-08:00
20.06,1.0,10.0,2026-01-10 22:05:47,37.08159,-121.59972,435.0,0.0,341.1,-12.6,,,,,22:05:46,11.0,-0.9,51.2,0.0,-171.0,0.0,-0.02,1.0,,-39.0,15.0,0.0,30.44,-182.0,,,241.0,,,,,0.0,0.0,,,,,,,,,,,,,,,,,,,0.0,30.0,0.0,0.0,30.5,0.0,,0.0,0.2,,,37.7,0.0,0.0,-0.6,0.8,0.3,,,,,35.0,24.0,35.0,25.0,35.0,26.0,34.0,25.0,,,-2.0,254.4,,0.2,-9.0,0.0,,,0.653,0.732,0.0,30.3,,,,,,0.0,2026-01-10 14:05:33-08:00
21.06,1.0,10.0,2026-01-10 22:05:48,37.08159,-121.59972,435.0,0.0,341.1,-12.6,,,,,22:05:47,11.0,-0.9,51.3,0.0,-171.0,0.0,-0.02,1.0,,-15.0,15.0,0.0,30.44,-182.0,,,241.0,,,,,0.0,0.0,,,,,,,,,,,,,,,,,,,0.0,30.0,0.0,0.0,30.5,0.0,,0.0,0.0,,,37.7,0.0,0.0,-0.6,0.8,0.3,,,,,35.0,24.0,35.0,25.0,35.0,26.0,34.0,25.0,,,-2.0,254.4,,0.0,-9.0,0.0,,,0.653,0.732,0.0,30.3,,,,,,0.0,2026-01-10 14:05:33-08:00
22.06,1.0,10.0,2026-01-10 22:05:49,37.08159,-121.59972,435.0,0.0,341.1,-12.6,,,,,22:05:48,11.0,-0.9,51.2,0.0,-171.0,0.0,-0.02,1.0,,-8.0,15.0,0.0,30.44,-182.0,,,241.0,,,,,0.0,0.0,,,,,,,,,,,,,,,,,,,0.0,30.0,0.0,0.0,30.5,0.0,,0.0,0.0,,,37.7,0.0,0.0,-0.6,0.8,0.3,,,,,35.0,24.0,35.0,25.0,35.0,26.0,34.0,25.0,,,-2.0,254.4,,0.0,-9.0,0.0,,,0.653,0.732,0.0,30.3,,,,,,0.0,2026-01-10 14:05:33-08:00
23.06,1.0,10.0,2026-01-10 22:05:50,37.08158,-121.59972,436.0,0.0,341.1,-12.6,,,,,22:05:49,11.0,-0.9,51.2,0.0,-171.0,0.0,-0.02,1.0,,6.0,15.0,0.0,30.44,-175.0,,,241.0,,,,,0.0,0.0,,,,,,,,,,,,,,,,,,,0.0,30.0,0.0,0.0,30.5,0.0,,0.0,0.0,,,37.7,0.0,0.0,-0.6,0.8,0.3,,,,,35.0,24.0,35.0,25.0,35.0,26.0,34.0,25.0,,,-2.0,254.4,,0.0,-9.0,0.0,,,0.653,0.731,0.0,30.3,,,,,,0.0,2026-01-10 14:05:33-08:00
24.06,1.0,10.0,2026-01-10 22:05:51,37.08158,-121.59972,436.0,0.0,341.1,-12.6,,,,,22:05:50,11.0,-0.9,51.2,0.0,-171.0,0.0,-0.02,1.0,,0.0,15.0,0.0,30.44,-175.0,,,241.0,,,,,0.0,0.0,,,,,,,,,,,,,,,,,,,0.0,30.0,0.0,0.0,30.5,0.0,,0.0,0.0,,,37.7,0.0,0.0,-0.6,0.8,0.3,,,,,35.0,24.0,35.0,25.0,35.0,26.0,34.0,25.0,,,-2.0,254.4,,0.0,-9.0,0.0,,,0.653,0.731,0.0,30.3,,,,,,0.0,2026-01-10 14:05:33-08:00
25.06,1.0,10.0,2026-01-10 22:05:52,37.08158,-121.59972,436.0,0.0,341.1,-12.6,,,,,22:05:51,11.0,-0.9,51.2,0.0,-171.0,0.0,-0.02,1.0,,9.0,15.0,0.0,30.44,-175.0,,,241.0,,,,,0.0,0.0,,,,,,,,,,,,,,,,,,,0.0,30.0,0.0,0.0,30.5,0.0,,0.0,0.0,,,37.7,0.0,0.0,-0.6,0.8,0.3,,,,,35.0,24.0,35.0,25.0,35.0,26.0,34.0,25.0,,,-2.0,254.4,,0.0,-9.0,0.0,,,0.653,0.731,0.0,30.3,,,,,,0.0,2026-01-10 14:05:33-08:00
26.06,1.0,10.0,2026-01-10 22:05:53,37.08158,-121.59972,436.0,0.0,341.1,-12.6,,,,,22:05:52,11.0,-0.9,51.2,0.0,-171.0,-0.0,-0.02,1.0,,35.0,15.0,0.0,30.44,-174.0,,,241.0,,,,,0.0,0.0,,,,,,,,,,,,,,,,,,,0.0,30.0,0.0,0.0,30.5,0.0,,0.0,0.0,,,37.7,0.0,0.0,-0.6,0.8,0.3,,,,,35.0,24.0,35.0,25.0,35.0,26.0,34.0,25.0,,,-2.0,254.4,,0.0,-8.0,0.0,,,0.653,0.731,0.0,30.3,,,,,,0.0,2026-01-10 14:05:33-08:00
27.06,1.0,10.0,2026-01-10 22:05:54,37.08158,-121.59972,437.0,0.1,341.1,-12.6,,,,,22:05:53,11.0,-0.9,51.2,0.0,-171.0,-0.0,-0.02,1.0,,4.0,15.0,0.0,30.44,-174.0,,,241.0,,,,,0.0,0.0,,,,,,,,,,,,,,,,,,,0.0,30.0,0.0,0.0,30.5,0.0,,0.0,0.0,,,37.7,0.0,0.0,-0.6,0.8,0.3,,,,,35.0,24.0,35.0,25.0,35.0,26.0,34.0,25.0,,,-2.0,254.4,,0.0,-9.0,0.0,,,0.653,0.732,0.0,30.3,,,,,,0.0,2026-01-10 14:05:33-08:00
28.06,1.0,10.0,2026-01-10 22:05:55,37.08158,-121.59972,437.0,0.0,341.1,-12.6,,,,,22:05:54,11.0,-0.9,51.3,0.0,-171.0,0.0,-0.02,1.0,,-28.0,15.0,0.0,30.44,-174.0,,,241.0,,,,,0.0,0.0,,,,,,,,,,,,,,,,,,,0.0,30.0,0.0,0.0,30.5,0.0,,0.0,0.0,,,37.7,0.0,0.0,-0.6,0.8,0.3,,,,,35.0,24.0,35.0,25.0,35.0,26.0,34.0,25.0,,,-2.0,254.4,,0.0,-9.0,0.0,,,0.653,0.731,0.0,30.3,,,,,,0.0,2026-01-10 14:05:33-08:00
29.06,1.0,10.0,2026-01-10 22:05:56,37.08158,-121.59972,437.0,0.0,341.1,-12.6,,,,,22:05:55,11.0,-0.9,51.3,0.0,-172.0,0.0,-0.02,1.0,,-18.0,15.0,0.0,30.44,-174.0,,,241.0,,,,,0.0,0.0,,,,,,,,,,,,,,,,,,,0.0,30.0,0.0,0.0,30.5,0.0,,0.0,0.0,,,37.7,0.0,0.0,-0.6,0.8,0.3,,,,,35.0,24.0,35.0,25.0,35.0,26.0,34.0,25.0,,,-2.0,254.4,,0.0,-9.0,0.0,,,0.653,0.731,0.0,30.3,,,,,,0.0,2026-01-10 14:05:33-08:00
30.06,1.0,10.0,2026-01-10 22:05:57,37.08158,-121.59972,437.0,0.0,341.1,-12.6,,,,,22:05:56,11.0,-0.8,51.3,0.0,-174.0,0.0,-0.02,1.0,,-68.0,15.0,0.0,30.44,-174.0,,,241.0,,,,,0.0,0.0,,,,,,,,,,,,,,,,,,,0.0,30.0,0.0,0.0,30.5,0.0,,0.0,0.0,,,37.7,0.0,0.0,-0.6,0.8,0.3,,,,,35.0,24.0,35.0,25.0,35.0,26.0,34.0,25.0,,,-2.0,254.4,,0.0,-9.0,0.0,,,0.653,0.731,0.0,30.3,,,,,,0.0,2026-01-10 14:05:33-08:00
31.06,1.0,10.0,2026-01-10 22:05:58,37.08158,-121.59972,437.0,0.0,341.1,-12.6,,,,,22:05:57,11.0,-0.9,51.3,0.0,-176.0,0.0,-0.01,1.0,,-82.0,15.0,0.0,30.44,-174.0,,,241.0,,,,,0.0,0.0,,,,,,,,,,,,,,,,,,,0.0,30.0,0.0,0.0,30.5,0.0,,0.0,0.0,,,37.7,0.0,0.0,-0.6,0.8,0.3,,,,,35.0,24.0,35.0,25.0,35.0,26.0,34.0,25.0,,,-2.0,254.4,,0.0,-9.0,0.0,,,0.653,0.731,0.0,30.3,,,,,,0.0,2026-01-10 14:05:33-08:00
32.06,1.0,10.0,2026-01-10 22:05:59,37.08159,-121.59972,437.0,0.0,341.1,-12.6,,,,,22:05:58,11.0,-0.9,51.3,0.0,-176.0,0.0,-0.02,1.0,,-61.0,15.0,0.0,30.44,-170.0,,,241.0,,,,,0.0,0.0,,,,,,,,,,,,,,,,,,,0.0,30.0,0.0,0.0,30.5,0.0,,0.0,0.0,,,37.7,0.0,0.0,-0.6,0.8,0.3,,,,,35.0,24.0,35.0,25.0,35.0,26.0,34.0,25.0,,,-2.0,254.4,,0.0,-9.0,0.0,,,0.653,0.731,0.0,30.3,,,,,,0.0,2026-01-10 14:05:33-08:00
33.06,1.0,10.0,2026-01-10 22:06:00,37.08159,-121.59972,437.0,0.1,341.1,-12.6,,,,,22:05:59,11.0,-0.9,51.2,0.0,-177.0,0.0,-0.01,1.0,,-65.0,15.0,0.0,30.44,-170.0,,,241.0,,,,,0.0,0.0,,,,,,,,,,,,,,,,,,,0.0,30.0,0.0,0.0,30.5,0.0,,0.0,0.0,,,37.7,0.0,0.0,-0.6,0.8,0.3,,,,,35.0,24.0,35.0,25.0,35.0,26.0,34.0,25.0,,,-2.0,254.4,,0.0,-9.0,0.0,,,0.653,0.731,0.0,30.3,,,,,,0.0,2026-01-10 14:05:33-08:00
34.06,1.0,10.0,2026-01-10 22:06:01,37.08159,-121.59972,437.0,0.0,341.1,-12.6,,,,,22:06:00,11.0,-0.8,51.3,0.0,-179.0,0.0,-0.02,1.0,,-84.0,15.0,0.0,30.44,-170.0,,,241.0,,,,,0.0,0.0,,,,,,,,,,,,,,,,,,,0.0,30.0,0.0,0.0,30.5,0.0,,0.0,0.0,,,37.7,0.0,0.0,-0.6,0.8,0.3,,,,,35.0,24.0,35.0,25.0,35.0,26.0,34.0,25.0,,,-2.0,254.4,,0.0,-9.0,0.0,,,0.653,0.731,0.0,30.3,,,,,,0.0,2026-01-10 14:05:33-08:00
35.06,1.0,10.0,2026-01-10 22:06:02,37.08159,-121.59972,436.0,0.0,341.1,-12.6,,,,,22:06:01,11.0,-0.8,51.3,0.0,-180.0,0.0,-0.02,1.0,,-92.0,15.0,0.0,30.44,-172.0,,,241.0,,,,,0.0,0.0,,,,,,,,,,,,,,,,,,,0.0,30.0,0.0,0.0,30.5,0.0,,0.0,0.0,,,37.7,0.0,0.0,-0.6,0.8,0.3,,,,,35.0,24.0,35.0,25.0,35.0,26.0,34.0,25.0,,,-2.0,254.4,,0.0,-9.0,0.0,,,0.653,0.731,0.0,30.3,,,,,,0.0,2026-01-10 14:05:33-08:00
36.06,1.0,10.0,2026-01-10 22:06:03,37.08159,-121.59972,436.0,0.0,341.1,-12.6,,,,,22:06:02,11.0,-0.8,51.3,0.0,-183.0,0.0,-0.02,1.0,,-102.0,15.0,0.0,30.44,-172.0,,,241.0,,,,,0.0,0.0,,,,,,,,,,,,,,,,,,,0.0,30.0,0.0,0.0,30.5,0.0,,0.0,0.0,,,37.7,0.0,0.0,-0.6,0.8,0.3,,,,,35.0,24.0,35.0,25.0,35.0,26.0,34.0,25.0,,,-2.0,254.4,,0.0,-9.0,0.0,,,0.653,0.731,0.0,30.3,,,,,,0.0,2026-01-10 14:05:33-08:00
37.06,1.0,10.0,2026-01-10 22:06:04,37.08159,-121.59972,436.0,0.0,341.1,-12.6,,,,,22:06:03,11.0,-0.9,51.3,0.0,-185.0,0.0,-0.02,1.0,,-103.0,15.0,0.0,30.44,-172.0,,,241.0,,,,,0.0,0.0,,,,,,,,,,,,,,,,,,,0.0,30.0,0.0,0.0,30.5,0.0,,0.0,0.0,,,37.7,0.0,0.0,-0.6,0.8,0.3,,,,,35.0,24.0,35.0,25.0,35.0,26.0,34.0,25.0,,,-2.0,254.4,,0.0,-9.0,0.0,,,0.653,0.731,0.0,30.3,,,,,,0.0,2026-01-10 14:05:33-08:00
38.06,1.0,10.0,2026-01-10 22:06:05,37.08159,-121.59972,435.0,0.0,341.1,-12.6,,,,,22:06:04,11.0,-0.9,51.3,0.0,-185.0,0.0,-0.02,1.0,,-85.0,15.0,0.0,30.44,-179.0,,,241.0,,,,,0.0,0.0,,,,,,,,,,,,,,,,,,,0.0,30.0,0.0,0.0,30.5,0.0,,0.0,0.0,,,37.7,0.0,0.0,-0.6,0.8,0.3,,,,,35.0,25.0,35.0,25.0,35.0,26.0,34.0,25.0,,,-2.0,254.4,,0.0,-9.0,0.0,,,0.653,0.731,0.0,30.3,,,,,,0.0,2026-01-10 14:05:33-08:00
39.06,1.0,10.0,2026-01-10 22:06:06,37.08159,-121.59972,435.0,0.0,341.1,-12.6,,,,,22:06:05,11.0,-0.9,51.3,0.0,-188.0,0.0,-0.02,1.0,,-99.0,15.0,0.0,30.44,-179.0,,,241.0,,,,,0.0,0.0,,,,,,,,,,,,,,,,,,,0.0,30.0,0.0,0.0,30.5,0.0,,0.0,0.0,,,37.7,0.0,0.0,-0.6,0.8,0.3,,,,,35.0,25.0,35.0,25.0,35.0,26.0,34.0,25.0,,,-2.0,254.4,,0.0,-9.0,0.0,,,0.653,0.731,0.0,30.3,,,,,,0.0,2026-01-10 14:05:33-08:00
40.06,1.0,10.0,2026-01-10 22:06:07,37.0816,-121.59972,434.0,0.0,341.1,-12.6,,,,,22:06:06,11.0,-0.9,51.2,0.0,-189.0,0.0,-0.02,1.0,,-88.0,15.0,0.0,30.44,-179.0,,,241.0,,,,,0.0,0.0,,,,,,,,,,,,,,,,,,,0.0,30.0,0.0,0.0,30.5,0.0,,0.0,0.0,,,37.7,0.0,0.0,-0.6,0.8,0.3,,,,,35.0,25.0,35.0,25.0,35.0,26.0,34.0,25.0,,,-2.0,254.4,,0.0,-9.0,0.0,,,0.653,0.731,0.0,30.3,,,,,,0.0,2026-01-10 14:05:33-08:00
41.06,1.0,10.0,2026-01-10 22:06:08,37.0816,-121.59972,434.0,0.0,341.1,-12.6,,,,,22:06:07,11.1,-0.9,51.2,0.0,-190.0,0.0,-0.02,1.0,,-65.0,15.0,0.0,30.44,-184.0,,,241.0,,,,,0.0,0.0,,,,,,,,,,,,,,,,,,,0.0,30.0,0.0,0.0,30.5,0.4,,0.4,8.7,,,37.7,0.0,0.0,-0.6,0.8,0.3,,,,,35.0,25.0,35.0,25.0,35.0,26.0,34.0,25.0,,,-2.0,254.3,,8.7,-9.0,0.0,,,0.653,0.731,0.0,30.3,,,,,,0.0,2026-01-10 14:05:33-08:00
42.06,1.0,10.0,2026-01-10 22:06:09,37.0816,-121.59972,434.0,0.0,341.1,-12.6,,,,,22:06:08,11.1,-0.9,51.1,0.0,-190.0,-0.0,-0.02,1.0,,-57.0,16.0,0.0,30.44,-184.0,,,241.0,,,,,0.0,0.0,,,,,,,,,,,,,,,,,,,0.0,30.0,0.0,0.0,30.5,1.1,,1.1,30.7,,,37.7,0.0,0.0,-0.5,0.8,0.3,,,,,35.0,25.0,35.0,25.0,35.0,26.0,34.0,25.0,,,-2.0,236.5,,30.7,-9.0,0.0,,,0.653,0.731,0.0,30.3,,,,,,0.0,2026-01-10 14:05:33-08:00
43.06,1.0,10.0,2026-01-10 22:06:10,37.0816,-121.59972,433.0,0.0,341.1,-12.6,,,,,22:06:09,11.1,-1.0,51.1,0.0,-191.0,0.0,-0.02,1.0,,-61.0,16.0,0.0,30.44,-184.0,,,241.0,,,,,0.0,0.0,,,,,,,,,,,,,,,,,,,0.0,30.0,0.0,0.0,30.5,1.5,,1.5,34.1,,,37.7,0.0,0.0,-0.5,0.8,0.3,,,,,35.0,25.0,35.0,25.0,35.0,26.0,34.0,25.0,,,-2.0,184.1,,34.1,-9.0,0.0,,,0.653,0.731,0.0,30.3,,,,,,0.0,2026-01-10 14:05:33-08:00
44.06,1.0,10.0,2026-01-10 22:06:11,37.0816,-121.59972,433.0,0.1,341.1,-12.6,,,,,22:06:10,11.1,-0.9,51.1,0.0,-192.0,0.0,-0.02,1.0,,-49.0,16.0,0.0,30.44,-176.0,,,241.0,,,,,0.0,0.0,,,,,,,,,,,,,,,,,,,0.0,30.0,0.0,0.0,30.5,1.3,,1.3,34.0,,,37.7,0.0,0.0,-0.5,0.8,0.3,,,,,35.0,25.0,35.0,25.0,35.0,26.0,34.0,25.0,,,-2.0,143.3,,34.0,-9.0,0.0,,,0.653,0.731,0.0,30.3,,,,,,0.0,2026-01-10 14:05:33-08:00
45.06,1.0,10.0,2026-01-10 22:06:12,37.0816,-121.59972,432.0,0.0,341.1,-12.6,,,,,22:06:11,11.1,-0.9,51.2,0.0,-192.0,0.0,-0.02,1.0,,-12.0,16.0,0.0,30.44,-179.0,,,241.0,,,,,0.0,0.0,,,,,,,,,,,,,,,,,,,0.0,30.0,0.0,0.0,30.5,1.3,,1.3,33.6,,,37.7,0.0,0.0,-0.6,0.8,0.3,,,,,35.0,25.0,35.0,25.0,35.0,26.0,34.0,25.0,,,-2.0,111.6,,33.6,-9.0,0.0,,,0.653,0.731,0.0,30.3,,,,,,0.0,2026-01-10 14:05:33-08:00
46.06,1.0,10.0,2026-01-10 22:06:13,37.0816,-121.59972,432.0,0.1,341.1,-12.6,,,,,22:06:12,11.1,-0.9,51.1,0.0,-192.0,0.0,-0.02,1.0,,10.0,16.0,0.0,30.44,-179.0,,,241.0,,,,,0.0,0.0,,,,,,,,,,,,,,,,,,,0.0,30.0,0.0,0.0,30.5,1.3,,1.3,33.4,,,37.7,0.0,0.0,-0.6,0.8,0.3,,,,,35.0,25.0,35.0,25.0,35.0,26.0,34.0,25.0,,,-2.0,87.0,,33.4,-9.0,0.0,,,0.653,0.731,0.0,30.2,,,,,,0.0,2026-01-10 14:05:33-08:00
47.06,1.0,10.0,2026-01-10 22:06:14,37.0816,-121.59972,432.0,0.0,341.1,-12.6,,,,,22:06:13,11.1,-0.9,51.1,0.0,-192.0,0.0,-0.02,1.0,,6.0,16.0,0.0,30.44,-179.0,,,241.0,,,,,0.0,0.0,,,,,,,,,,,,,,,,,,,0.0,30.0,0.0,0.0,30.5,0.0,,0.0,33.2,,,37.7,0.0,0.0,-0.6,0.8,0.3,,,,,35.0,25.0,35.0,25.0,35.0,26.0,34.0,25.0,,,-2.0,67.8,,33.2,-9.0,0.0,,,0.653,0.731,0.0,30.3,,,,,,0.0,2026-01-10 14:05:33-08:00
48.06,1.0,10.0,2026-01-10 22:06:15,37.0816,-121.59972,431.0,0.0,341.1,-12.6,,,,,22:06:14,11.1,-0.9,51.2,0.0,-192.0,0.0,-0.02,1.0,,-35.0,16.0,0.0,30.44,-177.0,,,241.0,,,,,0.0,0.0,,,,,,,,,,,,,,,,,,,0.0,30.0,0.0,0.0,30.5,0.0,,0.0,33.0,,,37.7,0.0,0.0,-0.6,0.8,0.3,,,,,35.0,25.0,35.0,25.0,35.0,26.0,34.0,25.0,,,-2.0,52.9,,33.0,-9.0,0.0,,,0.653,0.731,0.0,30.2,,,,,,0.0,2026-01-10 14:05:33-08:00
49.06,1.0,10.0,2026-01-10 22:06:16,37.0816,-121.59972,431.0,0.0,341.1,-12.6,,,,,22:06:15,11.0,-0.9,51.2,0.0,-192.0,0.0,-0.02,1.0,,2.0,16.0,0.0,30.44,-177.0,,,241.0,,,,,0.0,0.0,,,,,,,,,,,,,,,,,,,0.0,30.0,0.0,0.0,30.5,0.0,,0.0,32.8,,,37.7,0.0,0.0,-0.6,0.8,0.3,,,,,35.0,25.0,35.0,25.0,35.0,26.0,34.0,25.0,,,-2.0,41.3,,32.8,-9.0,0.0,,,0.653,0.73,0.0,30.2,,,,,,0.0,2026-01-10 14:05:33-08:00
50.06,1.0,10.0,2026-01-10 22:06:17,37.0816,-121.59972,431.0,0.0,341.1,-12.6,,,,,22:06:16,11.0,-0.9,51.2,0.0,-192.0,0.0,-0.02,1.0,,-45.0,16.0,0.0,30.44,-177.0,,,241.0,,,,,0.0,0.0,,,,,,,,,,,,,,,,,,,0.0,30.0,0.0,0.0,30.5,0.0,,0.0,32.6,,,37.7,0.0,0.0,-0.6,0.8,0.3,,,,,35.0,25.0,35.0,25.0,35.0,26.0,34.0,25.0,,,-2.0,32.3,,32.6,-9.0,0.0,,,0.653,0.728,0.0,30.2,,,,,,0.0,2026-01-10 14:05:33-08:00
51.06,1.0,10.0,2026-01-10 22:06:18,37.0816,-121.59972,430.0,0.0,341.1,-12.6,,,,,22:06:17,11.0,-0.9,51.2,0.0,-194.0,0.0,-0.02,1.0,,-48.0,16.0,0.0,30.44,-179.0,,,241.0,,,,,0.0,0.0,,,,,,,,,,,,,,,,,,,0.0,30.0,0.0,0.0,30.5,0.0,,0.0,32.4,,,37.7,0.0,0.0,-0.6,0.8,0.3,,,,,35.0,25.0,35.0,25.0,35.0,26.0,34.0,25.0,,,-2.0,25.4,,32.4,-9.0,0.0,,,0.653,0.726,0.0,30.2,,,,,,0.0,2026-01-10 14:05:33-08:00
52.06,1.0,10.0,2026-01-10 22:06:19,37.0816,-121.59972,430.0,0.0,341.1,-12.6,,,,,22:06:18,11.0,-0.9,51.2,0.0,-194.0,0.0,-0.02,1.0,,-23.0,16.0,0.0,30.44,-179.0,,,241.0,,,,,0.0,0.0,,,,,,,,,,,,,,,,,,,0.0,26.0,133.0,133.0,30.5,0.0,,0.0,32.5,,,37.7,0.0,0.0,-0.6,0.8,0.3,,,,,31.0,20.0,31.0,21.0,31.0,21.0,31.0,21.0,,,-2.0,19.9,,32.5,-9.0,0.0,,,0.652,0.725,0.0,26.1,,,,,,133.0,2026-01-10 14:05:33-08:00
53.06,1.0,10.0,2026-01-10 22:06:20,37.0816,-121.59972,430.0,0.1,341.1,-12.6,,,,,22:06:19,11.0,-0.9,51.2,0.0,-194.0,0.0,-0.01,1.0,,-16.0,16.0,0.0,30.44,-179.0,,,241.0,,,,,0.0,0.0,,,,,,,,,,,,,,,,,,,0.0,27.0,211.0,211.0,29.9,0.0,,0.0,32.3,,,37.7,0.0,0.0,-0.6,0.8,0.3,,,,,33.0,21.0,33.0,22.0,32.0,23.0,32.0,24.0,,,-2.0,15.7,,32.3,-9.0,0.0,,,0.653,0.725,0.0,27.3,,,,,,211.0,2026-01-10 14:05:33-08:00
54.06,1.0,10.0,2026-01-10 22:06:21,37.0816,-121.59972,429.0,0.0,341.1,-12.6,,,,,22:06:20,11.0,-0.9,51.2,0.0,-194.0,0.0,-0.01,1.0,,-21.0,16.0,0.0,30.44,-178.0,,,241.0,,,,,0.0,0.0,,,,,,,,,,,,,,,,,,,4.0,30.0,671.0,671.0,23.3,0.9,,0.9,27.2,,,37.7,0.0,0.0,-0.6,0.8,0.3,,,,,35.0,45.0,35.0,44.0,35.0,67.0,35.0,58.0,,,-2.0,12.4,,27.2,-9.0,0.0,,,0.663,0.726,3.8,30.3,,,,,,671.0,2026-01-10 14:05:33-08:00
55.06,1.0,10.0,2026-01-10 22:06:22,37.0816,-121.59972,429.0,0.1,341.1,-12.6,,,,,22:06:21,11.0,-0.9,51.2,0.0,-194.0,0.1,-0.02,1.0,,36.0,16.0,0.0,30.44,-178.0,,,241.0,,,,,0.0,0.0,,,,,,,,,,,,,,,,,,,13.0,30.0,834.0,834.0,20.8,1.9,,1.9,25.2,,,37.7,0.0,0.0,-0.6,0.8,0.3,,,,,35.0,74.0,35.0,49.0,35.0,108.0,35.0,87.0,,,-2.0,9.9,,25.2,-9.0,0.0,,,0.667,0.725,13.1,30.3,,,,,,834.0,2026-01-10 14:05:33-08:00
56.06,1.0,10.0,2026-01-10 22:06:23,37.0816,-121.59972,429.0,0.0,341.1,-12.6,,,,,22:06:22,11.1,-0.8,51.2,0.0,-194.0,0.0,-0.01,1.0,,52.0,16.0,0.0,30.44,-178.0,,,241.0,,,,,0.0,0.0,,,,,,,,,,,,,,,,,,,32.0,30.0,877.0,877.0,19.4,2.7,,2.7,25.5,,,37.7,0.0,0.0,-0.6,0.8,0.3,,,,,35.0,100.0,35.0,60.0,35.0,158.0,36.0,119.0,,,-2.0,7.9,,25.5,-9.0,0.0,,,0.664,0.725,32.0,30.3,,,,,,877.0,2026-01-10 14:05:33-08:00
57.06,1.0,10.0,2026-01-10 22:06:24,37.0816,-121.59972,429.0,0.0,341.1,-12.6,,,,,22:06:23,11.1,-0.9,51.2,0.0,-194.0,0.0,-0.02,1.0,,72.0,16.0,0.0,30.44,-170.0,,,241.0,,,,,0.0,0.0,,,,,,,,,,,,,,,,,,,56.0,30.0,943.0,943.0,18.4,3.3,,3.3,25.6,,,37.7,0.0,0.0,-0.6,0.8,0.3,,,,,35.0,123.0,36.0,79.0,35.0,199.0,36.0,150.0,,,-2.0,6.3,,25.6,-9.0,0.0,,,0.662,0.724,55.9,30.3,,,,,,943.0,2026-01-10 14:05:33-08:00
58.06,1.0,10.0,2026-01-10 22:06:25,37.0816,-121.59972,428.0,0.0,341.1,-12.6,,,,,22:06:24,11.0,-0.9,51.2,0.0,-194.0,0.0,-0.02,1.0,,62.0,16.0,0.0,30.44,-170.0,,,241.0,,,,,0.0,0.0,,,,,,,,,,,,,,,,,,,65.0,30.0,985.0,985.0,17.5,3.5,,3.5,25.7,,,37.7,0.0,0.0,-0.6,0.8,0.3,,,,,36.0,152.0,36.0,101.0,36.0,234.0,37.0,177.0,,,-2.0,5.1,,25.7,-9.0,0.0,,,0.665,0.723,64.9,30.2,,,,,,985.0,2026-01-10 14:05:33-08:00
59.06,1.0,10.0,2026-01-10 22:06:26,37.0816,-121.59972,428.0,0.0,341.1,-12.6,,,,,22:06:25,11.0,-0.9,51.2,0.0,-194.0,0.0,-0.02,1.0,,78.0,16.0,0.0,30.44,-170.0,,,241.0,,,,,0.0,0.0,,,,,,,,,,,,,,,,,,,68.0,30.0,1049.0,1049.0,16.5,3.6,,3.6,25.9,,,37.7,0.0,0.0,-0.6,0.8,0.3,,,,,36.0,185.0,36.0,128.0,36.0,266.0,38.0,204.0,,,-2.0,4.2,,25.9,-9.0,0.0,,,0.662,0.724,67.8,30.2,,,,,,1049.0,2026-01-10 14:05:33-08:00
60.06,1.0,10.0,2026-01-10 22:06:27,37.0816,-121.59972,428.0,0.0,341.1,-12.6,,,,,22:06:26,11.0,-0.9,51.2,0.0,-194.0,-0.0,-0.02,0.9,,78.0,16.0,0.0,30.44,-168.0,,,241.0,,,,,0.0,0.0,,,,,,,,,,,,,,,,,,,69.0,30.0,1095.0,1095.0,15.8,3.5,,3.5,25.9,,,37.7,0.0,0.0,-0.6,0.8,0.3,,,,,36.0,229.0,36.0,154.0,36.0,297.0,38.0,229.0,,,-2.0,3.5,,25.9,-9.0,0.0,,,0.662,0.724,69.3,30.2,,,,,,1095.0,2026-01-10 14:05:33-08:00
61.06,1.0,10.0,2026-01-10 22:06:28,37.08161,-121.59972,428.0,0.1,341.1,-12.6,,,,,22:06:27,11.0,-0.9,51.2,0.0,-194.0,-0.0,-0.02,1.0,,65.0,16.0,0.0,30.44,-168.0,,,241.0,,,,,0.0,0.0,,,,,,,,,,,,,,,,,,,71.0,30.0,1118.0,1118.0,15.2,3.5,,3.5,26.0,,,37.7,0.0,0.0,-0.6,0.8,0.3,,,,,36.0,267.0,36.0,183.0,37.0,326.0,39.0,252.0,,,-2.0,2.9,,26.0,-9.0,0.0,,,0.659,0.723,70.5,30.2,,,,,,1118.0,2026-01-10 14:05:33-08:00
62.06,1.0,10.0,2026-01-10 22:06:29,37.08161,-121.59972,428.0,0.0,341.1,-12.6,,,,,22:06:28,11.0,-0.9,51.2,0.0,-194.0,-0.0,-0.02,1.0,,60.0,16.0,0.0,30.44,-168.0,,,241.0,,,,,0.0,0.0,,,,,,,,,,,,,,,,,,,71.0,30.0,1142.0,1142.0,14.8,3.4,,3.4,26.0,,,37.7,0.0,0.0,-0.6,0.8,0.3,,,,,37.0,299.0,37.0,212.0,37.0,352.0,40.0,275.0,,,-2.0,2.5,,26.0,-9.0,0.0,,,0.659,0.723,71.1,30.2,,,,,,1142.0,2026-01-10 14:05:33-08:00
63.06,1.0,10.0,2026-01-10 22:06:30,37.08161,-121.59972,427.0,0.0,341.1,-12.6,,,,,22:06:29,11.0,-0.9,51.2,0.0,-193.0,0.0,-0.02,1.0,,23.0,16.0,0.0,30.44,-166.0,,,241.0,,,,,0.0,0.0,,,,,,,,,,,,,,,,,,,71.0,30.0,1135.0,1135.0,14.4,3.4,,3.4,26.0,,,37.7,0.0,0.0,-0.6,0.8,0.3,,,,,37.0,328.0,37.0,244.0,38.0,375.0,40.0,297.0,,,-2.0,2.2,,26.0,-9.0,0.0,,,0.658,0.723,71.4,30.2,,,,,,1135.0,2026-01-10 14:05:33-08:00
64.06,1.0,10.0,2026-01-10 22:06:31,37.08161,-121.59972,427.0,0.0,341.1,-12.6,,,,,22:06:30,11.0,-0.8,51.2,0.0,-193.0,-0.0,-0.02,1.0,,15.0,16.0,0.0,30.44,-166.0,,,241.0,,,,,0.0,0.0,,,,,,,,,,,,,,,,,,,71.0,30.0,1147.0,1147.0,14.2,3.3,,3.3,26.1,,,37.7,0.0,0.0,-0.6,0.8,0.3,,,,,38.0,351.0,38.0,273.0,38.0,395.0,41.0,316.0,,,-2.0,1.9,,26.1,-9.0,0.0,,,0.658,0.724,71.4,30.2,,,,,,1147.0,2026-01-10 14:05:33-08:00
65.06,1.0,10.0,2026-01-10 22:06:32,37.08161,-121.59972,427.0,0.0,341.1,-12.6,,,,,22:06:31,11.0,-0.8,51.3,0.0,-193.0,0.0,-0.02,1.0,,15.0,16.0,0.0,30.44,-166.0,,,241.0,,,,,0.0,0.0,,,,,,,,,,,,,,,,,,,72.0,30.0,1155.0,1155.0,14.1,3.3,,3.3,26.1,,,37.7,0.0,0.0,-0.6,0.8,0.3,,,,,38.0,372.0,38.0,301.0,38.0,414.0,41.0,334.0,,,-2.0,1.7,,26.1,-9.0,0.0,,,0.657,0.724,71.6,30.2,,,,,,1155.0,2026-01-10 14:05:33-08:00
66.06,1.0,10.0,2026-01-10 22:06:33,37.08161,-121.59972,427.0,0.0,341.1,-12.6,,,,,22:06:32,11.0,-0.8,51.3,0.0,-193.0,0.0,-0.02,1.0,,8.0,16.0,0.0,30.44,-156.0,,,241.0,,,,,0.0,0.0,,,,,,,,,,,,,,,,,,,72.0,30.0,1157.0,1157.0,13.9,3.3,,3.3,26.1,,,37.7,0.0,0.0,-0.6,0.8,0.3,,,,,39.0,390.0,38.0,325.0,39.0,430.0,42.0,351.0,,,-2.0,1.5,,26.1,-9.0,0.0,,,0.662,0.724,71.9,30.2,,,,,,1157.0,2026-01-10 14:05:33-08:00
67.06,1.0,10.0,2026-01-10 22:06:34,37.08161,-121.59973,428.0,0.1,341.1,-12.6,,,,,22:06:33,11.0,-0.8,51.2,0.0,-193.0,-0.0,-0.01,1.0,,-25.0,16.0,0.0,30.44,-156.0,,,241.0,,,,,0.0,0.0,,,,,,,,,,,,,,,,,,,72.0,30.0,1171.0,1171.0,13.8,3.3,,3.3,26.1,,,37.7,0.0,0.0,-0.6,0.8,0.3,,,,,40.0,408.0,39.0,347.0,40.0,445.0,42.0,365.0,,,-2.0,1.4,,26.1,-9.0,0.0,,,0.658,0.724,72.2,30.3,,,,,,1171.0,2026-01-10 14:05:33-08:00
68.06,1.0,10.0,2026-01-10 22:06:35,37.08161,-121.59973,428.0,0.0,341.1,-12.6,,,,,22:06:34,11.0,-0.9,51.2,0.0,-193.0,-0.0,-0.02,0.9,,-10.0,16.0,0.0,30.44,-156.0,,,241.0,,,,,0.0,0.0,,,,,,,0.0,,,0.0,,,,,,,,,73.0,30.0,1180.0,1180.0,13.7,3.2,,3.2,26.1,,,37.7,0.0,0.0,-0.6,0.8,0.3,,,,,40.0,423.0,39.0,366.0,40.0,458.0,43.0,380.0,,,-2.0,1.3,,26.1,-9.0,0.0,,,0.658,0.724,72.5,30.3,,,,,,1180.0,2026-01-10 14:05:33-08:00
69.06,1.0,10.0,2026-01-10 22:06:36,37.08162,-121.59972,421.0,0.0,341.1,-12.6,,,,,22:06:35,11.0,-0.9,51.1,0.0,-193.0,-0.0,-0.01,0.9,,-8.0,16.0,0.0,30.44,-155.0,,,241.0,,,,,0.0,0.0,,,,,,,0.0,,,0.0,,,,,,,,,72.0,32.0,1155.0,1155.0,13.7,3.2,,3.2,26.1,,,37.7,0.0,0.0,11.3,0.8,0.3,,,,,42.0,437.0,42.0,385.0,42.0,470.0,45.0,394.0,,,-2.0,1.2,,26.1,-9.0,0.0,,,0.658,0.724,72.2,32.1,,,,,,1155.0,2026-01-10 14:05:33-08:00
70.06,1.0,10.0,2026-01-10 22:06:37,37.08162,-121.59972,421.0,0.1,341.1,-12.6,,,,,22:06:36,11.0,-0.9,51.1,0.0,-193.0,-0.0,-0.01,1.0,,-25.0,16.0,0.0,30.44,-155.0,,,241.0,,,,,0.0,0.0,,,,,,,0.0,,,0.0,,,,,,,,,72.0,32.0,1149.0,1149.0,13.7,3.2,,3.2,26.1,,,37.7,0.0,0.0,34.2,0.8,0.3,,,,,43.0,446.0,42.0,400.0,43.0,479.0,46.0,404.0,,,-2.0,1.2,,26.1,-9.0,0.0,,,0.657,0.724,71.7,32.0,,,,,,1149.0,2026-01-10 14:05:33-08:00
71.06,1.0,10.0,2026-01-10 22:06:38,37.08162,-121.59972,421.0,0.0,341.1,-12.6,,,,,22:06:37,11.0,-0.9,51.1,0.0,-193.0,0.0,-0.01,1.0,,-22.0,16.0,0.0,30.44,-155.0,,,241.0,,,,,0.0,0.0,,,,,,,0.0,,,0.0,,,,,0.0,0.0,0.0,1200.0,71.0,32.0,1134.0,1134.0,13.9,3.2,,3.2,26.1,,,37.7,0.0,0.0,47.7,0.8,0.3,,,,,43.0,457.0,43.0,413.0,43.0,489.0,46.0,414.0,,,-2.0,1.1,,26.1,-9.0,0.0,,,0.656,0.724,71.3,32.0,,,,,,1134.0,2026-01-10 14:05:33-08:00
72.06,1.0,10.0,2026-01-10 22:06:39,37.08162,-121.59972,422.0,0.0,341.1,-12.6,,,,,22:06:38,11.0,-0.8,51.0,0.0,-193.0,0.0,-0.02,1.0,,4.0,16.0,0.0,30.44,-145.0,,,241.0,,,,,0.0,0.0,,,,,,,0.0,,,0.0,,,,,0.0,0.0,0.0,1200.0,71.0,32.0,1144.0,1144.0,14.0,3.2,,3.2,26.1,,,37.7,0.0,0.0,55.9,0.8,0.3,,,,,44.0,466.0,43.0,425.0,43.0,497.0,47.0,424.0,,,-2.0,1.1,,26.1,-9.0,0.0,,,0.656,0.723,71.4,32.1,,,,,,1144.0,2026-01-10 14:05:33-08:00
73.06,1.0,10.0,2026-01-10 22:06:40,37.08162,-121.59973,422.0,0.1,341.1,-12.6,,,,,22:06:39,11.0,-0.8,51.0,0.0,-193.0,-0.0,-0.01,1.0,,-21.0,16.0,0.0,30.44,-145.0,,,241.0,,,,,0.0,0.0,,,,,,,0.0,,,0.0,,,,,0.0,0.0,0.0,1200.0,71.0,32.0,1133.0,1133.0,13.9,3.2,,3.2,26.1,,,37.7,0.0,0.0,59.6,0.8,0.3,,,,,45.0,474.0,43.0,436.0,44.0,504.0,47.0,433.0,,,-2.0,1.1,,26.1,-9.0,0.0,,,0.656,0.724,71.3,31.9,,,,,,1133.0,2026-01-10 14:05:33-08:00
74.06,1.0,10.0,2026-01-10 22:06:41,37.08162,-121.59973,423.0,0.0,341.1,-12.6,,,,,22:06:40,11.0,-0.9,51.1,0.0,-193.0,0.0,-0.01,0.9,,-29.0,16.0,0.0,30.44,-145.0,,,241.0,,,,,0.0,0.0,,,,,,,0.0,,,0.0,,,,,0.0,0.0,0.0,1200.0,71.0,32.0,1146.0,1146.0,13.9,3.2,,3.2,26.1,,,37.7,0.0,0.0,58.4,0.8,0.3,,,,,45.0,481.0,44.0,446.0,44.0,511.0,48.0,442.0,,,-2.0,1.0,,26.1,-9.0,0.0,,,0.656,0.723,71.3,31.8,,,,,,1146.0,2026-01-10 14:05:33-08:00
75.06,1.0,10.0,2026-01-10 22:06:42,37.08162,-121.59973,423.0,0.0,341.1,-12.6,,,,,22:06:41,11.0,-0.9,51.0,0.0,-193.0,0.0,-0.02,1.0,,-29.0,16.0,0.0,30.44,-145.0,,,241.0,,,,,0.0,0.0,,,,,,,0.0,,,0.0,,,,,,,,,71.0,32.0,1126.0,1126.0,13.8,3.2,,3.2,26.1,,,37.7,0.0,0.0,55.2,0.8,0.3,,,,,45.0,488.0,44.0,455.0,45.0,517.0,48.0,451.0,,,-2.0,1.0,,26.1,-9.0,0.0,,,0.656,0.723,71.1,31.7,,,,,,1126.0,2026-01-10 14:05:33-08:00
76.06,1.0,10.0,2026-01-10 22:06:43,37.08162,-121.59973,423.0,0.0,341.1,-12.6,,,,,22:06:42,11.0,-0.9,51.1,0.0,-193.0,0.0,-0.01,1.0,,-118.0,16.0,0.0,30.44,-144.0,,,241.0,,,,,0.0,0.0,,,,,,,0.0,,,0.0,,,,,,,,,70.0,32.0,1099.0,1099.0,13.8,3.1,,3.1,26.1,,,37.7,0.0,0.0,51.3,0.8,0.3,,,,,46.0,494.0,45.0,465.0,45.0,522.0,48.0,457.0,,,-2.0,1.0,,26.1,-9.0,0.0,,,0.656,0.723,70.2,31.6,,,,,,1099.0,2026-01-10 14:05:33-08:00
77.06,1.0,10.0,2026-01-10 22:06:44,37.08162,-121.59973,424.0,0.0,341.1,-12.6,,,,,22:06:43,11.0,-0.9,51.1,0.0,-193.0,0.0,-0.02,1.0,,-67.0,16.0,0.0,30.44,-144.0,,,241.0,,,,,0.0,0.0,,,,,,,0.0,,,0.0,,,,,,,,,70.0,31.0,1104.0,1104.0,13.8,3.1,,3.1,26.1,,,37.7,0.0,0.0,47.3,0.8,0.3,,,,,46.0,498.0,45.0,474.0,45.0,525.0,49.0,462.0,,,-2.0,1.0,,26.1,-9.0,0.0,,,0.656,0.723,70.0,31.5,,,,,,1104.0,2026-01-10 14:05:33-08:00
78.06,1.0,10.0,2026-01-10 22:06:45,37.08162,-121.59973,424.0,0.0,341.1,-12.6,,,,,22:06:44,11.0,-0.9,51.1,0.0,-194.0,0.0,-0.02,1.0,,-62.0,16.0,0.0,30.44,-144.0,,,241.0,,,,,0.0,0.0,,,,,,,0.0,,,0.0,,,,,,,,,69.0,31.0,1058.0,1058.0,13.7,3.0,,3.0,26.2,,,37.7,0.0,0.0,43.6,0.8,0.3,,,,,47.0,503.0,46.0,482.0,46.0,529.0,49.0,467.0,,,-2.0,1.0,,26.2,-9.0,0.0,,,0.656,0.723,69.4,31.4,,,,,,1058.0,2026-01-10 14:05:33-08:00
79.06,1.0,10.0,2026-01-10 22:06:46,37.08162,-121.59973,425.0,0.0,341.1,-12.6,,,,,22:06:45,11.1,-0.9,51.1,0.0,-195.0,0.0,-0.02,1.0,,-64.0,16.0,0.0,30.44,-138.0,,,241.0,,,,,0.0,0.0,,,,,,,0.0,,,0.0,,,,,,,,,68.0,31.0,1044.0,1044.0,13.7,3.0,,3.0,26.2,,,37.7,0.0,0.0,40.1,0.8,0.3,,,,,47.0,507.0,46.0,488.0,46.0,531.0,50.0,470.0,,,-2.0,1.0,,26.2,-9.0,0.0,,,0.656,0.721,68.4,31.3,,,,,,1044.0,2026-01-10 14:05:33-08:00
80.06,1.0,10.0,2026-01-10 22:06:47,37.08162,-121.59973,425.0,0.0,341.1,-12.6,,,,,22:06:46,11.1,-0.9,51.0,0.0,-197.0,0.0,-0.02,1.0,,-87.0,16.0,0.0,30.44,-138.0,,,241.0,,,,,0.0,0.0,,,,,,,0.0,,,0.0,,,,,,,,,68.0,31.0,1046.0,1046.0,13.6,2.9,,2.9,26.2,,,37.7,0.0,0.0,36.8,0.8,0.3,,,,,47.0,511.0,46.0,494.0,47.0,534.0,50.0,475.0,,,-2.0,1.0,,26.2,-9.0,0.0,,,0.656,0.721,68.3,31.3,,,,,,1046.0,2026-01-10 14:05:33-08:00
81.06,1.0,10.0,2026-01-10 22:06:48,37.08162,-121.59973,425.0,0.0,341.1,-12.6,,,,,22:06:47,11.1,-0.9,51.0,0.0,-197.0,0.0,-0.02,1.0,,-73.0,16.0,0.0,30.44,-138.0,,,241.0,,,,,0.0,0.0,,,,,,,0.0,,,0.0,,,,,,,,,68.0,31.0,1039.0,1039.0,13.6,2.9,,2.9,26.2,,,37.7,0.0,0.0,33.7,0.8,0.3,,,,,48.0,515.0,47.0,500.0,47.0,535.0,51.0,479.0,,,-2.0,1.0,,26.2,-9.0,0.0,,,0.656,0.723,68.2,31.2,,,,,,1039.0,2026-01-10 14:05:33-08:00
82.06,1.0,10.0,2026-01-10 22:06:49,37.08162,-121.59973,426.0,0.0,341.1,-12.6,,,,,22:06:48,11.1,-0.9,51.0,0.0,-197.0,0.0,-0.02,1.0,,-39.0,16.0,0.0,30.44,-140.0,,,241.0,,,,,0.0,0.0,,,,,,,0.0,,,0.0,,,,,,,,,68.0,31.0,1050.0,1050.0,13.6,2.8,,2.8,26.2,,,37.7,0.0,0.0,30.9,0.8,0.3,,,,,48.0,518.0,47.0,506.0,48.0,536.0,52.0,482.0,,,-2.0,1.0,,26.2,-9.0,0.0,,,0.654,0.723,68.3,31.1,,,,,,1050.0,2026-01-10 14:05:33-08:00
83.06,1.0,10.0,2026-01-10 22:06:50,37.08162,-121.59973,426.0,0.0,341.1,-12.6,,,,,22:06:49,11.0,-0.9,51.0,0.0,-197.0,0.0,-0.02,1.0,,-25.0,16.0,0.0,30.44,-138.0,,,241.0,,,,,0.0,0.0,,,,,,,0.0,,,0.0,,,,,,,,,68.0,31.0,1056.0,1056.0,13.4,2.8,,2.8,26.2,,,37.7,0.0,0.0,28.3,0.8,0.3,,,,,49.0,522.0,47.0,510.0,48.0,539.0,52.0,486.0,,,-2.0,1.0,,26.2,-9.0,0.0,,,0.654,0.721,68.5,31.1,,,,,,1056.0,2026-01-10 14:05:33-08:00
84.06,1.0,10.0,2026-01-10 22:06:51,37.08162,-121.59973,426.0,0.0,341.1,-12.6,,,,,22:06:50,11.0,-0.9,51.1,0.0,-197.0,0.0,-0.02,1.0,,12.0,16.0,0.0,30.44,-138.0,,,241.0,,,,,0.0,0.0,,,,,,,0.0,,,0.0,,,,,,,,,69.0,31.0,1056.0,1056.0,13.3,2.7,,2.7,26.2,,,37.7,0.0,0.0,25.7,0.8,0.3,,,,,49.0,524.0,48.0,515.0,48.0,540.0,53.0,490.0,,,-2.0,1.0,,26.2,-9.0,0.0,,,0.664,0.721,68.7,31.0,,,,,,1056.0,2026-01-10 14:05:33-08:00
85.06,1.0,10.0,2026-01-10 22:06:52,37.08162,-121.59973,427.0,0.0,341.1,-12.6,,,,,22:06:51,11.1,-0.9,51.0,0.0,-197.0,0.0,-0.02,1.0,,27.0,16.0,0.0,30.44,-138.0,,,241.0,,,,,0.0,0.0,,,,,,,0.0,,,0.0,,,,,,,,,68.0,31.0,993.0,993.0,13.2,2.7,,2.7,26.2,,,37.7,0.0,0.0,23.5,0.8,0.3,,,,,49.0,528.0,48.0,520.0,49.0,542.0,53.0,493.0,,,-2.0,1.0,,26.2,-9.0,0.0,,,0.665,0.723,68.2,31.0,,,,,,993.0,2026-01-10 14:05:33-08:00
86.06,1.0,10.0,2026-01-10 22:06:53,37.08162,-121.59973,427.0,0.0,341.1,-12.6,,,,,22:06:52,11.1,-0.9,51.0,0.0,-197.0,0.0,-0.02,1.0,,45.0,16.0,0.0,30.44,-138.0,,,241.0,,,,,0.0,0.0,,,,,,,0.0,,,0.0,,,,,,,,,66.0,31.0,972.0,972.0,13.3,2.6,,2.6,26.2,,,37.7,0.0,0.0,21.6,0.8,0.3,,,,,50.0,531.0,48.0,523.0,50.0,542.0,54.0,495.0,,,-2.0,1.0,,26.2,-9.0,0.0,,,0.66,0.721,66.4,30.9,,,,,,972.0,2026-01-10 14:05:33-08:00
87.06,1.0,10.0,2026-01-10 22:06:54,37.08162,-121.59973,427.0,0.0,341.1,-12.6,,,,,22:06:53,11.0,-1.0,51.0,0.0,-197.0,-0.0,-0.02,1.0,,30.0,16.0,0.0,30.44,-138.0,,,241.0,,,,,0.0,0.0,,,,,,,0.0,,,0.0,,,,,,,,,66.0,31.0,957.0,957.0,13.3,2.5,,2.5,26.2,,,37.7,0.0,0.0,20.0,0.8,0.3,,,,,50.0,533.0,49.0,526.0,50.0,540.0,54.0,495.0,,,-2.0,0.0,,26.2,-9.0,0.0,,,0.659,0.721,65.9,30.9,,,,,,957.0,2026-01-10 14:05:33-08:00
88.06,1.0,10.0,2026-01-10 22:06:55,37.08162,-121.59973,427.0,0.1,341.1,-12.6,,,,,22:06:54,11.1,-0.9,51.0,0.0,-197.0,0.0,-0.02,1.0,,-15.0,16.0,0.0,30.44,-138.0,,,241.0,,,,,0.0,0.0,,,,,,,0.0,,,0.0,,,,,,,,,64.0,31.0,872.0,872.0,13.4,2.4,,2.4,26.2,,,37.7,0.0,0.0,18.6,0.8,0.3,,,,,51.0,535.0,49.0,527.0,50.0,540.0,55.0,497.0,,,-2.0,0.0,,26.2,-9.0,0.0,,,0.658,0.723,64.0,30.9,,,,,,872.0,2026-01-10 14:05:33-08:00
89.06,1.0,10.0,2026-01-10 22:06:56,37.08162,-121.59973,428.0,0.1,341.1,-12.6,,,,,22:06:55,11.1,-0.9,51.0,0.0,-197.0,-0.0,-0.02,1.0,,13.0,16.0,0.0,30.44,-129.0,,,241.0,,,,,0.0,0.0,,,,,,,0.0,,,0.0,,,,,,,,,63.0,31.0,870.0,870.0,13.8,2.3,,2.3,26.2,,,37.7,0.0,0.0,17.4,0.8,0.3,,,,,51.0,535.0,49.0,527.0,51.0,540.0,55.0,498.0,,,-2.0,0.0,,26.2,-9.0,0.0,,,0.659,0.723,63.0,30.9,,,,,,870.0,2026-01-10 14:05:33-08:00
90.06,1.0,10.0,2026-01-10 22:06:57,37.08162,-121.59973,428.0,0.1,341.1,-12.6,,,,,22:06:56,11.0,-0.9,51.1,0.0,-197.0,0.0,-0.02,1.0,,18.0,16.0,0.0,30.44,-129.0,,,241.0,,,,,0.0,0.0,,,,,,,0.0,,,0.0,,,,,,,,,63.0,31.0,869.0,869.0,13.9,2.2,,2.2,26.2,,,37.7,0.0,0.0,16.3,0.8,0.3,,,,,51.0,536.0,50.0,528.0,51.0,540.0,55.0,499.0,,,-2.0,0.0,,26.2,-9.0,0.0,,,0.658,0.723,63.0,30.8,,,,,,869.0,2026-01-10 14:05:33-08:00
91.06,1.0,10.0,2026-01-10 22:06:58,37.08162,-121.59973,428.0,0.0,341.1,-12.6,,,,,22:06:57,11.0,-0.9,51.1,0.0,-197.0,0.0,-0.02,1.0,,-9.0,16.0,0.0,30.44,-129.0,,,241.0,,,,,0.0,0.0,,,,,,,0.0,,,0.0,,,,,,,,,63.0,31.0,872.0,872.0,13.8,2.1,,2.1,26.2,,,37.7,0.0,0.0,15.3,0.8,0.3,,,,,52.0,535.0,50.0,529.0,52.0,540.0,56.0,500.0,,,-2.0,0.0,,26.2,-9.0,0.0,,,0.658,0.721,63.1,30.8,,,,,,872.0,2026-01-10 14:05:33-08:00
92.06,1.0,10.0,2026-01-10 22:06:59,37.08162,-121.59973,428.0,0.1,341.1,-12.6,,,,,22:06:58,11.0,-1.0,51.1,0.0,-197.0,0.0,-0.02,1.0,,-4.0,16.0,0.0,30.44,-129.0,,,241.0,,,,,0.0,0.0,,,,,,,0.0,,,0.0,,,,,,,,,63.0,31.0,874.0,874.0,13.9,2.1,,2.1,26.2,,,37.7,0.0,0.0,15.7,0.8,0.3,,,,,53.0,536.0,51.0,530.0,52.0,541.0,56.0,502.0,,,-2.0,0.0,,26.2,-9.0,0.0,,,0.657,0.723,62.9,30.9,,,,,,874.0,2026-01-10 14:05:33-08:00
93.06,1.0,10.0,2026-01-10 22:07:00,37.08162,-121.59973,428.0,0.1,341.1,-12.6,,,,,22:06:59,11.0,-0.9,51.0,0.0,-197.0,-0.0,-0.01,1.0,,-26.0,16.0,0.0,30.44,-129.0,,,241.0,,,,,0.0,0.0,,,,,,,0.0,,,0.0,,,,,,,,,63.0,31.0,877.0,877.0,13.8,2.0,,2.0,26.2,,,37.7,0.0,0.0,15.9,0.8,0.3,,,,,53.0,537.0,51.0,531.0,53.0,542.0,57.0,503.0,,,-2.0,0.0,,26.2,-9.0,0.0,,,0.657,0.721,63.1,30.8,,,,,,877.0,2026-01-10 14:05:33-08:00
94.06,1.0,10.0,2026-01-10 22:07:01,37.08162,-121.59973,428.0,0.1,341.1,-12.6,,,,,22:07:00,11.0,-0.9,51.0,0.0,-197.0,-0.0,-0.02,1.0,,-2.0,16.0,0.0,30.44,-127.0,,,241.0,,,,,0.0,0.0,,,,,,,1.0,,,93.0,,,,,,,,,63.0,31.0,868.0,868.0,13.6,2.0,,2.0,26.2,,,37.7,0.0,0.0,15.7,0.8,0.3,,,,,53.0,537.0,51.0,532.0,53.0,542.0,57.0,504.0,,,-2.0,0.0,,26.2,-9.0,0.0,,,0.657,0.721,63.2,30.8,,,,,,868.0,2026-01-10 14:05:33-08:00
95.06,1.0,10.0,2026-01-10 22:07:02,37.08162,-121.59973,428.0,0.0,341.1,-12.6,,,,,22:07:01,11.0,-0.9,51.0,0.0,-197.0,0.0,-0.02,1.0,,13.0,16.0,0.0,30.44,-127.0,,,241.0,,,,,0.0,0.0,,,,,,,1.0,,,98.0,,,,,,,,,63.0,31.0,867.0,867.0,13.8,2.0,,2.0,26.2,,,37.7,0.0,0.0,15.6,0.8,0.3,,,,,54.0,538.0,52.0,532.0,54.0,544.0,58.0,505.0,,,-2.0,0.0,,26.2,-9.0,0.0,,,0.657,0.721,63.1,30.8,,,,,,867.0,2026-01-10 14:05:33-08:00
96.06,2.0,10.0,2026-01-10 22:07:03,37.08163,-121.59973,426.0,0.0,341.1,-12.6,,,,,22:07:02,11.1,-0.9,51.0,0.0,-197.0,0.0,-0.02,0.9,,33.0,16.0,0.0,30.44,-127.0,,,241.0,,,,,0.0,0.0,,,,,,,1.0,,,95.0,,,,,,,,,63.0,31.0,884.0,884.0,13.8,2.0,,2.0,26.2,,,37.7,0.0,0.0,15.8,0.8,0.3,,,,,54.0,539.0,52.0,533.0,54.0,544.0,58.0,506.0,,,-2.0,0.0,,26.2,-9.0,0.0,,,0.657,0.723,63.0,30.9,,,,,,884.0,2026-01-10 14:05:33-08:00
97.06,2.0,10.0,2026-01-10 22:07:04,37.08164,-121.59974,433.0,0.0,341.1,-12.6,,,,,22:07:03,11.0,-1.0,51.0,0.0,-197.0,0.0,-0.02,1.0,,64.0,16.0,0.0,30.44,-118.0,,,241.0,,,,,0.0,0.0,,,,,,,1.0,,,81.0,,,,,,,,,63.0,31.0,874.0,874.0,13.8,2.0,,2.0,26.2,,,37.7,0.0,0.0,15.9,0.8,0.3,,,,,55.0,540.0,53.0,534.0,55.0,545.0,59.0,506.0,,,-2.0,0.0,,26.2,-9.0,0.0,,,0.656,0.721,63.3,30.8,,,,,,874.0,2026-01-10 14:05:33-08:00
98.06,2.0,10.0,2026-01-10 22:07:05,37.08164,-121.59974,432.0,0.1,341.1,-12.6,,,,,22:07:04,11.0,-1.0,51.0,0.0,-197.0,0.0,-0.02,1.0,,33.0,16.0,0.0,30.44,-118.0,,,241.0,,,,,0.0,0.0,,,,,,,8.0,,,-78.0,,,,,0.0,0.0,0.0,1200.0,63.0,31.0,873.0,873.0,13.7,2.0,,2.0,26.2,,,37.7,0.0,0.0,15.7,0.8,0.3,,,,,55.0,541.0,53.0,535.0,55.0,546.0,59.0,508.0,,,-2.0,0.0,,26.2,-9.0,0.0,,,0.657,0.721,63.3,30.8,,,,,,873.0,2026-01-10 14:05:33-08:00
99.06,2.0,10.0,2026-01-10 22:07:06,37.08164,-121.59975,433.0,0.0,341.1,-12.6,,,,,22:07:05,11.1,-1.0,51.0,0.0,-197.0,0.0,-0.02,1.0,,23.0,16.0,0.0,30.44,-118.0,,,241.0,,,,,0.0,0.0,,,,,,,5.0,,,-43.0,,,,,0.0,0.0,0.0,1200.0,63.0,31.0,888.0,888.0,13.7,2.0,,2.0,26.2,,,37.7,0.0,0.0,15.5,0.8,0.3,,,,,56.0,542.0,53.0,536.0,56.0,547.0,60.0,510.0,,,-2.0,0.0,,26.2,-9.0,0.0,,,0.656,0.721,63.2,30.8,,,,,,888.0,2026-01-10 14:05:33-08:00
100.06,2.0,10.0,2026-01-10 22:07:07,37.08164,-121.59975,432.0,0.0,341.1,-12.6,,,,,22:07:06,11.0,-1.0,50.9,0.0,-197.0,0.0,-0.02,1.0,,40.0,16.0,0.0,30.44,-118.0,,,241.0,,,,,0.0,0.0,,,,,,,5.0,,,31.0,,,,,0.0,0.0,0.0,1200.0,63.0,31.0,894.0,894.0,13.6,2.0,,2.0,26.3,,,37.7,0.0,0.0,15.3,0.8,0.3,,,,,56.0,543.0,54.0,537.0,56.0,548.0,60.0,512.0,,,-2.0,0.0,,26.3,-9.0,0.0,,,0.656,0.721,63.4,30.8,,,,,,894.0,2026-01-10 14:05:33-08:00
101.06,2.0,10.0,2026-01-10 22:07:08,37.08164,-121.59975,432.0,0.1,341.1,-12.6,,,,,22:07:07,11.1,-1.0,50.9,0.0,-197.0,0.0,-0.02,1.0,,55.0,16.0,0.0,30.44,-118.0,,,241.0,,,,,0.0,0.0,,,,,,,5.0,,,30.0,,,,,0.0,0.0,0.0,1200.0,64.0,31.0,892.0,892.0,13.5,2.0,,2.0,26.2,,,37.7,0.0,0.0,15.0,0.8,0.3,,,,,56.0,544.0,54.0,539.0,57.0,549.0,61.0,513.0,,,-2.0,0.0,,26.2,-9.0,0.0,,,0.656,0.72,63.6,30.8,,,,,,892.0,2026-01-10 14:05:33-08:00
102.06,2.0,10.0,2026-01-10 22:07:09,37.08164,-121.59975,433.0,0.1,341.1,-12.6,,,,,22:07:08,11.1,-1.0,50.9,0.0,-197.0,0.0,-0.02,1.0,,69.0,16.0,0.0,30.44,-118.0,,,241.0,,,,,0.0,0.0,,,,,,,5.0,,,30.0,,,,,0.0,0.0,0.0,1200.0,64.0,31.0,884.0,884.0,13.5,2.0,,2.0,26.2,,,37.7,0.0,0.0,14.9,0.8,0.3,,,,,57.0,544.0,55.0,541.0,57.0,551.0,61.0,514.0,,,-2.0,0.0,,26.2,-9.0,0.0,,,0.656,0.72,63.6,30.8,,,,,,884.0,2026-01-10 14:05:33-08:00
103.06,2.0,10.0,2026-01-10 22:07:10,37.08162,-121.59975,436.0,0.1,341.1,-12.6,,,,,22:07:09,11.0,-1.1,50.8,0.0,-196.0,-0.0,-0.02,1.0,,59.0,16.0,0.0,30.44,-117.0,,,241.0,,,,,0.0,0.0,,,,,,,5.0,,,29.0,,,,,0.0,0.0,0.0,1200.0,64.0,31.0,892.0,892.0,13.5,2.0,,2.0,26.2,,,37.7,0.0,0.0,14.3,0.8,0.3,,,,,57.0,544.0,55.0,542.0,58.0,553.0,62.0,516.0,,,-2.0,0.0,,26.2,-9.0,0.0,,,0.656,0.72,63.7,30.8,,,,,,892.0,2026-01-10 14:05:33-08:00
104.06,2.0,10.0,2026-01-10 22:07:11,37.0816,-121.59975,439.0,0.0,341.1,-12.6,,,,,22:07:10,11.1,-1.1,50.9,0.0,-194.0,-0.0,-0.02,1.0,,75.0,16.0,0.0,30.44,-114.0,,,241.0,,,,,0.0,0.0,,,,,,,9.0,,,28.0,,,,,0.0,0.0,0.0,1200.0,64.0,31.0,889.0,889.0,13.5,2.0,,2.0,26.2,,,37.6,0.0,0.0,13.7,0.8,0.3,,,,,58.0,546.0,56.0,544.0,58.0,553.0,62.0,517.0,,,-2.0,0.0,,26.2,-9.0,0.0,,,0.656,0.72,63.7,30.7,,,,,,889.0,2026-01-10 14:05:33-08:00
105.06,2.0,10.0,2026-01-10 22:07:12,37.0816,-121.59975,440.0,0.0,341.1,-12.6,,,,,22:07:11,11.0,-1.1,50.9,0.0,-194.0,0.0,-0.01,1.0,,42.0,16.0,0.0,30.44,-113.0,,,241.0,,,,,0.0,0.0,,,,,,,8.0,,,28.0,,,,,0.0,0.0,0.0,1200.0,64.0,31.0,899.0,899.0,13.5,2.0,,2.0,26.3,,,37.6,0.0,0.0,13.2,0.8,0.3,,,,,58.0,547.0,56.0,546.0,58.0,553.0,63.0,518.0,,,-2.0,0.0,,26.3,-9.0,0.0,,,0.656,0.72,63.7,30.7,,,,,,899.0,2026-01-10 14:05:33-08:00
106.06,2.0,10.0,2026-01-10 22:07:13,37.0816,-121.59975,441.0,0.1,341.1,-12.6,,,,,22:07:12,11.0,-1.0,50.8,0.0,-194.0,0.0,-0.01,1.0,,40.0,16.0,0.0,30.44,-113.0,,,241.0,,,,,0.0,0.0,,,,,,,12.0,,,28.0,,,,,0.0,0.0,0.0,1200.0,64.0,31.0,897.0,897.0,13.5,2.0,,2.0,26.2,,,37.6,0.0,0.0,12.8,0.8,0.3,,,,,59.0,549.0,56.0,547.0,59.0,554.0,63.0,520.0,,,-2.0,0.0,,26.2,-9.0,0.0,,,0.656,0.72,63.7,30.7,,,,,,897.0,2026-01-10 14:05:33-08:00
107.06,2.0,10.0,2026-01-10 22:07:14,37.0816,-121.59975,448.0,0.0,341.1,-12.6,,,,,22:07:13,11.1,-1.0,50.9,0.0,-192.0,0.0,-0.01,1.0,,82.0,16.0,0.0,30.44,-110.0,,,241.0,,,,,0.0,0.0,,,,,,,9.0,,,28.0,,,,,0.0,0.0,0.0,1200.0,65.0,31.0,931.0,931.0,13.3,2.0,,2.0,26.3,,,37.6,0.0,0.0,12.5,0.8,0.3,,,,,59.0,549.0,57.0,548.0,59.0,555.0,64.0,522.0,,,-2.0,0.0,,26.3,-9.0,0.0,,,0.656,0.72,64.5,30.7,,,,,,931.0,2026-01-10 14:05:33-08:00
108.06,2.0,10.0,2026-01-10 22:07:15,37.0816,-121.59975,449.0,0.0,341.1,-12.6,,,,,22:07:14,11.1,-1.1,50.8,0.0,-192.0,-0.0,-0.01,1.0,,36.0,16.0,0.0,30.44,-110.0,,,241.0,,,,,0.0,0.0,,,,,,,4.0,,,27.0,,,,,0.0,0.0,0.0,1200.0,65.0,31.0,922.0,922.0,13.2,2.0,,2.0,26.3,,,37.6,0.0,0.0,12.2,0.8,0.3,,,,,60.0,550.0,57.0,549.0,60.0,560.0,64.0,524.0,,,-2.0,0.0,,26.3,-9.0,0.0,,,0.656,0.72,64.6,30.7,,,,,,922.0,2026-01-10 14:05:33-08:00
109.06,2.0,10.0,2026-01-10 22:07:16,37.08159,-121.59975,449.0,0.0,341.1,-12.6,,,,,22:07:15,11.1,-1.0,50.9,0.0,-192.0,0.0,-0.02,1.0,,36.0,16.0,0.0,30.44,-110.0,,,241.0,,,,,0.0,0.0,,,,,,,4.0,,,26.0,,,,,0.0,0.0,0.0,1200.0,64.0,31.0,904.0,904.0,13.0,2.0,,2.0,26.2,,,37.6,0.0,0.0,12.0,0.8,0.3,,,,,60.0,549.0,58.0,549.0,60.0,561.0,65.0,525.0,,,-2.0,0.0,,26.2,-9.0,0.0,,,0.656,0.72,64.3,30.7,,,,,,904.0,2026-01-10 14:05:33-08:00
110.06,2.0,10.0,2026-01-10 22:07:17,37.08159,-121.59975,449.0,0.0,341.1,-12.6,,,,,22:07:16,11.0,-1.0,50.9,0.0,-191.0,0.0,-0.02,1.0,,52.0,16.0,0.0,30.44,-109.0,,,241.0,,,,,0.0,0.0,,,,,,,4.0,,,26.0,,,,,0.0,0.0,0.0,1200.0,64.0,31.0,886.0,886.0,13.1,1.9,,1.9,26.3,,,37.6,0.0,0.0,11.8,0.8,0.3,,,,,60.0,548.0,58.0,550.0,61.0,562.0,65.0,526.0,,,-2.0,0.0,,26.3,-9.0,0.0,,,0.656,0.72,64.3,30.7,,,,,,886.0,2026-01-10 14:05:33-08:00
111.06,2.0,10.0,2026-01-10 22:07:18,37.08159,-121.59975,449.0,0.1,341.1,-12.6,,,,,22:07:17,11.0,-1.0,50.9,0.0,-190.0,0.0,-0.02,1.0,,22.0,16.0,0.0,30.44,-108.0,,,241.0,,,,,0.0,0.0,,,,,,,4.0,,,26.0,,,,,0.0,0.0,0.0,1200.0,61.0,31.0,768.0,768.0,13.0,1.8,,1.8,26.3,,,37.6,0.0,0.0,11.7,0.8,0.3,,,,,61.0,550.0,58.0,548.0,61.0,561.0,66.0,527.0,,,-2.0,0.0,,26.3,-9.0,0.0,,,0.654,0.721,60.8,30.7,,,,,,768.0,2026-01-10 14:05:33-08:00
112.06,2.0,10.0,2026-01-10 22:07:19,37.08159,-121.59975,448.0,0.1,341.1,-12.6,,,,,22:07:18,11.0,-1.0,51.0,0.0,-190.0,0.0,-0.02,0.9,,-25.0,16.0,0.0,30.44,-108.0,,,241.0,,,,,0.0,0.0,,,,,,,4.0,,,26.0,,,,,0.0,0.0,0.0,1200.0,59.0,31.0,746.0,746.0,13.7,1.7,,1.7,26.3,,,37.6,0.0,0.0,11.6,0.8,0.3,,,,,62.0,549.0,59.0,550.0,62.0,559.0,66.0,527.0,,,-2.0,0.0,,26.3,-9.0,0.0,,,0.656,0.721,59.3,30.7,,,,,,746.0,2026-01-10 14:05:33-08:00
113.06,2.0,10.0,2026-01-10 22:07:20,37.08159,-121.59975,448.0,0.0,341.1,-12.6,,,,,22:07:19,11.0,-1.0,51.0,0.0,-190.0,0.0,-0.02,0.9,,-6.0,16.0,0.0,30.44,-108.0,,,241.0,,,,,0.0,0.0,,,,,,,4.0,,,26.0,,,,,0.0,0.0,0.0,1200.0,59.0,31.0,731.0,731.0,13.9,1.6,,1.6,26.3,,,37.6,0.0,0.0,11.4,0.8,0.3,,,,,62.0,549.0,59.0,550.0,62.0,559.0,67.0,526.0,,,-2.0,0.0,,26.3,-9.0,0.0,,,0.654,0.72,59.0,30.7,,,,,,731.0,2026-01-10 14:05:33-08:00
114.06,2.0,10.0,2026-01-10 22:07:21,37.08159,-121.59975,448.0,0.1,341.1,-12.6,,,,,22:07:20,11.0,-1.0,51.0,0.0,-190.0,-0.0,-0.02,0.9,,12.0,16.0,0.0,30.44,-99.0,,,241.0,,,,,0.0,0.0,,,,,,,4.0,,,26.0,,,,,0.0,0.0,0.0,1200.0,59.0,31.0,726.0,726.0,14.3,1.6,,1.6,26.3,,,37.6,0.0,0.0,11.3,0.8,0.3,,,,,62.0,549.0,59.0,550.0,63.0,558.0,67.0,525.0,,,-2.0,0.0,,26.3,-9.0,0.0,,,0.654,0.72,58.5,30.7,,,,,,726.0,2026-01-10 14:05:33-08:00
115.06,2.0,10.0,2026-01-10 22:07:22,37.08159,-121.59975,449.0,0.1,341.1,-12.6,,,,,22:07:21,11.0,-1.0,51.0,0.0,-190.0,0.0,-0.02,1.0,,-12.0,16.0,0.0,30.44,-98.0,,,241.0,,,,,0.0,0.0,,,,,,,4.0,,,26.0,,,,,0.0,0.0,0.0,1200.0,59.0,31.0,744.0,744.0,14.3,1.6,,1.6,26.3,,,37.6,0.0,0.0,11.1,0.8,0.3,,,,,63.0,550.0,60.0,548.0,63.0,559.0,68.0,524.0,,,-2.0,0.0,,26.3,-9.0,0.0,,,0.656,0.721,58.9,30.7,,,,,,744.0,2026-01-10 14:05:33-08:00
116.06,2.0,10.0,2026-01-10 22:07:23,37.08159,-121.59975,450.0,0.0,341.1,-12.6,,,,,22:07:22,11.0,-1.0,51.1,0.0,-190.0,0.0,-0.01,1.0,,-18.0,16.0,0.0,30.44,-98.0,,,241.0,,,,,0.0,0.0,,,,,,,4.0,,,26.0,,,,,0.0,0.0,0.0,1200.0,60.0,31.0,828.0,828.0,14.3,1.6,,1.6,26.2,,,37.6,0.0,0.0,10.9,0.8,0.3,,,,,63.0,551.0,60.0,548.0,64.0,560.0,68.0,525.0,,,-2.0,0.0,,26.2,-9.0,0.0,,,0.656,0.721,59.6,30.7,,,,,,828.0,2026-01-10 14:05:33-08:00
117.06,2.0,10.0,2026-01-10 22:07:24,37.08158,-121.59974,452.0,0.1,341.1,-12.6,,,,,22:07:23,11.0,-1.0,51.2,0.0,-190.0,0.1,-0.02,1.0,,12.0,16.0,0.0,30.44,-98.0,,,241.0,,,,,0.0,0.0,,,,,,,-2.0,,,52.0,,,,,0.0,0.0,0.0,1200.0,66.0,31.0,1024.0,1024.0,13.7,1.7,,1.7,26.3,,,37.6,0.0,0.0,10.6,0.8,0.3,,,,,64.0,552.0,61.0,549.0,64.0,564.0,69.0,528.0,,,-2.0,0.0,,26.3,-9.0,0.0,,,0.658,0.721,66.1,30.7,,,,,,1024.0,2026-01-10 14:05:33-08:00
118.06,2.0,10.0,2026-01-10 22:07:25,37.08158,-121.59974,453.0,0.1,341.1,-12.6,,,,,22:07:24,11.1,-1.0,51.3,0.0,-190.0,0.1,-0.02,1.0,,12.0,16.0,0.0,30.44,-88.0,,,241.0,,,,,0.0,0.0,,,,,,,-1.0,,,98.0,,,,,0.0,0.0,0.0,1200.0,68.0,31.0,1043.0,1043.0,13.0,1.8,,1.8,26.3,,,37.6,0.0,0.0,10.5,0.8,0.3,,,,,64.0,555.0,61.0,553.0,65.0,566.0,69.0,532.0,,,-2.0,0.0,,26.3,-9.0,0.0,,,0.658,0.721,67.6,30.7,,,,,,1043.0,2026-01-10 14:05:33-08:00
119.06,2.0,10.0,2026-01-10 22:07:26,37.08158,-121.59974,454.0,0.7,341.1,-12.6,,,,,22:07:25,11.3,-0.8,53.0,0.0,-189.0,1.0,-0.01,0.9,,55.0,16.0,0.0,30.44,-88.0,,,241.0,,,,,0.0,0.0,,,,,,,-1.0,,,94.0,,,,,0.0,0.0,0.0,1200.0,81.0,31.0,1385.0,1385.0,15.2,2.2,,2.2,26.4,,,37.6,0.0,0.0,10.2,0.8,0.3,,,,,64.0,567.0,61.0,561.0,65.0,585.0,70.0,545.0,,,-2.0,0.0,,26.4,-9.0,0.0,,,0.662,0.72,80.7,30.7,,,,,,1385.0,2026-01-10 14:05:33-08:00
120.06,2.0,10.0,2026-01-10 22:07:27,37.08158,-121.59974,454.0,0.8,275.0,-12.6,,,,,22:07:26,11.5,-0.9,54.2,0.0,-189.0,1.4,-0.02,1.0,,30.0,16.0,0.0,30.44,-88.0,,,241.0,,,,,0.0,0.0,,,,,,,-1.0,,,96.0,,,,,0.0,0.0,0.0,1200.0,70.0,31.0,1053.0,1053.0,12.7,2.3,,2.3,26.2,,,37.6,0.0,0.0,10.3,0.8,0.3,,,,,65.0,566.0,62.0,562.0,66.0,584.0,71.0,549.0,,,-2.0,0.0,,26.2,-9.0,0.0,,,0.659,0.72,70.0,30.7,,,,,,1053.0,2026-01-10 14:05:33-08:00
121.06,2.0,10.0,2026-01-10 22:07:28,37.08158,-121.59973,454.0,0.7,275.0,-12.6,,,,,22:07:27,11.5,-0.8,55.2,0.0,-189.0,1.2,-0.02,0.9,,47.0,16.0,0.0,30.44,-86.0,,,241.0,,,,,0.0,0.0,,,,,,,-1.0,,,96.0,,,,,0.0,0.0,0.0,1200.0,69.0,31.0,1066.0,1066.0,12.8,2.3,,2.3,26.3,,,37.6,0.0,0.0,10.3,0.8,0.3,,,,,66.0,569.0,62.0,564.0,66.0,585.0,71.0,551.0,,,-2.0,0.0,,26.3,-9.0,0.0,,,0.659,0.72,69.2,30.7,,,,,,1066.0,2026-01-10 14:05:33-08:00
122.06,2.0,10.0,2026-01-10 22:07:29,37.08159,-121.59973,453.0,1.0,265.6,-12.6,,,,,22:07:28,11.6,-0.7,56.9,0.0,-189.0,1.7,-0.03,1.0,,-35.0,16.0,0.0,30.44,-86.0,,,241.0,,,,,0.0,0.0,,,,,,,-1.0,,,96.0,,,,,0.0,0.0,0.0,1200.0,69.0,31.0,1071.0,1071.0,12.8,2.3,,2.3,26.3,,,37.6,0.0,0.0,10.3,0.8,0.3,,,,,66.0,570.0,63.0,566.0,67.0,587.0,72.0,557.0,,,-2.0,0.0,,26.3,-9.0,0.0,,,0.659,0.72,68.8,30.7,,,,,,1071.0,2026-01-10 14:05:33-08:00
123.06,2.0,10.0,2026-01-10 22:07:30,37.08159,-121.59972,445.0,0.7,265.6,-12.6,,,,,22:07:29,11.6,-0.9,55.8,0.0,-189.0,0.2,-0.01,1.0,,-39.0,16.0,0.0,30.44,-86.0,,,241.0,,,,,0.0,0.0,,,,,,,-1.0,,,93.0,,,,,0.0,0.0,0.0,1200.0,68.0,31.0,1051.0,1051.0,12.7,2.3,,2.3,26.2,,,37.6,0.0,0.0,10.1,0.8,0.3,,,,,67.0,571.0,64.0,569.0,67.0,587.0,72.0,558.0,,,-2.0,0.0,,26.2,-9.0,0.0,,,0.658,0.72,68.3,30.7,,,,,,1051.0,2026-01-10 14:05:33-08:00
124.06,2.0,10.0,2026-01-10 22:07:31,37.08159,-121.59972,451.0,1.3,213.6,-12.6,,,,,22:07:30,11.6,-0.8,56.6,0.0,-189.0,0.4,-0.02,0.9,,-25.0,16.0,0.0,30.44,-86.0,,,241.0,,,,,0.0,0.0,,,,,,,-1.0,,,92.0,,,,,0.0,0.0,0.0,1200.0,68.0,31.0,1052.0,1052.0,12.7,2.3,,2.3,26.3,,,37.6,0.0,0.0,10.0,0.8,0.3,,,,,67.0,573.0,64.0,571.0,68.0,589.0,73.0,559.0,,,-2.0,0.0,,26.3,-9.0,0.0,,,0.658,0.72,68.2,30.7,,,,,,1052.0,2026-01-10 14:05:33-08:00
125.06,2.0,10.0,2026-01-10 22:07:32,37.08159,-121.59972,451.0,1.3,147.5,-12.6,,,,,22:07:31,11.7,-0.8,57.6,0.0,-189.0,0.8,-0.01,1.0,,-21.0,16.0,0.0,30.44,-85.0,,,241.0,,,,,0.0,0.0,,,,,,,-1.0,,,91.0,,,,,0.0,0.0,0.0,1200.0,68.0,31.0,1047.0,1047.0,12.8,2.3,,2.3,26.3,,,37.6,0.0,0.0,9.9,0.8,0.3,,,,,67.0,574.0,64.0,574.0,68.0,588.0,73.0,560.0,,,-2.0,0.0,,26.3,-9.0,0.0,,,0.657,0.72,68.3,30.6,,,,,,1047.0,2026-01-10 14:05:33-08:00
126.06,2.0,10.0,2026-01-10 22:07:33,37.0816,-121.59971,450.0,1.5,73.1,-12.6,,,,,22:07:32,11.9,-0.8,58.6,0.0,-189.0,1.0,-0.01,1.0,,-42.0,16.0,0.0,30.44,-85.0,,,241.0,,,,,0.0,0.0,,,,,,,-1.0,,,92.0,,,,,0.0,0.0,0.0,1200.0,68.0,31.0,948.0,948.0,12.5,2.3,,2.3,26.4,,,37.6,0.0,0.0,9.8,0.8,0.3,,,,,68.0,576.0,65.0,576.0,69.0,588.0,74.0,561.0,,,-2.0,0.0,,26.4,-9.0,0.0,,,0.658,0.72,67.5,30.7,,,,,,948.0,2026-01-10 14:05:33-08:00
127.06,2.0,10.0,2026-01-10 22:07:34,37.0816,-121.5997,451.0,1.2,64.5,-12.6,,,,,22:07:33,11.8,-0.8,59.3,0.0,-189.0,0.9,-0.02,1.0,,-49.0,16.0,0.0,30.44,-85.0,,,241.0,,,,,0.0,0.0,,,,,,,-1.0,,,93.0,,,,,0.0,0.0,0.0,1200.0,63.0,31.0,843.0,843.0,12.3,2.1,,2.1,26.3,,,37.6,0.0,0.0,9.7,0.8,0.3,,,,,69.0,571.0,65.0,572.0,69.0,586.0,74.0,560.0,,,-2.0,0.0,,26.3,-9.0,0.0,,,0.657,0.719,62.7,30.7,,,,,,843.0,2026-01-10 14:05:33-08:00
128.06,2.0,10.0,2026-01-10 22:07:35,37.0816,-121.59969,452.0,1.0,64.4,-12.6,,,,,22:07:34,11.7,-0.8,59.8,0.0,-189.0,0.7,-0.01,1.0,,-18.0,16.0,0.0,30.44,-76.0,,,241.0,,,,,0.0,0.0,,,,,,,-1.0,,,93.0,,,,,0.0,0.0,0.0,1200.0,64.0,31.0,948.0,948.0,13.0,2.0,,2.0,26.2,,,37.6,0.0,0.0,9.5,0.8,0.3,,,,,69.0,569.0,66.0,572.0,70.0,587.0,75.0,559.0,,,-2.0,0.0,,26.2,-9.0,0.0,,,0.657,0.719,63.7,30.7,,,,,,948.0,2026-01-10 14:05:33-08:00
129.06,2.0,10.0,2026-01-10 22:07:36,37.08158,-121.59969,462.0,1.4,67.2,-12.6,,,,,22:07:35,11.7,-0.8,60.4,0.0,-189.0,0.6,-0.02,0.9,,8.0,16.0,0.0,30.44,-76.0,,,241.0,,,,,0.0,0.0,,,,,,,-1.0,,,92.0,,,,,0.0,0.0,0.0,1200.0,73.0,31.0,1217.0,1217.0,13.6,2.2,,2.2,26.3,,,37.6,0.0,0.0,9.4,0.8,0.3,,,,,70.0,572.0,66.0,573.0,70.0,593.0,76.0,565.0,,,-2.0,0.0,,26.3,-9.0,0.0,,,0.663,0.719,73.2,30.7,,,,,,1217.0,2026-01-10 14:05:33-08:00
130.06,2.0,10.0,2026-01-10 22:07:37,37.08159,-121.59968,462.0,1.7,67.7,-12.6,,,,,22:07:36,11.8,-0.9,60.7,0.0,-189.0,0.5,-0.02,1.0,,-10.0,16.0,0.0,30.44,-76.0,,,241.0,,,,,0.0,0.0,,,,,,,0.0,,,97.0,,,,,0.0,0.0,0.0,1200.0,72.0,31.0,1170.0,1170.0,12.7,2.3,,2.3,26.3,,,37.6,0.0,0.0,9.4,0.8,0.3,,,,,70.0,574.0,67.0,577.0,71.0,598.0,76.0,569.0,,,-2.0,0.0,,26.3,-9.0,0.0,,,0.66,0.721,72.1,30.7,,,,,,1170.0,2026-01-10 14:05:33-08:00
131.06,2.0,10.0,2026-01-10 22:07:38,37.08159,-121.59966,461.0,2.0,68.6,-12.6,,,,,22:07:37,11.9,-0.9,60.9,0.0,-189.0,0.4,-0.02,0.9,,1.0,16.0,0.0,30.44,-75.0,,,241.0,,,,,0.0,0.0,,,,,,,0.0,,,95.0,,,,,0.0,0.0,0.0,1200.0,71.0,31.0,1121.0,1121.0,12.4,2.3,,2.3,26.3,,,37.6,0.0,0.0,9.4,0.8,0.3,,,,,71.0,575.0,67.0,579.0,71.0,600.0,77.0,572.0,,,-2.0,0.0,,26.3,-9.0,0.0,,,0.659,0.72,71.5,30.7,,,,,,1121.0,2026-01-10 14:05:33-08:00
132.06,2.0,10.0,2026-01-10 22:07:39,37.08159,-121.59966,462.0,2.2,70.1,-12.6,,,,,22:07:38,11.0,-1.1,61.1,0.0,-189.0,0.2,-0.02,1.0,,-5.0,16.0,0.0,30.44,-75.0,,,241.0,,,,,0.0,0.0,,,,,,,0.0,,,96.0,,,,,0.0,0.0,0.0,1200.0,69.0,31.0,1065.0,1065.0,12.4,2.3,,2.3,26.2,,,37.6,0.0,0.0,9.3,0.8,0.3,,,,,71.0,577.0,68.0,581.0,72.0,599.0,77.0,572.0,,,-2.0,0.0,,26.2,-9.0,0.0,,,0.658,0.719,69.0,30.7,,,,,,1065.0,2026-01-10 14:05:33-08:00
133.06,2.0,10.0,2026-01-10 22:07:40,37.0816,-121.59964,461.0,2.0,70.5,-12.6,,,,,22:07:39,10.6,-1.0,61.8,0.0,-189.0,0.2,-0.02,0.9,,-21.0,16.0,0.0,30.44,-75.0,,,241.0,,,,,0.0,0.0,,,,,,,0.0,,,96.0,,,,,0.0,0.0,0.0,1200.0,68.0,31.0,1031.0,1031.0,12.5,2.3,,2.3,26.2,,,37.6,0.0,0.0,9.3,0.8,0.3,,,,,72.0,580.0,68.0,583.0,72.0,599.0,78.0,572.0,,,-2.0,0.0,,26.2,-9.0,0.0,,,0.658,0.72,68.1,30.7,,,,,,1031.0,2026-01-10 14:05:33-08:00
134.06,2.0,10.0,2026-01-10 22:07:41,37.08159,-121.59962,461.0,2.0,68.4,-12.6,,,,,22:07:40,10.7,-1.4,62.5,0.0,-189.0,0.3,-0.02,0.9,,1.0,16.0,0.0,30.44,-75.0,,,241.0,,,,,0.0,0.0,,,,,,,0.0,,,96.0,,,,,0.0,0.0,0.0,1200.0,68.0,31.0,1027.0,1027.0,12.7,2.3,,2.3,26.2,,,37.6,0.0,0.0,9.2,0.8,0.3,,,,,72.0,581.0,69.0,585.0,73.0,598.0,78.0,572.0,,,-2.0,0.0,,26.2,-9.0,0.0,,,0.657,0.72,67.7,30.7,,,,,,1027.0,2026-01-10 14:05:33-08:00
135.06,2.0,10.0,2026-01-10 22:07:42,37.0816,-121.59962,460.0,2.4,65.8,-12.6,,,,,22:07:41,10.9,-1.4,62.8,0.0,-189.0,0.4,-0.02,0.8,,2.0,16.0,0.0,30.44,-75.0,,,241.0,,,,,0.0,0.0,,,,,,,0.0,,,96.0,,,,,0.0,0.0,0.0,1200.0,68.0,31.0,1026.0,1026.0,12.8,2.3,,2.3,26.2,,,37.6,0.0,0.0,9.1,0.8,0.3,,,,,73.0,583.0,69.0,587.0,73.0,597.0,79.0,573.0,,,-2.0,0.0,,26.2,-9.0,0.0,,,0.656,0.72,67.6,30.6,,,,,,1026.0,2026-01-10 14:05:33-08:00
136.06,2.0,10.0,2026-01-10 22:07:43,37.0816,-121.5996,460.0,2.6,67.7,-12.6,,,,,22:07:42,11.0,-1.8,63.0,0.0,-189.0,0.4,-0.03,1.1,,-8.0,16.0,0.0,30.44,-75.0,,,241.0,,,,,0.0,0.0,,,,,,,0.0,,,96.0,,,,,0.0,0.0,0.0,1200.0,68.0,31.0,1016.0,1016.0,12.9,2.3,,2.3,26.2,,,37.6,0.0,0.0,9.0,0.8,0.3,,,,,73.0,585.0,70.0,589.0,74.0,596.0,79.0,572.0,,,-2.0,0.0,,26.2,-9.0,0.0,,,0.657,0.719,67.5,30.7,,,,,,1016.0,2026-01-10 14:05:33-08:00
137.06,2.0,10.0,2026-01-10 22:07:44,37.0816,-121.59959,460.0,2.2,66.3,-12.6,,,,,22:07:43,10.9,-2.0,63.2,0.0,-189.0,0.4,-0.04,1.0,,-26.0,16.0,0.0,30.44,-75.0,,,241.0,,,,,0.0,0.0,,,,,,,0.0,,,96.0,,,,,0.0,0.0,0.0,1200.0,67.0,31.0,978.0,978.0,12.9,2.3,,2.3,26.2,,,37.6,0.0,0.0,9.0,0.8,0.3,,,,,73.0,587.0,70.0,590.0,74.0,595.0,80.0,573.0,,,-2.0,0.0,,26.2,-9.0,0.0,,,0.656,0.719,66.6,30.7,,,,,,978.0,2026-01-10 14:05:33-08:00
138.06,2.0,10.0,2026-01-10 22:07:45,37.08161,-121.59957,460.0,2.4,70.8,-12.6,,,,,22:07:44,10.7,-2.0,63.1,0.0,-189.0,0.1,-0.04,1.1,,-12.0,16.0,0.0,30.44,-75.0,,,241.0,,,,,0.0,0.0,,,,,,,0.0,,,96.0,,,,,0.0,0.0,0.0,1200.0,65.0,31.0,945.0,945.0,13.1,2.2,,2.2,26.2,,,37.6,0.0,0.0,8.9,0.8,0.3,,,,,74.0,588.0,71.0,590.0,75.0,595.0,80.0,571.0,,,-2.0,0.0,,26.2,-9.0,0.0,,,0.663,0.719,65.5,30.7,,,,,,945.0,2026-01-10 14:05:33-08:00
139.06,2.0,10.0,2026-01-10 22:07:46,37.08161,-121.59956,456.0,2.2,75.2,-12.6,,,,,22:07:45,10.7,-1.9,62.2,0.0,-189.0,-0.5,-0.03,0.9,,-16.0,16.0,0.0,30.44,-74.0,,,241.0,,,,,0.0,0.0,,,,,,,0.0,,,96.0,,,,,0.0,0.0,0.0,1200.0,65.0,31.0,963.0,963.0,13.2,2.2,,2.2,26.3,,,37.6,0.0,0.0,8.9,0.8,0.3,,,,,74.0,588.0,71.0,589.0,75.0,593.0,81.0,569.0,,,-2.0,0.0,,26.3,-9.0,0.0,,,0.662,0.719,65.4,30.7,,,,,,963.0,2026-01-10 14:05:33-08:00
140.06,2.0,10.0,2026-01-10 22:07:47,37.08161,-121.59955,456.0,2.1,70.9,-12.6,,,,,22:07:46,10.7,-1.9,61.7,0.0,-189.0,-0.5,-0.03,0.9,,3.0,16.0,0.0,30.44,-74.0,,,241.0,,,,,0.0,0.0,,,,,,,0.0,,,96.0,,,,,0.0,0.0,0.0,1200.0,66.0,31.0,991.0,991.0,13.2,2.1,,2.1,26.3,,,37.6,0.0,0.0,8.8,0.8,0.3,,,,,75.0,588.0,71.0,589.0,76.0,592.0,81.0,569.0,,,-2.0,0.0,,26.3,-9.0,0.0,,,0.669,0.719,65.7,30.7,,,,,,991.0,2026-01-10 14:05:33-08:00
141.06,2.0,10.0,2026-01-10 22:07:48,37.08161,-121.59954,456.0,2.1,74.1,-12.6,,,,,22:07:47,10.9,-1.7,61.3,0.0,-189.0,-0.4,-0.03,1.0,,43.0,16.0,0.0,30.44,-74.0,,,241.0,,,,,0.0,0.0,,,,,,,0.0,,,96.0,,,,,0.0,0.0,0.0,1200.0,67.0,31.0,1005.0,1005.0,13.0,2.1,,2.1,26.2,,,37.6,0.0,0.0,8.7,0.8,0.3,,,,,75.0,588.0,72.0,590.0,76.0,593.0,82.0,570.0,,,-2.0,0.0,,26.2,-9.0,0.0,,,0.665,0.719,66.7,30.7,,,,,,1005.0,2026-01-10 14:05:33-08:00
142.06,2.0,10.0,2026-01-10 22:07:49,37.08162,-121.59953,456.0,2.2,73.0,-12.6,,,,,22:07:48,11.0,-1.7,60.9,0.0,-189.0,-0.4,-0.03,0.9,,29.0,16.0,0.0,30.44,-65.0,,,241.0,,,,,0.0,0.0,,,,,,,0.0,,,96.0,,,,,0.0,0.0,0.0,1200.0,67.0,31.0,991.0,991.0,12.9,2.1,,2.1,26.2,,,37.6,0.0,0.0,8.7,0.8,0.3,,,,,76.0,589.0,72.0,590.0,77.0,592.0,83.0,571.0,,,-2.0,0.0,,26.2,-9.0,0.0,,,0.665,0.719,66.6,30.7,,,,,,991.0,2026-01-10 14:05:33-08:00
143.06,2.0,10.0,2026-01-10 22:07:50,37.08162,-121.59952,457.0,2.3,72.4,-12.6,,,,,22:07:49,11.0,-1.6,60.3,0.0,-189.0,-0.5,-0.03,0.9,,31.0,16.0,0.0,30.44,-65.0,,,241.0,,,,,0.0,0.0,,,,,,,0.0,,,96.0,,,,,0.0,0.0,0.0,1200.0,66.0,31.0,1003.0,1003.0,12.8,2.1,,2.1,26.2,,,37.6,0.0,0.0,8.7,0.8,0.3,,,,,76.0,589.0,73.0,590.0,77.0,592.0,83.0,572.0,,,-2.0,0.0,,26.2,-9.0,0.0,,,0.67,0.719,66.4,30.7,,,,,,1003.0,2026-01-10 14:05:33-08:00
144.06,2.0,10.0,2026-01-10 22:07:51,37.08162,-121.5995,457.0,2.2,72.4,-12.6,,,,,22:07:50,10.9,-1.5,59.7,0.0,-189.0,-0.6,-0.02,1.0,,24.0,16.0,0.0,30.44,-65.0,,,241.0,,,,,0.0,0.0,,,,,,,0.0,,,96.0,,,,,0.0,0.0,0.0,1200.0,67.0,31.0,1001.0,1001.0,12.7,2.0,,2.0,26.2,,,37.6,0.0,0.0,8.6,0.8,0.3,,,,,77.0,589.0,73.0,591.0,78.0,592.0,84.0,572.0,,,-2.0,0.0,,26.2,-9.0,0.0,,,0.663,0.719,66.6,30.7,,,,,,1001.0,2026-01-10 14:05:33-08:00
145.06,2.0,10.0,2026-01-10 22:07:52,37.08163,-121.59949,458.0,2.3,71.2,-12.6,,,,,22:07:51,10.8,-1.4,59.2,0.0,-189.0,-0.7,-0.02,1.0,,29.0,16.0,0.0,30.44,-64.0,,,241.0,,,,,0.0,0.0,,,,,,,0.0,,,96.0,,,,,0.0,0.0,0.0,1200.0,66.0,31.0,995.0,995.0,12.7,2.0,,2.0,26.2,,,37.6,0.0,0.0,8.6,0.8,0.3,,,,,77.0,590.0,73.0,591.0,78.0,592.0,84.0,573.0,,,-2.0,0.0,,26.2,-9.0,0.0,,,0.663,0.719,66.4,30.7,,,,,,995.0,2026-01-10 14:05:33-08:00
146.06,2.0,10.0,2026-01-10 22:07:53,37.08163,-121.59948,456.0,2.6,70.1,-12.6,,,,,22:07:52,10.9,-1.3,58.9,0.0,-189.0,-0.5,-0.02,1.1,,-25.0,16.0,0.0,30.44,-64.0,,,241.0,,,,,0.0,0.0,,,,,,,0.0,,,96.0,,,,,0.0,0.0,0.0,1200.0,66.0,31.0,983.0,983.0,12.7,2.0,,2.0,26.2,,,37.6,0.0,0.0,8.5,0.8,0.3,,,,,77.0,590.0,74.0,592.0,79.0,593.0,85.0,573.0,,,-2.0,0.0,,26.2,-9.0,0.0,,,0.668,0.719,66.3,30.7,,,,,,983.0,2026-01-10 14:05:33-08:00
147.06,2.0,10.0,2026-01-10 22:07:54,37.08164,-121.59946,454.0,2.1,66.6,-12.6,,,,,22:07:53,10.8,-1.3,58.6,0.0,-189.0,-0.5,-0.02,0.9,,-2.0,16.0,0.0,30.44,-64.0,,,241.0,,,,,0.0,0.0,,,,,,,0.0,,,96.0,,,,,0.0,0.0,0.0,1200.0,66.0,31.0,994.0,994.0,12.8,2.0,,2.0,26.2,,,37.6,0.0,0.0,8.5,0.8,0.3,,,,,78.0,590.0,74.0,593.0,79.0,593.0,85.0,573.0,,,-2.0,0.0,,26.2,-9.0,0.0,,,0.664,0.719,66.4,30.7,,,,,,994.0,2026-01-10 14:05:33-08:00
